     2.11           OBSERVATION DATA    GPS(GPS)            RINEX VERSION / TYPE
cnvtToRINEX 3.14.0  convertToRINEX OPR  20220810 190611 UTC PGM / RUN BY / DATE 
----------------------------------------------------------- COMMENT             
SC-HV-72                                                    MARKER NAME         
SC-HV-72                                                    MARKER NUMBER       
GNSS Observer       Trimble                                 OBSERVER / AGENCY   
4906165579          TRIMBLE 5700II      4.02                REC # / TYPE / VERS 
60266723            TRM39105.00                             ANT # / TYPE        
  3631357.7729 -4247666.7806 -3063991.7431                  APPROX POSITION XYZ 
        1.5000        0.0000        0.0000                  ANTENNA: DELTA H/E/N
     1     1     0                                          WAVELENGTH FACT L1/2
     4    C1    L1    L2    P2                              # / TYPES OF OBSERV 
  2022     7     3    15    42   25.0000000     GPS         TIME OF FIRST OBS   
  2022     7     3    16    30   40.0000000     GPS         TIME OF LAST OBS    
     0                                                      RCV CLOCK OFFS APPL 
    18                                                      LEAP SECONDS        
     9                                                      # OF SATELLITES     
   G05   576   576   576   576                              PRN / # OF OBS      
   G07   580   580   580   580                              PRN / # OF OBS      
   G08   559   555   555   559                              PRN / # OF OBS      
   G09   580   580   580   580                              PRN / # OF OBS      
   G13   450   450   450   450                              PRN / # OF OBS      
   G14   580   580   580   580                              PRN / # OF OBS      
   G17   309   309   309   309                              PRN / # OF OBS      
   G20   580   580   580   580                              PRN / # OF OBS      
   G30   580   580   580   580                              PRN / # OF OBS      
CARRIER PHASE MEASUREMENTS: PHASE SHIFTS REMOVED            COMMENT             
                                                            END OF HEADER       
 22  7  3 15 42 25.0000000  0  6G07G08G09G14G20G30                  
  21256937.164 6 111705954.65516  87043635.92059  21256945.31649
  23797808.625 3 125058168.56413  97448093.98457  23797820.76647
  22322070.398 5 117303268.95515  91405173.63459  22322082.00849
  20663782.109 6 108588903.56316  84614757.55258  20663790.57048
  22221718.805 6 116775919.60916  90994257.65157  22221727.68847
  21006996.008 6 110392460.77116  86020139.02058  21007006.54748
 22  7  3 15 42 30.0000000  0  6G07G08G09G14G20G30                  
  21259447.586 6 111719151.454 6  87053919.13549  21259456.26249
  23799070.359 2 125064804.413 2  97453264.78247  23799084.03547
  22325142.711 5 117319411.905 5  91417752.55849  22325153.57449
  20663238.188 6 108586043.619 6  84612529.02448  20663246.87548
  22223147.422 6 116783427.557 6  91000107.99247  22223156.66847
  21008048.805 6 110397993.135 6  86024449.95348  21008059.30148
 22  7  3 15 42 35.0000000  0  6G07G08G09G14G20G30                  
  21261960.891 6 111732357.788 6  87064209.77649  21261968.90249
  23800337.484 2 125071460.309 2  97458451.18047  23800350.93847
  22328217.070 5 117335570.364 5  91430343.55848  22328228.61748
  20662697.453 6 108583203.904 6  84610316.26248  20662706.57048
  22224579.672 6 116790955.676 6  91005974.07047  22224589.23847
  21009103.109 6 110403536.452 6  86028769.42548  21009113.85948
 22  7  3 15 42 40.0000000  0  6G07G08G09G14G20G30                  
  21264476.430 6 111745575.434 6  87074509.23949  21264484.52749
  23801609.031 3 125078138.093 3  97463654.64247  23801621.43447
  22331295.813 5 117351746.079 5  91442947.99948  22331306.80148
  20662161.750 6 108580386.183 6  84608120.64348  20662170.59048
  22226016.336 6 116798505.770 6  91011857.25447  22226026.10947
  21010160.883 6 110409092.532 6  86033098.84348  21010171.60948
 22  7  3 15 42 45.0000000  0  7G05G07G08G09G14G20G30               
  23634619.422 5 124200792.52915  96779850.65657  23634629.81347
  21266993.836 6 111758805.354 6  87084818.25349  21267001.89549
  23802883.563 1 125084838.612 1  97468875.80947  23802897.00047
  22334377.430 5 117367940.070 5  91455566.68648  22334388.22348
  20661629.148 6 108577591.446 6  84605942.92048  20661638.87948
  22227458.070 6 116806078.801 6  91017758.32147  22227466.96147
  21011220.586 6 110414662.351 6  86037438.95348  21011231.10948
 22  7  3 15 42 50.0000000  0  7G05G07G08G09G14G20G30               
  23633849.156 5 124196739.696 5  96776692.62047  23633858.55147
  21269513.672 6 111772047.646 6  87095136.92449  21269522.13749
  23804163.016 1 125091561.834 1  97474114.67646  23804176.51246
  22337462.383 5 117384152.344 5  91468199.61048  22337473.20348
  20661102.281 6 108574819.807 6  84603783.21348  20661111.48048
  22228902.594 6 116813674.899 6  91023677.35447  22228912.49647
  21012283.063 6 110420245.976 6  86041789.83748  21012293.52748
 22  7  3 15 42 55.0000000  0  7G05G07G08G09G14G20G30               
  23633081.805 5 124192709.390 5  96773552.11146  23633091.62146
  21272036.703 6 111785302.908 6  87105465.68949  21272044.24649
  23805445.117 1 125098308.664 1  97479371.93147  23805460.10247
  22340550.453 5 117400383.491 5  91480847.26648  22340561.61748
  20660579.563 6 108572071.741 6  84601641.86448  20660588.58648
  22230352.891 6 116821294.494 6  91029614.69547  22230361.86747
  21013347.977 6 110425843.920 6  86046151.86648  21013359.10948
 22  7  3 15 43  0.0000000  0  7G05G07G08G09G14G20G30               
  23632319.813 4 124188701.644 4  96770429.18046  23632329.13746
  21274560.875 6 111798570.999 6  87115804.45349  21274569.17249
  23806734.938 1 125105078.664 1  97484647.24247  23806748.87147
  22343643.625 5 117416633.450 5  91493509.56048  22343654.12148
  20660060.836 6 108569347.271 6  84599518.90348  20660069.81348
  22231807.984 6 116828937.648 6  91035570.38247  22231816.43447
  21014416.125 6 110431456.177 6  86050525.05748  21014427.31648
 22  7  3 15 43  5.0000000  0  7G05G07G08G09G14G20G30               
  23631560.852 5 124184715.962 5  96767323.48746  23631570.75846
  21277087.766 6 111811851.295 6  87126152.73249  21277096.02049
  23808027.602 1 125111871.738 1  97489940.51347  23808041.97747
  22346738.758 5 117432901.669 5  91506186.09048  22346749.86748
  20659546.609 6 108566645.839 6  84597413.89248  20659555.85948
  22233266.477 6 116836603.761 6  91041543.97647  22233274.93447
  21015486.703 6 110437082.135 6  86054908.92348  21015498.16848
 22  7  3 15 43 10.0000000  0  7G05G07G08G09G14G20G30               
  23630806.563 4 124180752.502 4  96764235.04746  23630816.21146
  21279618.383 6 111825143.981 6  87136510.66849  21279625.80549
  23809324.055 1 125118687.529 1  97495251.55746  23809338.70746
  22349837.789 5 117449188.239 5  91518876.92848  22349849.19948
  20659036.992 6 108563967.525 6  84595326.90248  20659046.31348
  22234729.297 5 116844292.938 5  91047535.55147  22234738.25047
  21016560.461 6 110442721.975 6  86059303.60248  21016571.09048
 22  7  3 15 43 15.0000000  0  7G05G07G08G09G14G20G30               
  23630056.422 5 124176810.809 5  96761163.60946  23630065.99646
  21282149.414 6 111838448.485 6  87146877.81249  21282157.66449
  23810625.508 1 125125525.729 1  97500580.04847  23810639.33247
  22352940.891 5 117465492.670 5  91531581.66948  22352951.77048
  20658531.648 6 108561311.810 6  84593257.51948  20658540.84848
  22236197.172 5 116852004.622 5  91053544.65247  22236205.78147
  21017636.516 6 110448375.112 6  86063708.64348  21017646.98448
 22  7  3 15 43 20.0000000  0  7G05G07G08G09G14G20G30               
  23629311.055 4 124172890.801 4  96758109.07346  23629319.99246
  21284683.492 6 111851764.819 6  87157254.17349  21284691.85249
  23811929.586 1                                  23811944.93846
  22356046.633 5 117481814.948 5  91544300.30748  22356057.79348
  20658030.688 6 108558678.758 6  84591205.79348  20658039.96948
  22237669.234 6 116859738.850 6  91059571.33147  22237677.30547
  21018714.117 6 110454041.595 6  86068124.07848  21018725.36348
 22  7  3 15 43 25.0000000  0  7G05G07G08G09G14G20G30               
  23628569.203 5 124168992.272 5  96755071.24446  23628577.92646
  21287220.039 6 111865092.836 6  87167639.62949  21287227.74649
  23813240.289 1 125139269.20911  97511289.23357  23813254.97747
  22359156.531 5 117498154.800 5  91557032.64648  22359166.75848
  20657533.594 6 108556068.059 6  84589171.49448  20657542.79748
  22239145.359 5 116867495.321 5  91065615.32247  22239153.65647
  21019794.984 6 110459721.116 6  86072549.67648  21019805.97348
 22  7  3 15 43 30.0000000  0  7G05G07G08G09G14G20G30               
  23627830.945 5 124165114.900 5  96752049.93146  23627840.45346
  21289758.477 6 111878432.090 6  87178033.85049  21289766.53549
  23814554.547 1 125146173.886 1  97516669.48947  23814568.62947
  22362268.250 5 117514511.934 5  91569778.45948  22362279.69948
  20657040.594 6 108553479.428 6  84587154.38448  20657050.14848
  22240624.961 6 116875273.620 6  91071676.32947  22240633.53947
  21020878.063 6 110465413.378 6  86076985.21348  21020889.37548
 22  7  3 15 43 35.0000000  0  7G05G07G08G09G14G20G30               
  23627097.805 4 124161258.374 4  96749044.81746  23627106.14546
  21292299.070 6 111891782.287 6  87188436.59249  21292306.45349
  23815873.242 1 125153100.031 1  97522066.49547  23815886.53947
  22365384.094 5 117530885.950 5  91582537.43048  22365395.60548
  20656552.477 6 108550912.530 6  84585154.20948  20656561.82048
  22242109.016 6 116883073.584 6  91077754.22647  22242117.93447
  21021963.664 6 110471118.038 6  86081430.39948  21021975.02048
 22  7  3 15 43 40.0000000  0  7G05G07G08G09G14G20G30               
  23626367.602 5 124157421.861 5  96746055.33246  23626376.23846
  21294841.406 6 111905142.662 6  87198847.27149  21294849.12149
  23817195.047 1 125160046.997 1  97527479.68747  23817208.75047
  22368502.906 5 117547276.136 5  91595308.99448  22368514.40248
  20656068.148 6 108548366.606 6  84583170.37348  20656077.12548
  22243597.813 6 116890894.425 6  91083848.39247  22243606.08247
  21023051.031 6 110476834.365 6  86085884.68248  21023062.86348
 22  7  3 15 43 45.0000000  0  7G05G07G08G09G14G20G30               
  23625640.859 5 124153605.632 5  96743081.65746  23625650.04746
  21297385.484 6 111918513.477 6  87209266.08549  21297393.28949
  23818519.719 1 125167014.982 1  97532909.27347  23818534.75447
  22371625.570 5 117563682.771 5  91608093.37948  22371637.02748
  20655587.625 6 108545841.917 6  84581203.08548  20655596.97748
  22245090.023 5 116898736.310 5  91089958.93847  22245098.42647
  21024140.969 6 110482562.546 6  86090348.20348  21024152.53948
 22  7  3 15 43 50.0000000  0  7G05G07G08G09G14G20G30               
  23624918.688 4 124149809.411 4  96740123.56846  23624927.58646
  21299931.961 6 111931894.341 6  87219692.72949  21299939.58649
  23819850.766 1 125174003.500 1  97538354.84247  23819864.56347
  22374751.109 5 117580105.464 5  91620890.27248  22374761.70748
  20655111.367 6 108543338.141 6  84579252.09148  20655120.35548
  22246586.227 6 116906598.935 6  91096085.66247  22246594.75847
  21025233.969 6 110488302.306 6  86094820.73248  21025244.64148
 22  7  3 15 43 55.0000000  0  7G05G07G08G09G14G20G30               
  23624200.523 3 124146033.226 3  96737181.09346  23624208.82846
  21302480.234 6 111945285.368 6  87230127.28749  21302487.69549
  23821184.875 2 125181012.787 2  97543816.61147  23821198.01647
  22377878.938 5 117596544.264 5  91633699.71548  22377890.39848
  20654639.336 6 108540855.293 6  84577317.40648  20654648.28948
  22248086.609 5 116914482.358 5  91102228.58947  22248094.73847
  21026328.594 6 110494053.636 6  86099302.30048  21026339.05148
 22  7  3 15 44  0.0000000  0  7G05G07G08G09G14G20G30               
  23623485.406 4 124142276.516 4  96734253.80946  23623494.31646
  21305030.367 6 111958685.984 6  87240569.31749  21305038.00449
  23822522.898 2 125188042.131 2  97549294.03147  23822535.96547
  22381009.531 5 117612998.617 5  91646521.28348  22381021.23448
  20654170.781 6 108538392.830 6  84575398.60648  20654179.68848
  22249590.133 5 116922385.999 5  91108387.25947  22249599.20747
  21027425.258 6 110499816.015 6  86103792.45748  21027435.70348
 22  7  3 15 44  5.0000000  0  7G05G07G08G09G14G20G30               
  23622774.281 3 124138539.191 3  96731341.58246  23622783.05946
  21307581.625 6 111972096.033 6  87251018.69349  21307590.03549
  23823865.836 2 125195091.532 2  97554787.07147  23823877.07447
  22384143.180 5 117629468.383 5  91659354.85648  22384155.84448
  20653705.695 6 108535950.648 6  84573495.61748  20653714.65248
  22251098.102 6 116930309.717 6  91114561.60147  22251106.35247
  21028523.219 6 110505589.302 6  86108291.12448  21028533.77348
 22  7  3 15 44 10.0000000  0  7G05G07G08G09G14G20G30               
  23622067.773 3 124134820.759 3  96728444.13846  23622075.84046
  21310135.586 6 111985515.098 6  87261475.09749  21310143.67249
  23825208.969 3 125202160.613 3  97560295.47847  23825222.03547
  22387280.320 5 117645953.171 5  91672200.13148  22387292.59848
  20653244.844 6 108533528.284 6  84571608.06448  20653254.03548
  22252609.570 5 116938253.106 5  91120751.24047  22252618.39547
  21029623.664 6 110511373.050 6  86112797.94047  21029634.41047
 22  7  3 15 44 15.0000000  0  7G05G07G08G09G14G20G30               
  23621362.680 3 124131121.362 3  96725561.47946  23621371.95346
  21312690.906 6 111998943.235 6  87271938.57649  21312698.68049
  23826558.961 3 125209249.312 3  97565819.13547  23826571.18847
  22390420.445 5 117662452.994 5  91685057.12348  22390432.34448
  20652787.945 6 108531125.881 6  84569736.06348  20652796.51648
  22254124.508 5 116946216.171 5  91126956.22947  22254133.91847
  21030726.289 6 110517167.317 6  86117312.96048  21030737.30148
 22  7  3 15 44 20.0000000  0  7G05G07G08G09G14G20G30               
  23620662.039 4 124127441.140 4  96722693.80046  23620671.11746
  21315248.211 6 112012380.658 6  87282409.28449  21315255.99649
  23827911.078 3 125216357.784 3  97571358.20047  23827924.10547
  22393563.391 5 117678968.142 5  91697926.06648  22393575.05948
  20652334.406 6 108528743.564 6  84567879.71348  20652343.27348
  22255643.633 5 116954199.138 5  91133176.72447  22255652.96947
  21031831.148 6 110522972.322 6  86121836.34148  21031841.59048
 22  7  3 15 44 25.0000000  0  7G05G07G08G09G14G20G30               
  23619965.266 4 124123780.256 4  96719841.17446  23619974.48046
  21317806.586 6 112025827.409 6  87292887.27849  21317814.96549
  23829267.680 3 125223486.251 3  97576912.86447  23829279.68047
  22396708.922 5 117695498.551 5  91710806.89648  22396720.59448
  20651884.953 6 108526381.469 6  84566039.13048  20651893.60248
  22257166.508 5 116962202.120 5  91139412.81247  22257175.99247
  21032937.602 6 110528788.174 6  86126368.17748  21032948.02348
 22  7  3 15 44 30.0000000  0  7G05G07G08G09G14G20G30               
  23619272.242 4 124120138.232 4  96717003.23346  23619281.21146
  21320367.469 6 112039283.063 6  87303372.18849  21320375.35249
  23830628.539 3 125230634.391 3  97582482.85447  23830640.09847
  22399858.023 5 117712043.875 5  91723699.36348  22399869.05548
  20651438.711 6 108524039.154 6  84564213.94648  20651448.23048
  22258693.945 5 116970224.680 5  91145664.14547  22258702.63747
  21034046.680 6 110534614.396 6  86130908.08148  21034057.25048
 22  7  3 15 44 35.0000000  0  7G05G07G08G09G14G20G30               
  23618582.711 3 124116514.530 3  96714179.58346  23618591.36346
  21322929.578 6 112052747.062 6  87313863.62349  21322937.46149
  23831992.164 3 125237801.458 3  97588067.59947  23832004.37147
  22403009.023 5 117728603.552 5  91736603.00148  22403020.72748
  20650997.047 6 108521716.018 6  84562403.70948  20651006.31648
  22260224.656 5 116978266.138 5  91151930.21847  22260232.73047
  21035157.305 6 110540450.381 6  86135455.60847  21035167.80147
 22  7  3 15 44 40.0000000  0  7G05G07G08G09G14G20G30               
  23617895.977 3 124112909.805 3  96711370.67446  23617905.54346
  21325492.773 6 112066220.001 6  87324362.01049  21325501.02749
  23833359.250 2 125244987.990 2  97593667.49847  23833371.49247
  22406163.469 5 117745178.191 5  91749518.29448  22406174.35948
  20650558.656 6 108519412.751 6  84560608.96148  20650567.80148
  22261758.641 5 116986327.181 5  91158211.55447  22261766.82447
  21036269.602 6 110546296.811 6  86140011.26548  21036280.72348
 22  7  3 15 44 45.0000000  0  7G05G07G08G09G14G20G30               
  23617214.430 4 124109324.056 4  96708576.58046  23617223.19146
  21328058.445 6 112079702.007 6  87334867.46749  21328066.77049
  23834730.820 2 125252194.092 2  97599282.65247  23834742.84847
  22409319.328 5 117761767.779 5  91762445.24748  22409331.40248
  20650124.297 6 108517129.378 6  84558829.71148  20650133.81348
  22263295.820 5 116994407.774 5  91164508.11847  22263304.57847
  21037384.789 6 110552153.708 6  86144575.10148  21037394.95348
 22  7  3 15 44 50.0000000  0  7G05G07G08G09G14G20G30               
  23616535.875 5 124105756.661 5  96705796.81146  23616544.14846
  21330625.914 6 112093192.315 6  87345379.39249  21330633.96949
  23836105.484 2 125259419.267 2  97604912.67247  23836118.17647
  22412479.430 5 117778371.700 5  91775383.36148  22412491.06648
  20649693.617 6 108514865.160 6  84557065.39248  20649702.67648
  22264836.719 5 117002507.283 5  91170819.41947  22264845.80147
  21038501.141 6 110558020.366 6  86149146.51448  21038511.33648
 22  7  3 15 44 55.0000000  0  7G05G07G08G09G14G20G30               
  23615860.633 4 124102207.722 4  96703031.42046  23615868.70346
  21333194.102 6 112106691.091 6  87355897.90949  21333202.29749
  23837483.898 3 125266663.664 3  97610557.65847  23837496.22347
  22415641.898 5 117794990.043 5  91788332.71648  22415653.64848
  20649265.945 6 108512620.314 6  84555316.15948  20649274.99248
  22266382.195 5 117010625.880 5  91177145.60747  22266390.47347
  21039619.211 6 110563896.948 6  86153725.67748  21039629.65648
 22  7  3 15 45  0.0000000  0  7G05G07G08G09G14G20G30               
  23615188.047 4 124098676.854 4  96700280.08946  23615197.05146
  21335764.539 6 112120197.835 6  87366422.64949  21335772.82049
  23838866.133 2 125273926.591 2  97616217.10347  23838878.37547
  22418807.156 5 117811622.332 5  91801292.94048  22418818.60248
  20648842.438 6 108510394.318 6  84553581.62748  20648851.19548
  22267929.797 5 117018763.055 5  91183486.25847  22267939.37547
  21040739.328 6 110569782.970 6  86158312.17848  21040749.87548
 22  7  3 15 45  5.0000000  0  7G05G07G08G09G14G20G30               
  23614518.961 4 124095164.679 4  96697543.35046  23614528.29746
  21338336.594 6 112133713.288 6  87376954.16149  21338344.37149
  23840250.945 1 125281208.732 1  97621891.52646  23840263.91846
  22421974.570 5 117828269.363 5  91814264.64848  22421986.41848
  20648423.023 6 108508187.999 6  84551862.41348  20648431.87948
  22269482.289 5 117026919.599 5  91189842.01047  22269491.37547
  21041861.133 6 110575679.177 6  86162906.62148  21041871.96148
 22  7  3 15 45 10.0000000  0  7G05G07G08G09G14G20G30               
  23613854.477 4 124091670.981 4  96694820.96446  23613863.95746
  21340909.992 6 112147237.144 6  87387492.22349  21340918.08249
  23841640.773 1 125288510.192 1  97627580.96747  23841653.66847
  22425145.375 5 117844930.810 5  91827247.59348  22425157.15248
  20648006.430 6 108506000.984 6  84550158.25048  20648015.43048
  22271038.656 5 117035095.112 5  91196212.52947  22271046.93047
  21042985.234 6 110581585.248 6  86167508.76148  21042995.68448
 22  7  3 15 45 15.0000000  0  7G05G07G08G09G14G20G30               
  23613193.383 3 124088195.240 3  96692112.60846  23613202.92646
  21343485.125 6 112160768.899 6  87398036.45349  21343492.93849
  23843034.586 2 125295830.222 2  97633284.88847  23843046.43447
  22428318.781 5 117861606.140 5  91840241.35848  22428330.13748
  20647594.008 6 108503832.798 6  84548468.75748  20647603.02048
  22272596.672 5 117043289.163 5  91202597.49047  22272606.02047
  21044110.625 6 110587500.722 6  86172118.22548  21044121.24648
 22  7  3 15 45 20.0000000  0  7G05G07G08G09G14G20G30               
  23612535.242 4 124084737.667 4  96689418.42346  23612545.00046
  21346061.625 6 112174308.677 6  87408586.92749  21346069.26649
  23844430.906 2 125303168.880 2  97639003.35347  23844442.64147
  22431494.938 5 117878295.498 5  91853246.05348  22431506.09048
  20647184.914 6 108501683.564 6  84546794.03848  20647193.76648
  22274160.102 5 117051501.824 5  91208996.99647  22274168.60547
  21045238.102 6 110593425.666 6  86176735.06548  21045249.13748
 22  7  3 15 45 25.0000000  0  7G05G07G08G09G14G20G30               
  23611880.461 5 124081298.170 5  96686738.28246  23611890.51246
  21348639.359 6 112187856.473 6  87419143.65949  21348647.52349
  23845830.852 1 125310526.205 1  97644736.31947  23845842.60547
  22434673.758 5 117894998.821 5  91866261.61848  22434684.93048
  20646779.563 6 108499553.286 6  84545134.07148  20646788.59848
  22275726.141 5 117059733.061 5  91215410.93247  22275734.99647
  21046367.578 6 110599360.079 6  86181359.28748  21046378.10948
 22  7  3 15 45 30.0000000  0  7G05G07G08G09G14G20G30               
  23611229.602 4 124077876.531 4  96684072.08546  23611239.21946
  21351219.172 6 112201412.054 6  87429706.44149  21351227.30549
  23847234.438 2 125317901.912 2  97650483.64047  23847245.82847
  22437854.086 5 117911715.915 5  91879287.91348  22437865.89848
  20646377.609 6 108497441.687 6  84543488.67148  20646386.46148
  22277296.234 5 117067982.600 5  91221839.15747  22277304.96147
  21047498.219 6 110605303.739 6  86185990.70948  21047508.89848
 22  7  3 15 45 35.0000000  0  7G05G07G08G09G14G20G30               
  23610581.672 5 124074472.870 5  96681419.88046  23610592.21146
  21353800.086 6 112214975.385 6  87440275.26649  21353808.37949
  23848640.633 2 125325296.039 2  97656245.31747  23848653.04347
  22441038.039 5 117928446.836 5  91892324.99148  22441049.48848
  20645979.359 6 108495348.848 6  84541857.88848  20645988.82048
  22278869.641 5 117076250.592 5  91228281.73547  22278878.20347
  21048630.953 6 110611256.653 6  86190629.35048  21048641.87548
 22  7  3 15 45 40.0000000  0  7G05G07G08G09G14G20G30               
  23609937.875 4 124071086.838 4  96678781.43746  23609947.52746
  21356382.867 6 112228546.380 6  87450850.06549  21356391.06349
  23850052.086 3 125332708.439 3  97662021.21847  23850063.76647
  22444224.680 6 117945191.341 6  91905372.64248  22444235.92648
  20645584.625 6 108493274.567 6  84540241.57448  20645593.82048
  22280446.086 5 117084536.760 5  91234738.49547  22280455.23447
  21049765.523 6 110617218.641 6  86195275.05348  21049776.63348
 22  7  3 15 45 45.0000000  0  7G05G07G08G09G14G20G30               
  23609297.727 4 124067718.933 4  96676157.10846  23609306.70746
  21358966.031 6 112242125.372 6  87461431.08849  21358974.97349
  23851466.445 3 125340139.452 3  97667811.64547  23851477.70347
  22447413.648 6 117961949.865 6  91918431.22148  22447424.64548
  20645193.398 6 108491219.286 6  84538640.05848  20645202.85948
  22282026.711 5 117092841.532 5  91241209.73447  22282035.70747
  21050902.148 6 110623190.129 6  86199928.16248  21050912.38748
 22  7  3 15 45 50.0000000  0  7G05G07G08G09G14G20G30               
  23608659.328 4 124064368.630 4  96673546.49246  23608669.46146
  21361551.844 6 112255711.776 6  87472017.89849  21361560.39549
  23852884.078 3 125347588.818 3  97673616.37147  23852895.75047
  22450604.930 6 117978721.848 6  91931500.30148  22450616.73448
  20644806.242 6 108489182.401 6  84537052.88348  20644815.25448
  22283610.250 5 117101164.338 5  91247695.04747  22283619.32847
  21052040.141 6 110629170.526 6  86204588.20848  21052050.87548
 22  7  3 15 45 55.0000000  0  7G05G07G08G09G14G20G30               
  23608025.320 4 124061036.155 4  96670949.75746  23608034.97746
  21364138.570 6 112269305.861 6  87482610.68449  21364147.32449
  23854305.398 3 125355056.338 3  97679435.24347  23854317.18447
  22453799.336 6 117995507.443 6  91944579.98048  22453810.31648
  20644421.539 6 108487164.157 6  84535480.22948  20644431.16048
  22285198.078 5 117109505.357 5  91254194.54247  22285206.50047
  21053179.656 6 110635160.060 6  86209255.38448  21053190.67648
 22  7  3 15 46  0.0000000  0  7G05G07G08G09G14G20G30               
  23607395.648 4 124057721.180 4  96668366.65246  23607404.13746
  21366726.703 6 112282907.317 6  87493209.22249  21366735.55549
  23855729.477 2 125362542.010 2  97685268.25647  23855741.80547
  22456996.367 6 118012306.375 6  91957670.05748  22457007.87148
  20644041.391 6 108485164.219 6  84533921.83748  20644050.43048
  22286788.234 5 117117864.319 5  91260708.01547  22286797.27347
  21054321.586 6 110641158.414 6  86213929.43048  21054332.18448
 22  7  3 15 46  5.0000000  0  7G05G07G08G09G14G20G30               
  23606767.078 4 124054423.682 4  96665797.19046  23606776.23846
  21369316.656 6 112296516.080 6  87503813.42849  21369325.42649
  23857158.047 2 125370045.800 2  97691115.35447  23857170.09047
  22460195.992 6 118029118.654 6  91970770.54348  22460206.71148
  20643663.914 6 108483182.609 6  84532377.72748  20643673.21948
  22288383.227 5 117126241.204 5  91267235.44747  22288391.41047
  21055464.836 6 110647165.561 6  86218610.33048  21055475.51248
 22  7  3 15 46 10.0000000  0  7G05G07G08G09G14G20G30               
  23606142.773 5 124051143.611 5  96663241.24346  23606152.03146
  21371908.000 6 112310132.042 6  87514423.27149  21371916.21949
  23858588.180 2 125377567.377 2  97696976.34247  23858601.15247
  22463397.453 6 118045944.098 6  91983881.26748  22463408.51248
  20643290.719 6 108481219.157 6  84530847.76648  20643299.89848
  22289980.758 5 117134635.772 5  91273776.65547  22289989.09047
  21056608.609 6 110653181.335 6  86223297.94248  21056620.06648
 22  7  3 15 46 15.0000000  0  7G05G07G08G09G14G20G30               
  23605522.102 4 124047881.382 4  96660699.27346  23605531.22346
  21374500.414 6 112323755.639 6  87525039.05449  21374509.12549
  23860021.703 2 125385107.279 2  97702851.60047  23860035.84847
  22466601.508 5 118062783.138 5  91997002.59248  22466613.27348
  20642920.430 6 108479274.323 6  84529332.31748  20642929.50048
  22291580.031 5 117143048.579 5  91280332.08347  22291589.44547
  21057755.492 6 110659206.198 6  86227992.63448  21057766.62948
 22  7  3 15 46 20.0000000  0  7G05G07G08G09G14G20G30               
  23604905.141 5 124044636.933 5  96658171.11346  23604914.18446
  21377094.797 6 112337386.890 6  87535660.80249  21377102.55549
  23861461.695 1 125392665.494 1  97708741.13647  23861473.79347
  22469808.383 5 118079635.875 5  92010134.59048  22469819.69948
  20642553.633 6 108477348.153 6  84527831.41348  20642563.15648
  22293185.641 5 117151479.584 5  91286901.70647  22293194.11347
  21058903.898 6 110665240.174 6  86232694.43948  21058915.12548
 22  7  3 15 46 25.0000000  0  7G05G07G08G09G14G20G30               
  23604290.258 5 124041409.736 5  96655656.43846  23604299.77046
  21379690.039 6 112351025.217 6  87546288.06749  21379697.71149
  23862902.656 2 125400241.532 2  97714644.55447  23862915.44947
  22473017.898 5 118096501.646 5  92023276.74948  22473029.45748
  20642190.750 6 108475440.089 6  84526344.62148  20642200.23448
  22294792.930 5 117159928.228 5  91293485.06447  22294801.69147
  21060053.688 6 110671282.762 6  86237402.95148  21060064.57448
 22  7  3 15 46 30.0000000  0  7G05G07G08G09G14G20G30               
  23603679.875 5 124038199.768 5  96653155.14246  23603689.24646
  21382286.688 6 112364670.511 6  87556920.76849  21382294.54749
  23864347.102 1 125407835.216 1  97720561.74347  23864359.62547
  22476230.102 5 118113380.432 5  92036429.01348  22476241.33248
  20641831.367 6 108473550.024 6  84524871.85048  20641840.36348
  22296405.125 5 117168394.367 5  91300082.05547  22296413.39847
  21061205.047 6 110677333.740 6  86242117.99848  21061216.39848
 22  7  3 15 46 35.0000000  0  7G05G07G08G09G14G20G30               
  23603071.992 5 124035007.607 5  96650667.76346  23603081.62546
  21384884.570 6 112378323.345 6  87567559.32949  21384892.84849
  23865795.438 1 125415447.258 1  97726493.18747  23865808.84447
  22479444.250 5 118130272.691 5  92049591.83848  22479455.64848
  20641475.180 6 108471678.482 6  84523413.49648  20641484.08648
  22298018.992 5 117176878.615 5  91306693.14947  22298028.00047
  21062358.313 6 110683393.748 6  86246840.07748  21062369.22348
 22  7  3 15 46 40.0000000  0  7G05G07G08G09G14G20G30               
  23602467.633 4 124031832.400 4  96648193.54446  23602477.62546
  21387484.258 6 112391982.997 6  87578203.22049  21387492.04349
  23867248.570 1 125423076.854 1  97732438.35647  23867260.58647
  22482661.016 5 118147177.759 5  92062764.60148  22482672.81648
  20641121.836 6 108469824.747 6  84521969.04548  20641131.54748
  22299636.797 5 117185380.133 5  91313317.71547  22299645.08247
  21063512.969 6 110689461.989 6  86251568.58648  21063524.29348
 22  7  3 15 46 45.0000000  0  7G05G07G08G09G14G20G30               
  23601866.719 5 124028674.185 5  96645732.61046  23601876.26646
  21390084.586 6 112405649.397 6  87588852.36049  21390092.48049
  23868703.531 1 125430723.865 1  97738397.10347  23868715.79747
  22485880.063 5 118164095.604 5  92075947.34148  22485892.21948
  20640772.953 6 108467988.849 6  84520538.47548  20640781.87148
  22301257.586 5 117193898.998 5  91319955.80747  22301266.55147
  21064669.336 6 110695538.479 6  86256303.50448  21064680.44948
 22  7  3 15 46 50.0000000  0  7G05G07G08G09G14G20G30               
  23601269.789 4 124025533.295 4  96643285.15246  23601278.77746
  21392686.375 6 112419322.900 6  87599507.02449  21392694.60549
  23870161.625 2 125438388.688 2  97744369.71447  23870174.22347
  22489103.297 5 118181026.554 5  92089140.27348  22489113.96548
  20640426.844 6 108466171.137 6  84519122.07448  20640436.25848
  22302882.000 5 117202435.514 5  91326607.63647  22302891.28147
  21065827.445 6 110701623.580 6  86261045.14148  21065837.97748
 22  7  3 15 46 55.0000000  0  7G05G07G08G09G14G20G30               
  23600675.742 5 124022409.832 5  96640851.32346  23600684.84446
  21395289.977 6 112433003.583 6  87610167.29749  21395297.97349
  23871624.531 2 125446071.514 2  97750356.33547  23871636.18447
  22492326.961 5 118197970.659 5  92102343.47748  22492338.27348
  20640084.570 6 108464371.575 6  84517719.83148  20640093.37548
  22304509.930 5 117210989.701 5  91333273.22747  22304518.54747
  21066986.938 6 110707717.302 6  86265793.49148  21066998.00448
 22  7  3 15 47  0.0000000  0  7G05G07G08G09G14G20G30               
  23600084.117 5 124019303.360 5  96638430.67946  23600093.55146
  21397894.547 6 112446690.944 6  87620832.77149  21397902.70349
  23873088.797 2 125453771.760 2  97756356.55047  23873101.68447
  22495553.586 5 118214927.474 5  92115556.55948  22495565.05948
  20639745.258 6 108462589.790 6  84516331.42348  20639754.87548
  22306140.656 5 117219561.153 5  91339952.30447  22306150.05147
  21068148.328 6 110713819.196 6  86270548.21948  21068159.14148
 22  7  3 15 47  5.0000000  0  7G05G07G08G09G14G20G30               
  23599495.602 5 124016213.667 5  96636023.12947  23599505.86747
  21400500.258 6 112460384.824 6  87631503.32649  21400508.45749
  23874557.539 1 125461489.265 1  97762370.20347  23874570.26647
  22498782.203 5 118231896.764 5  92128779.38048  22498794.72748
  20639410.000 6 108460825.573 6  84514956.71748  20639418.97348
  22307775.820 5 117228149.632 5  91346644.61547  22307784.20747
  21069311.016 6 110719929.087 6  86275309.16148  21069321.89848
 22  7  3 15 47 10.0000000  0  7G05G07G08G09G14G20G30               
  23598911.875 4 124013140.827 4  96633628.71446  23598921.28546
  21403106.500 6 112474085.229 6  87642178.94749  21403115.43849
  23876029.438 2 125469223.955 2  97768397.23247  23876042.32047
  22502014.086 5 118248878.617 5  92142011.97448  22502026.07848
  20639077.203 6 108459078.903 6  84513595.68348  20639086.39848
  22309413.375 5 117236755.082 5  91353350.15747  22309421.70347
  21070475.094 6 110726046.926 6  86280076.30948  21070486.16048
 22  7  3 15 47 15.0000000  0  7G05G07G08G09G14G20G30               
  23598330.313 4 124010085.601 4  96631248.03946  23598339.94546
  21405715.711 6 112487792.989 6  87652860.32149  21405724.08249
  23877504.820 2 125476976.850 2  97774438.49347  23877517.73047
  22505248.258 5 118265873.788 5  92155254.95448  22505260.34848
  20638748.469 6 108457350.718 6  84512249.05148  20638757.74248
  22311054.391 5 117245378.441 5  91360069.65347  22311062.62147
  21071641.250 6 110732173.632 6  86284850.37148  21071651.65248
 22  7  3 15 47 20.0000000  0  7G05G07G08G09G14G20G30               
  23597752.813 5 124007047.581 5  96628880.73647  23597762.05947
  21408325.336 6 112501507.751 6  87663547.14649  21408334.03549
  23878982.727 2 125484747.407 2  97780493.47147  23878996.48047
  22508485.055 5 118282881.817 5  92168507.96448  22508496.70348
  20638422.844 6 108455640.474 6  84510916.39648  20638431.89848
  22312698.039 5 117254019.224 5  91366802.71447  22312706.99647
  21072808.086 6 110738308.667 6  86289630.91548  21072818.89848
 22  7  3 15 47 25.0000000  0  7G05G07G08G09G14G20G30               
  23597176.711 5 124004026.821 5  96626526.90147  23597186.87147
  21410936.859 6 112515229.430 6  87674239.36149  21410945.51249
  23880465.891 2 125492535.477 2  97786562.11147  23880478.84847
  22511723.648 5 118299902.806 5  92181771.06948  22511735.92248
  20638101.023 6 108453948.229 6  84509597.77048  20638110.20348
  22314346.047 5 117262677.456 5  91373549.40047  22314354.41047
  21073977.492 6 110744452.122 6  86294418.03148  21073988.10948
 22  7  3 15 47 30.0000000  0  7G05G07G08G09G14G20G30               
  23596605.344 5 124001023.000 5  96624186.25447  23596615.53147
  21413548.945 6 112528957.647 6  87684936.67249  21413557.25849
  23881950.297 2 125500340.992 2  97792644.32547  23881964.08647
  22514965.344 5 118316936.370 5  92195043.97448  22514977.23048
  20637782.453 6 108452273.696 6  84508292.94248  20637791.99648
  22315996.352 6 117271352.794 6  91380309.40747  22316005.27747
  21075148.055 6 110750603.630 6  86299211.41948  21075158.46548
 22  7  3 15 47 35.0000000  0  7G05G07G08G09G14G20G30               
  23596037.055 5 123998036.133 5  96621858.85046  23596046.50846
  21416162.781 6 112542692.617 6  87695639.23449  21416171.24649
  23883439.734 3 125508163.996 3  97798740.18947  23883452.60947
  22518209.078 5 118333982.607 5  92208326.75648  22518221.23048
  20637467.266 6 108450616.954 6  84507001.97448  20637476.35948
  22317650.930 6 117280045.339 6  91387082.80847  22317659.55947
  21076319.891 6 110756763.319 6  86304011.17148  21076330.62148
 22  7  3 15 47 40.0000000  0  7G05G07G08G09G14G20G30               
  23595471.977 4 123995066.025 4  96619544.45446  23595481.38746
  21418777.391 6 112556433.854 6  87706346.69349  21418786.39549
  23884931.344 3 125516004.079 3  97804849.38247  23884944.69147
  22521454.813 5 118351041.200 5  92221619.17648  22521467.20748
  20637155.055 6 108448977.639 6  84505724.58748  20637164.38748
  22319308.508 6 117288754.658 6  91393869.28747  22319316.33247
  21077493.789 6 110762930.840 6  86308817.04148  21077504.78148
 22  7  3 15 47 45.0000000  0  7G05G07G08G09G14G20G30               
  23594910.008 4 123992112.976 4  96617243.41046  23594919.18846
  21421393.547 6 112570181.906 6  87717059.44749  21421402.26249
  23886426.984 3 125523861.792 3  97810972.29347  23886439.47347
  22524704.883 5 118368112.545 5  92234921.51348  22524715.86748
  20636846.234 6 108447356.184 6  84504461.12548  20636855.55548
  22320968.148 6 117297481.245 6  91400669.24047  22320977.35247
  21078669.227 6 110769106.563 6  86313629.28648  21078679.83648
 22  7  3 15 47 50.0000000  0  7G05G07G08G09G14G20G30               
  23594351.898 4 123989176.779 4  96614955.44246  23594360.56346
  21424010.055 6 112583936.352 6  87727777.18849  21424019.68849
  23887925.602 3 125531736.784 3  97817108.64647  23887938.21947
  22527954.797 5 118385196.342 5  92248233.54648  22527967.03148
  20636541.625 6 108445752.296 6  84503211.34348  20636550.64848
  22322632.547 6 117306224.814 6  91407482.38847  22322640.81347
  21079845.898 6 110775290.213 6  86318447.72548  21079856.25448
 22  7  3 15 47 55.0000000  0  7G05G07G08G09G14G20G30               
  23593795.398 4 123986257.381 4  96612680.60246  23593804.78546
  21426629.281 6 112597697.203 6  87738499.93549  21426638.16449
  23889426.680 2 125539628.856 2  97823258.32747  23889440.13347
  22531207.875 4 118402292.607 4  92261555.29748  22531220.03148
  20636239.383 6 108444165.954 6  84501975.23248  20636248.66448
  22324299.883 6 117314985.230 6  91414308.69547  22324308.32047
  21081024.391 6 110781481.791 6  86323272.33148  21081034.32848
 22  7  3 15 48  0.0000000  0  7G05G07G08G09G14G20G30               
  23593243.125 3 123983355.033 3  96610419.04246  23593252.38346
  21429249.414 6 112611464.685 6  87749227.82849  21429257.98849
  23890932.773 1 125547538.293 1  97829421.55847  23890945.15247
  22534464.531 5 118419401.465 5  92274886.86048  22534475.84448
  20635940.813 6 108442597.391 6  84500752.97948  20635950.25848
  22325970.172 5 117323762.770 5  91421148.32947  22325978.66047
  21082203.930 6 110787681.475 6  86328103.24948  21082214.26248
 22  7  3 15 48  5.0000000  0  7G05G07G08G09G14G20G30               
  23592693.992 4 123980468.719 4  96608169.95946  23592703.66446
  21431869.961 6 112625237.806 6  87759960.12849  21431879.50849
  23892439.602 1 125555464.253 1  97835597.63247  23892452.28547
  22537721.102 5 118436521.938 5  92288227.49148  22537733.87148
  20635645.992 6 108441045.575 6  84499543.78148  20635654.87548
  22327642.914 6 117332556.452 6  91428000.54547  22327651.60247
  21083385.219 6 110793888.282 6  86332939.72548  21083395.32448
 22  7  3 15 48 10.0000000  0  7G05G07G08G09G14G20G30               
  23592147.070 4 123977598.799 4  96605933.64846  23592156.39146
  21434492.602 6 112639016.992 6  87770697.15649  21434501.68049
  23893952.719 2 125563407.134 2  97841786.89747  23893964.38347
  22540981.781 5 118453654.476 5  92301577.50748  22540993.53148
  20635353.164 6 108439510.978 6  84498348.00048  20635362.34048
  22329320.320 5 117341366.660 5  91434865.64347  22329328.27047
  21084567.602 6 110800102.593 6  86337782.04248  21084577.69548
 22  7  3 15 48 15.0000000  0  7G05G07G08G09G14G20G30               
  23591605.070 4 123974745.591 4  96603710.39646  23591613.99646
  21437115.438 6 112652802.482 6  87781439.08049  21437124.58649
  23895466.242 2 125571367.018 2  97847989.41547  23895478.73447
  22544244.852 5 118470799.265 5  92314937.07648  22544256.35948
  20635065.023 6 108437993.764 6  84497165.74348  20635074.07848
  22330999.852 5 117350193.572 5  91441743.75147  22331007.80147
  21085751.680 6 110806324.665 6  86342630.41648  21085762.09448
 22  7  3 15 48 20.0000000  0  7G05G07G08G09G14G20G30               
  23591065.242 4 123971909.226 4  96601500.24246  23591074.28546
  21439740.313 6 112666594.294 6  87792185.96749  21439749.50449
  23896984.344 2 125579344.126 2  97854205.35747  23896997.06347
  22547509.453 5 118487956.431 5  92328306.29048  22547520.71548
  20634779.359 6 108436494.072 6  84495997.16448  20634789.07448
  22332682.516 5 117359037.394 5  91448635.04047  22332690.96547
  21086936.398 6 110812554.583 6  86347484.89948  21086947.63748
 22  7  3 15 48 25.0000000  0  7G05G07G08G09G14G20G30               
  23590528.242 5 123969089.631 5  96599303.18946  23590537.67246
  21442366.258 5 112680392.474 5  87802937.78549  21442374.86349
  23898505.945 2 125587338.368 2  97860434.64147  23898517.91847
  22550776.727 5 118505125.963 5  92341685.15148  22550788.09048
  20634497.648 6 108435011.912 6  84494842.23548  20634506.61348
  22334368.703 5 117367898.026 5  91455539.42447  22334377.30147
  21088123.930 6 110818792.355 6  86352345.50148  21088134.62548
 22  7  3 15 48 30.0000000  0  7G05G07G08G09G14G20G30               
  23589994.813 5 123966286.342 5  96597118.80346  23590004.32446
  21444993.063 6 112694196.599 6  87813694.24649  21445001.74249
  23900029.781 2 125595349.396 2  97866677.00847  23900042.42647
  22554046.766 5 118522307.427 5  92355073.27448  22554058.34448
  20634218.094 6 108433546.807 6  84493700.60548  20634227.78548
  22336057.883 6 117376775.040 6  91462456.57647  22336066.52747
  21089312.539 6 110825037.533 6  86357211.87648  21089322.93448
 22  7  3 15 48 35.0000000  0  7G05G07G08G09G14G20G30               
  23589464.453 5 123963499.459 5  96594947.24746  23589473.71546
  21447620.141 5 112708006.670 5  87824455.34849  21447629.43849
  23901557.352 2 125603377.206 2  97872932.45347  23901570.27047
  22557317.805 5 118539500.828 5  92368470.73048  22557329.84048
  20633943.180 6 108432098.860 6  84492572.32748  20633952.15248
  22337750.422 6 117385668.458 6  91469386.52547  22337758.92247
  21090501.906 6 110831290.124 6  86362084.01848  21090512.69548
 22  7  3 15 48 40.0000000  0  7G05G07G08G09G14G20G30               
  23588937.656 5 123960729.214 5  96592788.60946  23588947.44546
  21450249.602 6 112721822.911 6  87835221.25649  21450258.79349
  23903088.977 2 125611422.012 2  97879201.14647  23903101.08647
  22560592.484 5 118556706.386 5  92381877.63748  22560603.53548
  20633670.945 6 108430668.251 6  84491457.56448  20633680.23448
  22339445.797 5 117394578.513 5  91476329.40947  22339454.29347
  21091693.328 6 110837550.396 6  86366962.14848  21091704.02748
 22  7  3 15 48 45.0000000  0  7G05G07G08G09G14G20G30               
  23588413.773 5 123957975.394 5  96590642.79546  23588422.82846
  21452879.750 6 112735645.022 6  87845991.73149  21452889.00049
  23904623.664 2 125619483.529 2  97885482.84547  23904634.90647
  22563868.992 5 118573923.828 5  92395293.82048  22563880.01648
  20633401.961 6 108429254.688 6  84490356.09448  20633411.26648
  22341144.617 5 117403504.884 5  91483285.01847  22341152.88347
  21092886.359 6 110843818.000 6  86371845.98848  21092897.29748
 22  7  3 15 48 50.0000000  0  7G05G07G08G09G14G20G30               
  23587891.813 5 123955238.042 5  96588509.78746  23587902.52346
  21455511.563 6 112749473.101 6  87856766.85449  21455520.54749
  23906160.000 2 125627561.905 2  97891777.72247  23906171.95747
  22567147.094 5 118591153.258 5  92408719.34648  22567158.73048
  20633136.141 6 108427858.285 6  84489267.99648  20633145.36748
  22342846.336 5 117412447.691 5  91490253.42847  22342854.18447
  21094080.023 6 110850093.061 6  86376735.65248  21094090.83648
 22  7  3 15 48 55.0000000  0  7G05G07G08G09G14G20G30               
  23587374.602 5 123952517.332 5  96586389.73346  23587384.31646
  21458143.859 6 112763307.343 6  87867546.77849  21458153.09049
  23907700.797 2 125635657.167 2  97898085.72247  23907712.29347
  22570429.047 5 118608394.790 5  92422154.29348  22570439.75448
  20632873.375 6 108426479.227 6  84488193.40748  20632883.02048
  22344551.102 6 117421407.062 6  91497234.75647  22344560.06647
  21095276.039 6 110856375.753 6  86381631.23548  21095286.78948
 22  7  3 15 49  0.0000000  0  7G05G07G08G09G14G20G30               
  23586860.164 5 123949812.781 5  96584282.30746  23586869.79746
  21460777.336 6 112777147.313 6  87878331.16348  21460786.65248
  23909244.695 1 125643769.195 1  97904406.77347  23909255.63347
  22573711.547 5 118625648.076 5  92435598.39948  22573722.79748
  20632614.031 6 108425117.103 6  84487132.02148  20632623.29748
  22346258.906 5 117430382.632 5  91504228.70047  22346267.67647
  21096472.695 6 110862665.686 6  86386532.48648  21096483.71948
 22  7  3 15 49  5.0000000  0  7G05G07G08G09G14G20G30               
  23586349.656 5 123947124.906 5  96582187.86846  23586358.53546
  21463412.695 6 112790993.400 6  87889120.32349  21463421.30549
  23910790.539 1 125651898.091 1  97910740.97947  23910802.99647
  22576997.844 5 118642913.460 5  92449051.95148  22577008.42248
  20632358.609 6 108423772.279 6  84486084.10448  20632368.01648
  22347970.109 6 117439374.757 6  91511235.55047  22347978.57847
  21097671.086 6 110868963.173 6  86391439.62348  21097681.71148
 22  7  3 15 49 10.0000000  0  7G05G07G08G09G14G20G30               
  23585840.273 5 123944453.381 5  96580106.14346  23585849.97346
  21466048.578 6 112804845.322 6  87899914.02949  21466057.13749
  23912342.188 1 125660043.653 1  97917088.17146  23912352.94546
  22580285.250 5 118660190.683 5  92462514.71148  22580296.08248
  20632105.602 6 108422444.496 6  84485049.47948  20632114.78948
  22349684.359 5 117448383.092 5  91518255.03247  22349692.85247
  21098870.328 6 110875268.016 6  86396352.48348  21098881.80148
 22  7  3 15 49 15.0000000  0  7G05G07G08G09G14G20G30               
  23585334.969 5 123941798.545 5  96578037.43846  23585344.92246
  21468686.195 6 112818703.448 6  87910712.56349  21468694.48449
  23913894.758 1 125668206.313 1  97923448.67947  23913906.56647
  22583574.219 5 118677480.092 5  92475986.97148  22583586.06648
  20631856.383 6 108421134.109 6  84484028.40848  20631865.85948
  22351402.414 5 117457408.067 5  91525287.47647  22351410.55147
  21100071.414 6 110881580.486 6  86401271.29548  21100082.51248
 22  7  3 15 49 20.0000000  0  7G05G07G08G09G14G20G30               
  23584832.547 5 123939160.305 5  96575981.68946  23584842.71946
  21471324.398 6 112832567.567 6  87921515.76949  21471332.20349
  23915450.820 1 125676385.686 1  97929822.26447  23915463.16847
  22586867.055 5 118694781.500 5  92489468.61348  22586878.44148
  20631610.359 6 108419840.956 6  84483020.76248  20631619.54748
  22353122.492 6 117466449.466 6  91532332.74747  22353130.87547
  21101274.734 6 110887900.482 6  86406195.96448  21101285.54348
 22  7  3 15 49 25.0000000  0  7G05G07G08G09G14G20G30               
  23584333.875 5 123936538.475 5  96573938.69247  23584344.00047
  21473963.617 6 112846437.600 6  87932323.57849  21473971.80949
  23917011.063 2 125684581.809 2  97936208.85147  23917022.84447
  22590160.891 5 118712094.783 5  92502959.46248  22590173.10948
  20631367.242 6 108418564.916 6  84482026.45248  20631376.35948
  22354845.875 6 117475507.159 6  91539390.66047  22354854.79747
  21102478.648 6 110894227.816 6  86411126.36748  21102489.82448
 22  7  3 15 49 30.0000000  0  7G05G07G08G09G14G20G30               
  23583837.594 5 123933932.753 5  96571908.24647  23583848.28947
  21476603.813 6 112860313.280 6  87943135.79849  21476611.98449
  23918573.711 3 125692794.353 3  97942608.26247  23918585.41447
  22593458.359 5 118729419.612 5  92516459.31648  22593470.28148
  20631128.109 6 108417305.655 6  84481045.21248  20631137.21148
  22356572.688 6 117484580.815 6  91546461.06047  22356581.28547
  21103684.469 6 110900562.209 6  86416062.26548  21103695.19948
 22  7  3 15 49 35.0000000  0  7G05G07G08G09G14G20G30               
  23583344.430 5 123931343.273 5  96569890.49946  23583355.70746
  21479245.844 6 112874194.603 6  87953952.40149  21479253.57049
  23920139.609 2 125701023.570 2  97949020.63547  23920151.59447
  22596757.359 5 118746756.104 5  92529968.25548  22596769.40648
  20630891.430 6 108416063.278 6  84480077.12848  20630900.37948
  22358302.141 6 117493670.590 6  91553543.98147  22358310.96147
  21104890.883 6 110906903.744 6  86421003.71948  21104902.17248
 22  7  3 15 49 40.0000000  0  7G05G07G08G09G14G20G30               
  23582855.070 5 123928770.036 5  96567885.38147  23582866.09047
  21481888.211 6 112888081.608 6  87964773.44249  21481896.49649
  23921708.367 2 125709269.186 2  97955445.78947  23921720.72347
  22600059.125 5 118764104.289 5  92543486.32049  22600070.76649
  20630658.281 6 108414837.843 6  84479122.24748  20630667.35248
  22360035.078 6 117502776.451 6  91560639.47547  22360043.29747
  21106099.141 6 110913252.477 6  86425950.79148  21106109.70748
 22  7  3 15 49 45.0000000  0  7G05G07G08G09G14G20G30               
  23582369.367 5 123926213.187 5  96565893.04146  23582379.29346
  21484531.695 6 112901974.447 6  87975599.02149  21484540.09449
  23923280.617 2 125717531.508 2  97961883.96547  23923292.69947
  22603362.664 5 118781464.300 5  92557013.59848  22603374.56348
  20630428.617 6 108413629.507 6  84478180.69648  20630437.39848
  22361771.445 5 117511898.528 5  91567747.57547  22361779.59847
  21107308.563 6 110919608.549 6  86430903.57048  21107319.01248
 22  7  3 15 49 50.0000000  0  7G05G07G08G09G14G20G30               
  23581885.922 4 123923672.545 4  96563913.35246  23581895.41446
  21487176.570 6 112915872.826 6  87986428.92549  21487184.75849
  23924856.031 1 125725810.351 1  97968334.99947  23924868.18447
  22606667.961 5 118798835.849 5  92570549.86248  22606679.68448
  20630201.695 6 108412437.949 6  84477252.21248  20630211.01648
  22363509.719 5 117521036.584 5  91574868.14747  22363518.68047
  21108519.641 6 110925971.625 6  86435861.80448  21108530.41048
 22  7  3 15 49 55.0000000  0  7G05G07G08G09G14G20G30               
  23581405.820 5 123921148.341 5  96561946.41846  23581415.07446
  21489823.156 6 112929777.040 6  87997263.36949  21489831.00849
  23926434.922 2 125734105.785 2  97974798.97247  23926446.96947
  22609975.742 5 118816219.244 5  92584095.35648  22609987.71148
  20629978.430 6 108411263.528 6  84476337.08848  20629987.46948
  22365252.313 6 117530190.896 6  91582001.38247  22365260.06647
  21109731.672 6 110932342.039 6  86440825.76048  21109742.41848
 22  7  3 15 50  0.0000000  0  7G05G07G08G09G14G20G30               
  23580927.727 5 123918640.318 5  96559992.12146  23580938.14846
  21492469.914 6 112943686.858 6  88008102.18749  21492477.77749
  23928016.750 1 125742417.739 1  97981275.82047  23928027.97747
  22613286.063 5 118833614.251 5  92597649.90048  22613297.64148
  20629758.250 6 108410105.953 6  84475435.08448  20629767.04348
  22366996.891 6 117539361.306 6  91589147.13947  22367005.03547
  21110945.398 6 110938719.568 6  86445795.25748  21110956.40248
 22  7  3 15 50  5.0000000  0  7G05G07G08G09G14G20G30               
  23580453.391 5 123916148.624 5  96558050.52646  23580463.35246
  21495117.594 6 112957602.342 6  88018945.40249  21495126.18849
  23929601.906 2 125750746.400 2  97987765.65347  23929613.44547
  22616598.500 5 118851021.088 5  92611213.64348  22616610.07048
  20629540.938 6 108408965.351 6  84474546.31248  20629549.52048
  22368744.641 6 117548547.749 6  91596305.39847  22368753.20347
  21112160.031 6 110945104.250 6  86450770.34348  21112170.87948
 22  7  3 15 50 10.0000000  0  7G05G07G08G09G14G20G30               
  23579982.719 5 123913673.206 5  96556121.62847  23579992.27047
  21497767.117 6 112971523.486 6  88029793.05049  21497775.25849
  23931189.250 3 125759091.483 3  97994268.29347  23931201.77047
  22619913.609 5 118868439.430 5  92624786.39348  22619924.87148
  20629327.531 6 108407841.668 6  84473670.71348  20629336.10948
  22370496.492 6 117557750.198 6  91603476.12247  22370504.52347
  21113376.711 6 110951496.092 6  86455750.99548  21113387.71948
 22  7  3 15 50 15.0000000  0  7G05G07G08G09G14G20G30               
  23579514.680 4 123911214.045 4  96554205.40646  23579524.34846
  21500417.359 6 112985450.315 6  88040645.11649  21500425.42249
  23932780.844 2 125767453.193 2  98000783.90647  23932792.91447
  22623229.797 5 118885869.419 5  92638368.19348  22623241.62948
  20629116.672 6 108406734.913 6  84472808.31648  20629125.33248
  22372251.195 6 117566968.712 6  91610659.38447  22372259.30547
  21114594.313 6 110957895.102 6  86460737.22848  21114605.35248
 22  7  3 15 50 20.0000000  0  7G05G07G08G09G14G20G30               
  23579050.047 5 123908771.047 5  96552301.77246  23579059.63346
  21503068.742 6 112999382.613 6  88051501.44449  21503076.81349
  23934374.750 2 125775831.296 2  98007312.31347  23934387.30947
  22626549.281 5 118903310.850 5  92651958.89348  22626560.49248
  20628909.508 6 108405644.885 6  84471958.95048  20628918.29348
  22374007.672 6 117576202.998 6  91617854.91347  22374016.32847
  21115813.250 6 110964301.025 6  86465728.86148  21115824.28548
 22  7  3 15 50 25.0000000  0  7G05G07G08G09G14G20G30               
  23578587.570 5 123906343.986 5  96550410.55946  23578597.39546
  21505720.703 6 113013320.277 6  88062361.94549  21505729.06349
  23935971.727 2 125784225.558 2  98013853.27147  23935985.04747
  22629870.461 5 118920763.612 5  92665558.44248  22629881.41848
  20628704.852 6 108404571.523 6  84471122.57148  20628713.91448
  22375768.023 6 117585452.990 6  91625062.69247  22375776.69947
  21117033.938 6 110970713.805 6  86470725.82448  21117044.51648
 22  7  3 15 50 30.0000000  0  7G05G07G08G09G14G20G30               
  23578128.977 5 123903933.020 5  96548531.88946  23578138.83646
  21508373.945 6 113027263.350 6  88073226.67249  21508382.74249
  23937572.008 1 125792636.121 1  98020406.93147  23937585.30947
  22633193.633 5 118938227.792 5  92679166.87848  22633204.84848
  20628503.953 6 108403514.852 6  84470299.19348  20628512.66448
  22377531.781 6 117594718.762 6  91632282.77047  22377539.71147
  21118254.797 6 110977133.460 6  86475728.15748  21118266.20748
 22  7  3 15 50 35.0000000  0  7G05G07G08G09G14G20G30               
  23577672.883 5 123901537.877 5  96546665.54547  23577682.65647
  21511028.055 6 113041211.635 6  88084095.45549  21511036.50849
  23939175.313 1 125801062.897 1  98026973.24747  23939188.82047
  22636519.211 5 118955703.128 5  92692784.00248  22636530.41448
  20628305.758 6 108402474.690 6  84469488.68248  20628314.53548
  22379297.570 6 117604000.052 6  91639514.93747  22379305.48847
  21119478.039 6 110983559.820 6  86480735.69848  21119489.26248
 22  7  3 15 50 40.0000000  0  7G05G07G08G09G14G20G30               
  23577221.266 5 123899158.970 5  96544811.86447  23577229.97347
  21513683.883 6 113055165.520 6  88094968.60849  21513691.98449
  23940782.531 1 125809506.256 1  98033552.49147  23940795.64847
  22639847.344 5 118973190.113 5  92706410.21248  22639858.12948
  20628111.508 6 108401451.471 6  84468691.37348  20628120.13348
  22381066.633 6 117613297.333 6  91646759.57547  22381074.62147
  21120701.984 6 110989993.318 6  86485748.81348  21120713.25048
 22  7  3 15 50 45.0000000  0  7G05G07G08G09G14G20G30               
  23576771.383 4 123896796.379 4  96542970.87146  23576780.55146
  21516340.211 6 113069124.996 6  88105846.12549  21516348.64849
  23942393.000 1 125817966.051 1  98040144.54347  23942405.07447
  22643176.820 5 118990688.657 5  92720045.43448  22643188.14848
  20627919.625 6 108400445.128 6  84467907.21548  20627928.86348
  22382838.430 5 117622610.473 5  91654016.56747  22382847.18447
  21121927.688 6 110996433.851 6  86490767.40248  21121939.02348
 22  7  3 15 50 50.0000000  0  7G05G07G08G09G14G20G30               
  23576325.156 5 123894449.685 5  96541142.28746  23576334.38346
  21518997.039 6 113083089.675 6  88116727.68849  21519005.50849
  23944005.852 1 125826441.857 1  98046749.07547  23944018.25847
  22646508.094 5 119008198.318 5  92733689.31448  22646520.00848
  20627731.320 6 108399455.235 6  84467135.87248  20627740.00048
  22384613.898 5 117631939.203 5  91661285.71247  22384622.57847
  21123154.625 6 111002881.034 6  86495791.19248  21123165.84448
 22  7  3 15 50 55.0000000  0  7G05G07G08G09G14G20G30               
  23575881.453 5 123892119.064 5  96539326.22146  23575890.15646
  21521655.945 6 113097059.718 6  88127613.43249  21521663.98049
  23945621.586 1 125834934.014 1  98053366.29547  23945633.93847
  22649843.063 5 119025719.363 5  92747342.07348  22649854.25848
  20627546.289 6 108398482.047 6  84466377.55348  20627555.17648
  22386392.727 5 117641283.571 5  91668567.02047  22386400.59847
  21124382.484 6 111009335.083 6  86500820.31848  21124393.94948
 22  7  3 15 51  0.0000000  0  7G05G07G08G09G14G20G30               
  23575440.484 4 123889804.317 4  96537522.52846  23575450.09846
  21524314.914 6 113111035.013 6  88138503.25849  21524323.46149
  23947241.094 1 125843442.266 1  98059996.09147  23947252.84447
  22653178.719 5 119043251.594 5  92761003.52548  22653190.29348
  20627363.969 6 108397525.414 6  84465632.13048  20627373.02348
  22388173.930 6 117650643.540 6  91675860.52247  22388181.64147
  21125612.148 6 111015795.843 6  86505854.68248  21125623.30948
 22  7  3 15 51  5.0000000  0  7G05G07G08G09G14G20G30               
  23575003.195 5 123887505.612 5  96535731.33246  23575012.62946
  21526975.195 6 113125015.636 6  88149397.24049  21526984.00849
  23948863.273 1 125851966.735 1  98066638.52646  23948875.03146
  22656517.453 5 119060795.146 5  92774673.82348  22656529.04748
  20627184.766 6 108396585.411 6  84464899.65648  20627193.98448
  22389957.906 6 117660019.125 6  91683166.14247  22389965.87147
  21126843.227 6 111022263.396 6  86510894.32648  21126854.23048
 22  7  3 15 51 10.0000000  0  7G05G07G08G09G14G20G30               
  23574569.125 5 123885223.182 5  96533952.81546  23574578.10946
  21529636.891 6 113139001.810 6  88160295.55449  21529645.53549
  23950487.844 1 125860507.724 1  98073293.85047  23950500.27747
  22659857.797 5 119078350.251 5  92788353.11748  22659869.08648
  20627009.852 6 108395662.313 6  84464180.36348  20627018.62548
  22391744.813 6 117669410.631 6  91690484.19947  22391753.04747
  21128075.039 6 111028738.015 6  86515939.47948  21128086.14848
 22  7  3 15 51 15.0000000  0  7G05G07G08G09G14G20G30               
  23574137.977 4 123882956.808 4  96532186.81646  23574146.85546
  21532299.664 6 113152993.220 6  88171197.95449  21532308.14149
  23952116.680 1 125869064.877 1  98079961.75946  23952128.24246
  22663200.602 5 119095916.565 5  92802041.13548  22663212.36748
  20626837.195 6 108394755.800 6  84463473.99648  20626845.86348
  22393534.844 6 117678817.715 6  91697814.40347  22393543.22347
  21129308.633 7 111035219.384 7  86520989.89848  21129319.18848
 22  7  3 15 51 20.0000000  0  7G05G07G08G09G14G20G30               
  23573709.375 5 123880706.065 5  96530432.99946  23573718.23846
  21534962.430 6 113166989.495 6  88182104.13649  21534971.48049
  23953747.391 2 125877637.836 2  98086641.98447  23953759.28147
  22666545.648 5 119113493.732 5  92815737.62748  22666556.87548
  20626667.617 6 108393865.492 6  84462780.25148  20626676.62548
  22395328.242 6 117688239.969 6  91705156.41647  22395336.10547
  21130542.969 7 111041707.107 7  86526045.27148  21130553.67248
 22  7  3 15 51 25.0000000  0  7G05G07G08G09G14G20G30               
  23573283.836 5 123878471.763 5  96528692.00146  23573293.21146
  21537627.273 6 113180991.442 6  88193014.74149  21537635.78549
  23955382.914 3 125886227.337 3  98093335.09647  23955394.16847
  22669893.016 5 119131082.590 5  92829443.21648  22669904.37548
  20626501.266 6 108392992.253 6  84462099.81348  20626510.38348
  22397123.953 6 117697678.279 6  91712510.93147  22397132.10247
  21131779.242 6 111048202.020 6  86531106.24048  21131789.59448
 22  7  3 15 51 30.0000000  0  7G05G07G08G09G14G20G30               
  23572861.664 5 123876253.542 5  96526963.51646  23572870.96946
  21540292.773 6 113194998.754 6  88203929.52649  21540301.81349
  23957020.469 2 125894833.207 2  98100040.95847  23957032.14547
  22673241.391 5 119148682.765 5  92843157.63748  22673253.32048
  20626338.375 6 108392135.696 6  84461432.36748  20626347.88348
  22398922.734 6 117707132.233 6  91719877.63847  22398931.00447
  21133015.992 7 111054703.767 7  86536172.54548  21133026.58648
 22  7  3 15 51 35.0000000  0  7G05G07G08G09G14G20G30               
  23572443.883 5 123874051.426 5  96525247.58146  23572451.96146
  21542958.750 6 113209011.396 6  88214848.47549  21542968.14849
  23958660.695 2 125903455.418 2  98106759.53647  23958673.05547
  22676593.109 5 119166294.215 5  92856880.84148  22676604.85948
  20626178.391 6 108391295.836 6  84460777.93148  20626187.50048
  22400725.125 6 117716601.813 6  91727256.52647  22400733.63347
  21134254.531 6 111061212.300 6  86541244.12448  21134265.18048
 22  7  3 15 51 40.0000000  0  7G05G07G08G09G14G20G30               
  23572026.430 5 123871865.102 5  96523543.94346  23572036.41846
  21545626.008 6 113223029.107 6  88225771.35849  21545635.56349
  23960305.016 2 125912093.536 2  98113490.55047  23960317.11347
  22679946.102 5 119183916.709 5  92870612.64848  22679958.23848
  20626021.578 6 108390472.346 6  84460136.25048  20626030.96148
  22402530.234 6 117726086.688 6  91734647.33847  22402538.24647
  21135494.672 6 111067727.366 6  86546320.80648  21135505.14848
 22  7  3 15 51 45.0000000  0  7G05G07G08G09G14G20G30               
  23571614.047 5 123869694.531 5  96521852.57646  23571623.49646
  21548294.984 6 113237051.792 6  88236698.12849  21548304.39549
  23961952.164 1 125920747.493 1  98120233.89347  23961964.14847
  22683301.391 5 119201550.161 5  92884352.99448  22683313.97348
  20625867.813 6 108389665.223 6  84459507.32548  20625877.28148
  22404337.734 5 117735586.852 5  91742050.05647  22404346.41447
  21136736.008 6 111074248.917 6  86551402.53348  21136746.66448
 22  7  3 15 51 50.0000000  0  7G05G07G08G09G14G20G30               
  23571204.844 5 123867539.748 5  96520173.53746  23571213.19146
  21550964.367 6 113251079.494 6  88247628.79749  21550973.80149
  23963601.016 1 125929417.631 1  98126989.81247  23963614.24647
  22686659.102 5 119219194.622 5  92898101.90848  22686671.38348
  20625717.750 6 108388874.462 6  84458891.15548  20625726.81648
  22406148.805 6 117745102.325 6  91749464.71047  22406156.60947
  21137977.859 6 111080776.970 6  86556489.32548  21137988.59848
 22  7  3 15 51 55.0000000  0  7G05G07G08G09G14G20G30               
  23570796.461 5 123865400.787 5  96518506.80246  23570806.15246
  21553634.930 6 113265112.293 6  88258563.44449  21553643.77749
  23965254.078 1 125938103.695 1  98133758.14747  23965266.86747
  22690018.789 5 119236850.021 5  92911859.35148  22690030.54348
  20625569.773 6 108388100.115 6  84458287.77148  20625579.43848
  22407962.352 6 117754633.068 6  91756891.26547  22407970.46547
  21139221.594 7 111087311.550 7  86561581.20048  21139232.26648
 22  7  3 15 52  0.0000000  0  7G05G07G08G09G14G20G30               
  23570393.156 5 123863277.673 5  96516852.44247  23570401.79347
  21556305.781 6 113279150.091 6  88269501.99749  21556315.07849
  23966910.344 1 125946805.635 1  98140538.87047  23966922.76647
  22693380.820 5 119254516.398 5  92925625.36148  22693392.67648
  20625425.930 6 108387342.130 6  84457697.13448  20625435.07048
  22409778.719 5 117764179.116 5  91764329.74247  22409786.82847
  21140466.359 7 111093852.576 7  86566678.09748  21140477.47348
 22  7  3 15 52  5.0000000  0  7G05G07G08G09G14G20G30               
  23569992.633 6 123861170.320 6  96515210.34346  23570000.84846
  21558978.320 6 113293192.889 6  88280444.41849  21558987.22749
  23968569.969 1 125955523.536 1  98147332.02147  23968581.42647
  22696744.766 5 119272193.761 5  92939399.92048  22696756.69548
  20625284.930 6 108386600.521 6  84457119.25248  20625294.07448
  22411598.391 6 117773740.445 6  91771780.11447  22411606.22347
  21141712.469 7 111100400.112 7  86571780.08148  21141723.12948
 22  7  3 15 52 10.0000000  0  7G05G07G08G09G14G20G30               
  23569593.945 6 123859078.324 6  96513580.22446  23569602.49246
  21561651.070 6 113307240.218 6  88291390.39249  21561659.85549
  23970229.266 1 125964256.964 1  98154137.24047  23970243.44147
  22700110.211 5 119289881.606 5  92953182.64548  22700122.37548
  20625146.766 6 108385874.840 6  84456553.79148  20625156.33648
  22413420.656 6 117783316.543 6  91779242.01447  22413428.16847
  21142959.289 7 111106953.647 7  86576886.72948  21142969.90648
 22  7  3 15 52 15.0000000  0  7G05G07G08G09G14G20G30               
  23269406.195 5 122281581.802 5  95284362.14646  23269414.72346
  21264533.703 6 111745875.548 6  87074742.59349  21264542.16849
  23672101.422 1 124397588.207 1  96933356.37647  23672116.35247
  22403687.563 5 117732164.139 5  91739376.83148  22403698.76248
  20325219.297 6 106809745.575 6  83228401.11748  20325228.66448
  22115453.734 6 116217490.007 6  90559117.43547  22115461.68047
  20844415.266 7 109538095.178 7  85354399.60948  20844426.52048
 22  7  3 15 52 20.0000000  0  7G05G07G08G09G14G20G30               
  23269014.430 5 122279521.559 5  95282756.76647  23269023.25847
  21267208.703 6 111759932.928 6  87085696.39849  21267217.40249
  23673771.266 1 124406353.664 1  96940186.61047  23673784.30147
  22407056.305 5 117749874.017 5  91753176.72448  22407068.51248
  20325087.781 6 106809052.749 6  83227861.25248  20325097.16448
  22117281.664 6 116227096.673 6  90566603.15547  22117290.11747
  20845664.758 7 109544661.752 7  85359516.41448  20845676.02348
 22  7  3 15 52 25.0000000  0  7G05G07G08G09G14G20G30               
  23268625.398 5 122277477.275 5  95281163.81147  23268634.43047
  21269885.000 6 111773995.402 6  87096654.17349  21269893.55949
  23675441.719 1 124415135.073 1  96947029.23446  23675455.46146
  22410429.594 5 117767594.967 5  91766985.23648  22410440.75448
  20324959.305 6 106808376.432 6  83227334.25348  20324968.29348
  22119112.227 6 116236718.737 6  90574100.84147  22119120.73047
  20846915.664 7 109551234.958 7  85364638.39048  20846926.87948
 22  7  3 15 52 30.0000000  0  7G05G07G08G09G14G20G30               
  23268238.930 5 122275448.850 5  95279583.23846  23268248.16446
  21272561.375 6 111788062.899 6  87107615.85349  21272570.27749
  23677116.016 1 124423932.461 1  96953884.33547  23677129.48847
  22413803.344 5 117785326.835 5  91780802.27048  22413815.17248
  20324833.180 6 106807716.528 6  83226820.03848  20324842.82048
  22120946.195 6 116246356.048 6  90581610.43647  22120955.01647
  20848168.063 7 109557814.660 7  85369765.42448  20848179.15248
 22  7  3 15 52 35.0000000  0  7G05G07G08G09G14G20G30               
  23267856.773 5 122273436.164 5  95278014.89846  23267865.40246
  21275239.664 6 111802135.240 6  87118581.31149  21275248.21149
  23678793.219 1 124432745.681 1  96960751.76647  23678806.88747
  22417179.289 5 117803069.573 5  91794627.76548  22417191.46948
  20324711.195 6 106807072.905 6  83226318.52148  20324720.30148
  22122783.047 6 116256008.427 6  90589131.77147  22122791.58247
  20849421.023 7 109564400.681 7  85374897.39148  20849432.35548
 22  7  3 15 52 40.0000000  0  7G05G07G08G09G14G20G30               
  23267476.984 5 122271439.046 5  95276458.71446  23267485.81346
  21277918.422 6 111816212.268 6  87129550.42749  21277926.82049
  23680473.961 1 124441574.564 1  96967631.39047  23680487.09047
  22420557.883 5 117820822.906 5  91808461.53248  22420569.80548
  20324591.148 6 106806445.293 6  83225829.47648  20324600.83648
  22124623.219 6 116265675.628 6  90596664.63547  22124631.44947
  20850675.633 6 109570992.833 6  85380034.12648  20850686.18448
 22  7  3 15 52 45.0000000  0  7G05G07G08G09G14G20G30               
  23267099.211 5 122269457.522 5  95274914.67546  23267108.78946
  21280598.328 6 111830294.025 6  87140523.21649  21280606.48849
  23682157.633 1 124450419.028 1  96974523.15147  23682169.82447
  22423938.773 5 117838586.918 5  91822303.61148  22423950.14148
  20324475.305 6 106805833.863 6  83225353.03648  20324484.24648
  22126464.727 6 116275357.804 6  90604209.18947  22126473.44947
  20851931.250 6 109577591.222 6  85385175.72748  20851942.34448
 22  7  3 15 52 50.0000000  0  7G05G07G08G09G14G20G30               
  23266725.094 5 122267491.693 5  95273382.84946  23266734.12946
  21283279.195 6 111844380.470 6  87151499.65549  21283286.98049
  23683842.141 1 124459279.201 1  96981427.16147  23683856.29347
  22427320.953 5 117856361.640 5  91836154.02648  22427333.08648
  20324361.102 6 106805238.564 6  83224889.16648  20324371.20748
  22128310.289 5 116285054.954 5  90611765.38547  22128319.06347
  20853188.508 6 109584195.802 6  85390322.14748  20853199.20348
 22  7  3 15 52 55.0000000  0  7G05G07G08G09G14G20G30               
  23266354.242 5 122265541.630 5  95271863.34046  23266363.14546
  21285960.688 6 111858471.824 6  87162479.92549  21285968.12149
  23685532.438 1 124468155.356 1  96988343.62447  23685545.40247
  22430705.711 5 117874147.196 5  91850012.90848  22430717.75448
  20324251.297 6 106804659.598 6  83224438.02848  20324260.85548
  22130158.570 6 116294767.226 6  90619333.40547  22130167.07847
  20854446.000 7 109590806.796 7  85395473.56748  20854457.04748
 22  7  3 15 53  0.0000000  0  7G05G07G08G09G14G20G30               
  23265986.313 5 122263607.251 5  95270356.05947  23265995.01247
  21288642.672 6 111872567.992 6  87173463.95049  21288650.84449
  23687224.930 1 124477047.310 1  96995272.42247  23687237.57447
  22434092.383 5 117891943.542 5  91863880.16648  22434103.83648
  20324144.102 6 106804096.843 6  83223999.52148  20324153.82048
  22132009.625 6 116304494.489 6  90626913.10947  22132018.10547
  20855705.398 7 109597424.079 7  85400629.89148  20855715.99248
 22  7  3 15 53  5.0000000  0  7G05G07G08G09G14G20G30               
  23265621.719 5 122261687.953 5  95268860.49146  23265629.55146
  21291326.078 6 111886668.391 6  87184451.27349  21291333.87549
  23688919.625 1                                  23688932.41847
  22437480.695 5 117909750.050 5  91877755.35648  22437492.30548
  20324040.047 6 106803549.771 6  83223573.23148  20324049.79748
  22133864.000 5 116314236.233 5  90634504.05547  22133871.89147
  20856965.359 7 109604047.062 7  85405790.65348  20856976.16448
 22  7  3 15 53 10.0000000  0  7G05G07G08G09G14G20G30               
  23265259.547 5 122259784.869 5  95267377.57246  23265267.47346
  21294010.188 6 111900773.989 6  87195442.63749  21294018.14149
  23690617.125 1 124494877.60711  97009166.13857  23690630.46947
  22440871.742 5 117927567.747 5  91891639.27048  22440883.19948
  20323938.938 6 106803019.330 6  83223159.89848  20323948.55548
  22135719.906 5 116323993.379 5  90642107.02847  22135729.37947
  20858227.250 6 109610676.743 6  85410956.64048  20858237.81348
 22  7  3 15 53 15.0000000  0  8G05G07G08G09G13G14G20G30            
  23264900.086 5 122257897.166 5  95265906.63746  23264908.07846
  21296696.047 6 111914884.030 6  87206437.46649  21296703.24249
  23692318.664 1 124503816.365 1  97016131.39247  23692331.02047
  22444263.352 5 117945395.816 5  91905531.26148  22444275.34448
  24082956.719 5 126556929.89415  98615718.73256  24082966.07446
  20323841.320 6 106802504.795 6  83222758.96448  20323850.76248
  22137579.828 5 116333765.146 5  90649721.40147  22137588.39847
  20859490.039 6 109617312.362 6  85416127.24548  20859500.47348
 22  7  3 15 53 20.0000000  0  8G05G07G08G09G13G14G20G30            
  23264543.305 6 122256024.998 6  95264447.80946  23264551.67646
  21299381.219 6 111928998.683 6  87217435.89249  21299389.46149
  23694021.273 1 124512770.695 1  97023108.76746  23694035.37146
  22447658.414 5 117963234.509 5  91919431.52948  22447669.63748
  24081120.000 4 126547275.467 4  98608195.78846  24081129.44546
  20323746.891 6 106802006.346 6  83222370.55348  20323756.03948
  22139441.594 5 116343551.745 5  90657347.29847  22139450.76247
  20860753.688 6 109623954.083 6  85421302.61948  20860764.31348
 22  7  3 15 53 25.0000000  0  8G05G07G08G09G13G14G20G30            
  23264190.219 6 122254168.320 6  95263001.02947  23264198.20347
  21302068.258 6 111943117.858 6  87228437.84349  21302075.90649
  23695728.594 1 124521740.488 1  97030098.20547  23695742.12947
  22451054.594 5 117981083.589 5  91933339.89648  22451066.54348
  24079282.820 5 126537621.384 5  98600673.15746  24079292.12946
  20323654.484 6 106801523.871 6  83221994.60048  20323663.87148
  22141307.758 5 116353353.043 5  90664984.66947  22141316.11747
  20862018.945 7 109630601.847 7  85426482.70248  20862029.27048
 22  7  3 15 53 30.0000000  0  8G05G07G08G09G13G14G20G30            
  23263839.484 6 122252327.476 6  95261566.60347  23263848.07447
  21304756.234 6 111957241.972 6  87239443.63049  21304763.75449
  23697436.563 1 124530726.271 1  97037100.10747  23697451.80947
  22454453.266 5 117998943.621 5  91947256.79848  22454464.68448
  24077445.867 4 126527968.135 4  98593151.14846  24077455.03546
  20323566.227 6 106801057.773 6  83221631.39548  20323575.23448
  22143175.336 6 116363169.446 6  90672633.81747  22143183.99247
  20863285.086 7 109637256.039 7  85431667.78448  20863296.00848
 22  7  3 15 53 35.0000000  0  8G05G07G08G09G13G14G20G30            
  23263492.984 6 122250502.529 6  95260144.57347  23263501.01247
  21307445.148 6 111971371.026 6  87250453.28449  21307452.37549
  23699150.086 1 124539728.102 1  97044114.50546  23699165.11346
  22457854.117 5 118016814.569 5  91961182.19748  22457865.54748
  24075608.664 5 126518315.729 5  98585629.78646  24075618.69546
  20323480.734 6 106800608.125 6  83221281.02548  20323489.55548
  22145046.008 5 116373001.054 5  90680294.77847  22145054.98447
  20864552.461 6 109643916.647 6  85436857.87348  20864563.50048
 22  7  3 15 53 40.0000000  0  8G05G07G08G09G13G14G20G30            
  23263147.906 6 122248693.482 6  95258734.91547  23263157.21147
  21310134.328 6 111985505.020 6  87261466.77549  21310141.80949
  23700866.844 1 124548745.992 1  97051141.44546  23700880.59846
  22461256.711 5 118034696.370 5  91975116.06548  22461268.30948
  24073772.227 5 126508664.119 5  98578109.08146  24073781.62946
  20323398.680 6 106800174.839 6  83220943.39848  20323407.17248
  22146919.547 5 116382847.718 5  90687967.52247  22146928.63747
  20865821.586 7 109650583.745 7  85442053.00548  20865832.21148
 22  7  3 15 53 45.0000000  0  8G05G07G08G09G13G14G20G30            
  23262806.555 6 122246899.796 6  95257337.25046  23262815.46146
  21312824.766 6 111999643.387 6  87272483.68749  21312832.27349
  23702584.867 1 124557779.160 1  97058180.25946  23702599.82446
  22464661.914 5 118052588.468 5  91989057.95148  22464673.44948
  24071934.797 5 126499012.776 5  98570588.56846  24071945.28146
  20323318.383 6 106799757.393 6  83220618.12448  20323328.01648
  22148797.008 5 116392708.926 5  90695651.56347  22148805.42647
  20867091.336 7 109657256.640 7  85447252.66848  20867101.59848
 22  7  3 15 53 50.0000000  0  8G05G07G08G09G13G14G20G30            
  23262468.867 5 122245121.767 5  95255951.78546  23262477.66446
  21315515.750 6 112013786.435 6  87283504.22149  21315523.43849
  23704309.328 1 124566828.056 1  97065231.35046  23704321.77046
  22468068.266 5 118070491.205 5  92003008.12948  22468080.21548
  24070098.953 4 126489362.019 4  98563068.50746  24070108.52046
  20323242.758 6 106799356.077 6  83220305.41148  20323251.26248
  22150675.156 5 116402584.955 5  90703347.17947  22150684.72347
  20868362.016 7 109663935.703 7  85452457.13048  20868372.90648
 22  7  3 15 53 55.0000000  0  8G05G07G08G09G13G14G20G30            
  23262133.352 6 122243359.297 6  95254578.44447  23262142.02047
  21318208.609 6 112027934.024 6  87294528.31349  21318216.37149
  23706033.633 1 124575892.438 1  97072294.47846  23706046.43846
  22471477.070 5 118088404.435 5  92016966.47148  22471489.06648
  24068261.820 5 126479711.746 5  98555548.82346  24068272.02046
  20323169.102 6 106798970.802 6  83220005.20048  20323178.21548
  22152557.898 5 116412475.658 5  90711054.21647  22152566.89547
  20869634.734 7 109670620.809 7  85457666.30748  20869645.44948
 22  7  3 15 54  0.0000000  0  8G05G07G08G09G13G14G20G30            
  23261800.172 6 122241612.258 6  95253217.11547  23261809.72347
  21320901.703 6 112042086.041 6  87305555.84949  21320909.13749
  23707760.625 1 124584972.146 1  97079369.58346  23707774.14146
  22474888.117 5 118106327.941 5  92030932.84348  22474899.89148
  24066425.938 5 126470061.771 5  98548029.37646  24066435.46146
  20323099.023 6 106798601.391 6  83219717.35148  20323107.53148
  22154443.703 5 116422380.900 5  90718772.60447  22154451.64847
  20870907.586 6 109677311.756 6  85462880.02848  20870918.70748
 22  7  3 15 54  5.0000000  0  8G05G07G08G09G13G14G20G30            
  23261471.055 6 122239880.913 6  95251868.01546  23261480.46146
  21323595.547 6 112056242.714 6  87316587.01349  21323603.50049
  23709490.953 1 124594067.668 1  97086456.99246  23709504.92646
  22478300.484 5 118124262.164 5  92044907.54848  22478312.89548
  24064590.227 5 126460412.493 5  98540510.45946  24064599.59846
  20323031.602 6 106798248.168 6  83219442.12248  20323040.60548
  22156330.617 5 116432301.012 5  90726502.54347  22156339.26247
  20872181.570 7 109684008.954 7  85468098.62348  20872193.19948
 22  7  3 15 54 10.0000000  0  8G05G07G08G09G13G14G20G30            
  23261144.359 6 122238165.081 6  95250531.01647  23261153.55947
  21326290.258 6 112070403.880 6  87327621.67849  21326297.98049
  23711225.297 1 124603178.541 1  97093556.35546  23711238.80146
  22481715.258 5 118142206.788 5  92058890.36148  22481727.05148
  24062753.828 5 126450763.599 5  98532991.86646  24062763.86346
  20322967.039 6 106797910.935 6  83219179.34348  20322976.16048
  22158220.734 5 116442235.733 5  90734243.87147  22158229.60547
  20873457.539 7 109690712.098 7  85473321.85948  20873469.03548
 22  7  3 15 54 15.0000000  0  8G05G07G08G09G13G14G20G30            
  23260821.242 6 122236464.992 6  95249206.24747  23260830.14847
  21328986.367 6 112084569.771 6  87338660.01849  21328993.63749
  23712962.258 1 124612305.25111  97100668.09156  23712975.57846
  22485132.539 5 118160162.084 5  92072881.49048  22485143.89148
  24060917.211 5 126441115.318 5  98525473.71546  24060927.66446
  20322906.438 6 106797589.885 6  83218929.17148  20322915.39148
  22160114.273 5 116452185.301 5  90741996.77247  22160123.56647
  20874733.992 7 109697421.447 7  85478549.92448  20874745.63748
 22  7  3 15 54 20.0000000  0  8G05G07G08G09G13G14G20G30            
  23260500.023 5 122234780.410 5  95247893.59947  23260509.69147
  21331682.188 6 112098740.205 6  87349701.90349  21331690.23849
  23714701.523 1 124621447.39611  97107791.84456  23714715.29346
  22488550.391 5 118178127.812 5  92086880.73948  22488562.89548
  24059081.813 4 126431467.498 4  98517955.94746  24059091.74646
  20322848.055 6 106797284.867 6  83218691.50748  20322857.28148
  22162010.875 5 116462149.517 5  90749761.09647  22162019.64547
  20876011.969 7 109704136.832 7  85483782.68948  20876023.35548
 22  7  3 15 54 25.0000000  0  8G05G07G08G09G13G14G20G30            
  23260183.148 5 122233111.424 5  95246593.09747  23260192.41447
  21334379.922 6 112112915.147 6  87360747.29849  21334387.68849
  23716445.664 1 124630605.110 1  97114927.70847  23716459.04347
  22491971.805 5 118196103.990 5  92100888.14148  22491983.80948
  24057246.203 5 126421820.286 5  98510438.63046  24057256.12546
  20322793.094 6 106796995.854 6  83218466.30248  20322802.28148
  22163910.141 5 116472128.360 5  90757536.81147  22163917.93847
  20877291.234 7 109710858.207 7  85489020.12748  20877302.39148
 22  7  3 15 54 30.0000000  0  8G05G07G08G09G13G14G20G30            
  23259867.961 5 122231457.611 5  95245304.41447  23259877.33247
  21337077.836 6 112127094.262 6  87371795.94949  21337085.68049
  23718189.406 1 124639778.055 1  97122075.45646  23718204.71146
  22495394.523 5 118214090.294 5  92114903.43148  22495406.73048
  24055411.070 5 126412173.157 5  98502921.39746  24055419.97346
  20322741.328 6 106796722.539 6  83218253.33748  20322750.13748
  22165811.414 5 116482121.488 5  90765323.66247  22165819.75847
  20878570.969 7 109717585.274 7  85494261.98948  20878582.45748
 22  7  3 15 54 35.0000000  0  8G05G07G08G09G13G14G20G30            
  23259556.594 6 122229819.003 6  95244027.57747  23259564.83647
  21339776.297 6 112141277.481 6  87382847.79649  21339784.72749
  23719938.656 1 124648966.180 1  97129235.03547  23719953.43447
  22498819.516 5 118232086.725 5  92128926.60448  22498830.85248
  24053574.180 5 126402526.182 5  98495404.28346  24053584.29346
  20322692.031 6 106796464.916 6  83218052.58448  20322701.16848
  22167715.039 5 116492128.881 5  90773121.61847  22167724.14847
  20879852.523 7 109724317.952 7  85499508.23348  20879863.44548
 22  7  3 15 54 40.0000000  0  8G05G07G08G09G13G14G20G30            
  23259247.781 6 122228196.370 6  95242763.18847  23259256.42247
  21342476.680 6 112155465.626 6  87393903.48749  21342484.80949
  23721690.461 1 124658170.130 1  97136406.92347  23721704.10247
  22502246.484 5 118250093.943 5  92142958.19148  22502257.75448
  24051738.727 5 126392880.155 5  98487887.90946  24051749.07446
  20322646.398 6 106796223.676 6  83217864.60248  20322655.62148
  22169622.758 5 116502151.263 5  90780931.27147  22169631.29747
  20881134.922 6 109731057.052 6  85504759.47748  20881145.45748
 22  7  3 15 54 45.0000000  0  8G05G07G08G09G13G14G20G30            
  23258941.016 5 122226589.220 5  95241510.87247  23258950.77347
  21345177.125 6 112169658.182 6  87404962.61449  21345185.08249
  23723445.922 1 124667389.52411  97143590.89957  23723458.88347
  22505674.273 5 118268111.513 5  92156997.84848  22505686.44148
  24049903.555 4 126383234.438 4  98480371.75646  24049913.30146
  20322603.164 6 106795998.380 6  83217689.05448  20322612.73048
  22171532.734 5 116512188.215 5  90788752.25347  22171541.67647
  20882418.281 7 109737802.038 7  85510015.31048  20882428.96548
 22  7  3 15 54 50.0000000  0  8G05G07G08G09G13G14G20G30            
  23258638.055 6 122224997.566 6  95240270.60547  23258647.78947
  21347879.063 6 112183855.111 6  87416025.14649  21347886.87549
  23725202.727 1 124676624.409 1  97150786.90847  23725215.77347
  22509105.172 5 118286139.393 5  92171045.54148  22509117.22348
  24048068.250 4 126373589.165 4  98472855.97646  24048077.73046
  20322563.164 6 106795789.013 6  83217525.91148  20322572.70348
  22173446.039 6 116522239.610 6  90796584.50947  22173453.92247
  20883703.219 7 109744552.939 7  85515275.73948  20883713.60248
 22  7  3 15 54 55.0000000  0  8G05G07G08G09G13G14G20G30            
  23258338.391 5 122223421.484 5  95239042.51647  23258348.31347
  21350581.711 6 112198056.547 6  87427091.18649  21350589.74649
  23726963.469 1 124685874.810 1  97157995.00947  23726975.85547
  22512538.789 5 118304177.685 5  92185101.36348  22512549.80948
  24046232.867 5 126363944.382 5  98465340.55246  24046242.10946
  20322526.781 6 106795595.606 6  83217375.20448  20322535.84848
  22175360.672 5 116532305.584 5  90804428.13147  22175369.85547
  20884988.922 7 109751309.765 7  85520540.80348  20884999.67248
 22  7  3 15 55  0.0000000  0  8G05G07G08G09G13G14G20G30            
  23258041.391 5 122221860.777 5  95237826.38347  23258051.13747
  21353284.711 6 112212262.275 6  87438160.58649  21353293.02049
  23728725.500 1 124695140.421 1  97165214.96447  23728739.34047
  22515972.602 5 118322226.185 5  92199165.12048  22515984.20348
  24044398.133 5 126354299.974 5  98457825.43546  24044407.33246
  20322492.727 6 106795418.076 6  83217236.87248  20322502.00448
  22177279.938 5 116542386.043 5  90812283.02047  22177287.76647
  20886275.680 7 109758072.416 7  85525810.40448  20886286.33248
 22  7  3 15 55  5.0000000  0  8G05G07G08G09G13G14G20G30            
  23257747.273 5 122220315.648 5  95236622.37347  23257757.14847
  21355988.625 6 112226472.496 6  87449233.47449  21355997.21949
  23730492.156 2 124704421.674 2  97172447.13047  23730505.14147
  22519409.367 5 118340285.177 5  92213237.05548  22519420.51248
  24042562.711 5 126344656.032 5  98450310.67446  24042571.53146
  20322462.641 6 106795256.595 6  83217111.04248  20322471.13348
  22179200.078 5 116552481.046 5  90820149.23647  22179208.64847
  20887563.547 7 109764841.065 7  85531084.68548  20887574.58248
 22  7  3 15 55 10.0000000  0  8G05G07G08G09G13G14G20G30            
  23257456.945 5 122218786.245 5  95235430.62747  23257465.89547
  21358693.328 6 112240687.402 6  87460310.02649  21358702.59449
  23732261.523 2 124713718.689 2  97179691.55747  23732274.23447
  22522847.453 5 118358354.712 5  92227317.21248  22522858.98048
  24040727.023 5 126335012.834 5  98442796.49546  24040736.72346
  20322434.711 6 106795111.289 6  83216997.81948  20322443.50848
  22181124.375 5 116562590.722 5  90828026.90347  22181132.73847
  20888852.328 7 109771615.875 7  85536363.75548  20888863.70348
 22  7  3 15 55 15.0000000  0  8G05G07G08G09G13G14G20G30            
  23257168.672 5 122217272.309 5  95234250.93546  23257177.83246
  21361399.109 6 112254906.675 6  87471389.97749  21361408.13349
  23734034.336 2 124723030.997 2  97186947.90447  23734046.27347
  22526288.289 5 118376434.531 5  92241405.37348  22526299.65648
  24038891.992 5 126325370.075 5  98435282.66746  24038901.70746
  20322410.023 6 106794981.919 6  83216897.00148  20322419.14548
  22183050.922 5 116572714.871 5  90835915.84647  22183058.63747
  20890143.031 7 109778396.572 7  85541647.41648  20890154.18048
 22  7  3 15 55 20.0000000  0  8G05G07G08G09G13G14G20G30            
  23256883.383 5 122215774.454 5  95233083.76447  23256892.74647
  21364106.305 6 112269130.846 6  87482473.72949  21364114.89549
  23735809.047 1 124732359.445 1  97194216.84347  23735821.74247
  22529730.305 5 118394525.204 5  92255501.99348  22529741.98048
  24037057.867 5 126315728.273 5  98427769.58746  24037066.94146
  20322388.125 6 106794868.985 6  83216809.00548  20322397.47748
  22184980.273 5 116582853.959 5  90843816.41947  22184988.09047
  20891435.008 7 109785183.609 7  85546936.01748  20891445.40248
 22  7  3 15 55 25.0000000  0  8G05G07G08G09G13G14G20G30            
  23256601.148 6 122214292.229 6  95231928.78246  23256610.42246
  21366813.586 6 112283359.484 6  87493560.97349  21366822.54349
  23737587.391 1 124741703.265 1  97201497.73947  23737600.63747
  22533174.891 5 118412626.270 5  92269606.71348  22533187.05948
  24035222.844 5 126306086.986 5  98420256.92546  24035232.14146
  20322370.359 6 106794772.041 6  83216733.46748  20322379.14148
  22186912.523 5 116593007.567 5  90851728.32347  22186920.71547
  20892727.367 7 109791976.637 7  85552229.28848  20892737.90648
 22  7  3 15 55 30.0000000  0  8G05G07G08G09G13G14G20G30            
  23256321.984 5 122212825.626 5  95230785.97547  23256331.48047
  21369522.359 6 112297592.591 6  87504651.71149  21369531.34049
  23739367.422 1 124751062.660 1  97208790.75247  23739381.38747
  22536621.391 5 118430737.754 5  92283719.54448  22536633.43848
  24033387.930 5 126296446.335 5  98412744.72046  24033397.71946
  20322354.672 6 106794691.183 6  83216670.46848  20322363.91848
  22188847.406 5 116603175.746 5  90859651.57247  22188855.53947
  20894021.273 7 109798775.654 7  85557527.22448  20894032.22348
 22  7  3 15 55 35.0000000  0  8G05G07G08G09G13G14G20G30            
  23256045.844 5 122211374.630 5  95229655.32547  23256055.60247
  21372231.844 6 112311830.164 6  87515745.91449  21372240.51649
  23741151.961 1 124760437.478 1  97216095.79247  23741165.30547
  22540070.094 5 118448859.558 5  92297840.42748  22540081.34848
  24031553.648 5 126286806.199 5  98405232.93346  24031563.32846
  20322342.039 6 106794626.306 6  83216619.91948  20322351.73448
  22190785.570 5 116613358.416 5  90867586.13047  22190793.42647
  20895316.570 7 109805580.595 7  85562829.78648  20895326.85248
 22  7  3 15 55 40.0000000  0  8G05G07G08G09G13G14G20G30            
  23255772.922 5 122209938.859 5  95228536.55547  23255782.38747
  21374941.773 6 112326071.834 6  87526843.31549  21374950.50849
  23742939.180 1 124769827.554 1  97223412.72047  23742952.35547
  22543520.930 5 118466991.409 5  92311969.14248  22543532.34048
  24029719.336 5 126277166.271 5  98397721.32046  24029728.78546
  20322332.789 6 106794577.089 6  83216581.58048  20322342.13748
  22192725.148 5 116623555.202 5  90875531.66947  22192733.52747
  20896612.227 7 109812391.153 7  85568136.70848  20896623.07448
 22  7  3 15 55 45.0000000  0  8G05G07G08G09G13G14G20G30            
  23255503.203 5 122208518.923 5  95227430.11347  23255511.71547
  21377652.563 6 112340318.159 6  87537944.36449  21377661.90649
  23744728.797 2 124779233.332 2  97230741.89347  23744742.23047
  22546973.461 5 118485133.816 5  92326106.07048  22546984.31648
  24027885.008 5 126267527.118 5  98390210.30546  24027894.10246
  20322326.688 6 106794544.115 6  83216555.88048  20322336.01248
  22194668.156 5 116633766.669 5  90883488.65447  22194677.02047
  20897909.219 7 109819207.858 7  85573448.42848  20897920.34448
 22  7  3 15 55 50.0000000  0  8G05G07G08G09G13G14G20G30            
  23255235.688 6 122207114.584 6  95226335.81547  23255245.01647
  21380364.609 6 112354568.873 6  87549048.82049  21380373.30949
  23746522.031 2 124788654.522 2  97238083.06847  23746535.48047
  22550426.961 5 118503286.519 5  92340251.03548  22550439.39148
  24026049.922 5 126257888.464 5  98382699.67246  24026059.84846
  20322323.680 6 106794527.122 6  83216542.64248  20322332.63348
  22196614.164 5 116643992.568 5  90891456.86947  22196622.70347
  20899207.453 7 109826030.465 7  85578764.74348  20899218.59448
 22  7  3 15 55 55.0000000  0  8G05G07G08G09G13G14G20G30            
  23254971.609 6 122205725.706 6  95225253.60147  23254980.63347
  21383077.164 6 112368823.976 6  87560156.69549  21383085.75049
  23748318.016 2 124798091.067 2  97245436.22147  23748330.48847
  22553884.016 5 118521449.557 5  92354404.03548  22553895.35948
  24024216.477 5 126248250.317 5  98375189.44946  24024226.05946
  20322323.516 6 106794526.045 6  83216541.80448  20322332.34848
  22198562.352 6 116654232.874 6  90899436.32247  22198571.62947
  20900506.867 7 109832858.927 7  85584085.62748  20900517.89548
 22  7  3 15 56  0.0000000  0  8G05G07G08G09G13G14G20G30            
  23254710.398 5 122204352.422 5  95224183.47747  23254719.52347
  21385790.133 6 112383083.498 6  87571268.00749  21385799.55149
  23750115.609 2 124807543.274 2  97252801.56347  23750128.91047
  22557341.656 5 118539622.928 5  92368565.10248  22557353.98048
  24022382.531 5 126238612.813 5  98367679.69546  24022391.82446
  20322325.969 6 106794541.001 6  83216553.45248  20322335.09048
  22200514.234 5 116664487.669 5  90907427.07747  22200522.98847
  20901807.875 7 109839693.335 7  85589411.13848  20901818.21148
 22  7  3 15 56  5.0000000  0  8G05G07G08G09G13G14G20G30            
  23254452.273 6 122202995.049 6  95223125.78547  23254461.01647
  21388504.680 6 112397347.726 6  87582382.98849  21388513.49249
  23751917.984 3 124817011.128 3  97260179.13947  23751930.14547
  22560802.164 5 118557806.849 5  92382734.39348  22560813.85248
  24020548.656 5 126228976.108 5  98360170.59546  24020558.05946
  20322331.953 6 106794572.207 6  83216577.76048  20322340.81648
  22202468.633 5 116674757.084 5  90915429.19747  22202477.05947
  20903109.281 7 109846533.889 7  85594741.43848  20903120.29348
 22  7  3 15 56 10.0000000  0  8G05G07G08G09G13G14G20G30            
  23254196.688 6 122201653.462 6  95222080.38647  23254206.05947
  21391219.484 6 112411616.555 6  87593501.55749  21391228.58249
  23753722.891 2 124826494.648 2  97267568.89647  23753734.84447
  22564264.539 5 118576001.313 5  92396911.86448  22564276.77348
  24018715.273 5 126219340.227 5  98352662.10846  24018724.89846
  20322340.688 6 106794619.579 6  83216614.68048  20322350.45348
  22204424.461 6 116685041.146 6  90923442.75747  22204434.22347
  20904412.094 7 109853380.546 7  85600076.49348  20904423.15248
 22  7  3 15 56 15.0000000  0  8G05G07G08G09G13G14G20G30            
  23253944.344 6 122200327.091 6  95221046.85347  23253953.91447
  21393935.836 6 112425889.396 6  87604623.25148  21393945.04748
  23755530.188 2 124835993.198 2  97274970.38447  23755542.08647
  22567728.906 5 118594205.681 5  92411097.08848  22567741.03548
  24016881.328 5 126209704.459 5  98345153.71546  24016891.02746
  20322353.344 6 106794682.546 6  83216663.75248  20322362.52748
  22206385.070 5 116695339.179 5  90931467.18546  22206393.93046
  20905715.977 7 109860232.708 7  85605415.84748  20905727.09848
 22  7  3 15 56 20.0000000  0  8G05G07G08G09G13G14G20G30            
  23253695.242 5 122199016.100 5  95220025.28447  23253704.37947
  21396653.031 6 112440166.345 6  87615748.15149  21396661.65249
  23757340.547 3 124845506.939 3  97282383.67447  23757352.71147
  22571195.039 5 118612420.010 5  92425290.04748  22571206.52348
  24015048.930 5 126200068.920 5  98337645.53346  24015057.75446
  20322367.742 6 106794761.227 6  83216725.05148  20322377.08648
  22208347.273 5 116705651.312 5  90939502.60347  22208356.58647
  20907020.820 7 109867090.437 7  85610759.53748  20907031.88348
 22  7  3 15 56 25.0000000  0  8G05G07G08G09G13G14G20G30            
  23253448.234 5 122197720.734 5  95219015.92547  23253458.08647
  21399370.969 6 112454447.838 6  87626876.57649  21399379.64549
  23759153.438 2 124855036.178 2  97289809.09747  23759166.09447
  22574662.188 5 118630644.802 5  92439491.18748  22574674.24248
  24013214.227 5 126190434.104 5  98330137.88246  24013224.33246
  20322385.727 6 106794856.037 6  83216798.92748  20322395.21148
  22210312.313 5 116715977.964 5  90947549.34347  22210321.27747
  20908327.102 7 109873954.229 7  85616107.93648  20908338.20348
 22  7  3 15 56 30.0000000  0  8G05G07G08G09G13G14G20G30            
  23253204.820 5 122196440.903 5  95218018.65747  23253214.50447
  21402089.305 6 112468733.600 6  87638008.33849  21402098.10949
  23760969.695 2 124864580.839 2  97297246.47847  23760982.80547
  22578132.672 5 118648879.762 5  92453700.25248  22578144.64148
  24011381.305 5 126180799.760 5  98322630.59946  24011390.99646
  20322407.156 6 106794966.710 6  83216885.16248  20322416.01648
  22212279.836 5 116726318.881 5  90955607.18547  22212289.23047
  20909634.414 7 109880823.774 7  85621460.82748  20909645.40648
 22  7  3 15 56 35.0000000  0  8G05G07G08G09G13G14G20G30            
  23252964.344 6 122195176.448 6  95217033.37647  23252973.81647
  21404808.383 6 112483023.496 6  87649143.31849  21404817.23049
  23762789.250 2 124874140.672 2  97304695.71747  23762801.84047
  22581604.359 5 118667124.783 5  92467917.13548  22581616.99248
  24009547.891 5 126171165.793 5  98315123.62446  24009557.37146
  20322431.492 6 106795093.126 6  83216983.66148  20322440.32048
  22214251.539 5 116736673.875 5  90963676.00347  22214259.73447
  20910942.578 7 109887698.966 7  85626818.11448  20910953.19948
 22  7  3 15 56 40.0000000  0  8G05G07G08G09G13G14G20G30            
  23252726.305 5 122193927.601 5  95216060.23847  23252735.74647
  21407528.758 6 112497317.685 6  87660281.65149  21407537.57449
  23764611.859 2 124883715.966 2  97312156.98447  23764624.19147
  22585078.953 5 118685379.988 5  92482141.96048  22585090.59848
  24007714.461 5 126161532.317 5  98307617.01646  24007724.40646
  20322458.266 6 106795235.466 6  83217094.57448  20322467.73048
  22216224.031 5 116747043.186 5  90971755.97947  22216232.98447
  20912252.188 7 109894579.970 7  85632179.93848  20912262.98048
 22  7  3 15 56 45.0000000  0  8G05G07G08G09G13G14G20G30            
  23252492.242 5 122192694.565 5  95215099.43747  23252501.51247
  21410249.461 6 112511616.419 6  87671423.50249  21410258.51649
  23766436.398 2 124893306.865 2  97319630.40447  23766449.10947
  22588554.813 5 118703645.649 5  92496374.94148  22588566.29348
  24005881.516 5 126151899.576 5  98300110.98746  24005891.18046
  20322487.875 6 106795393.956 6  83217218.07848  20322497.36348
  22218200.422 5 116757427.021 5  90979847.27347  22218208.98047
  20913562.680 7 109901466.994 7  85637546.44948  20913573.53148
 22  7  3 15 56 50.0000000  0  8G05G07G08G09G13G14G20G30            
  23252259.711 5 122191476.935 5  95214150.63147  23252269.59447
  21412971.602 6 112525919.303 6  87682568.61449  21412980.34849
  23768264.391 2 124902912.952 2  97327115.65947  23768277.12947
  22592033.422 5 118721921.324 5  92510615.72948  22592044.22748
  24004049.023 5 126142267.172 5  98292605.25346  24004058.39846
  20322521.703 6 106795568.176 6  83217353.82448  20322530.81648
  22220178.898 5 116767824.917 5  90987949.53247  22220187.82047
  20914874.289 7 109908359.673 7  85642917.36348  20914884.98848
 22  7  3 15 56 55.0000000  0  8G05G07G08G09G13G14G20G30            
  23252031.188 5 122190274.646 5  95213213.76947  23252041.00047
  21415693.648 6 112540226.210 6  87693716.85849  21415702.44149
  23770096.055 2 124912534.078 2  97334612.64247  23770108.03147
  22595512.461 5 118740206.903 5  92524864.22248  22595523.48048
  24002215.508 5 126132635.104 5  98285099.72946  24002225.29746
  20322557.531 6 106795758.086 6  83217501.81048  20322567.01248
  22222160.820 5 116778236.854 5  90996062.73747  22222168.58247
  20916186.852 7 109915257.872 7  85648292.57748  20916197.17648
 22  7  3 15 57  0.0000000  0  8G05G07G08G09G13G14G20G30            
  23251805.094 5 122189087.584 5  95212288.77447  23251814.69947
  21418416.992 6 112554537.109 6  87704868.18549  21418426.32449
  23771928.406 2 124922170.411 2  97342121.46647  23771941.24247
  22598993.867 6 118758502.354 6  92539120.39849  22599005.70349
  24000382.641 5 126123003.179 5  98277594.33746  24000392.30946
  20322596.758 6 106795963.562 6  83217661.91148  20322605.70348
  22224144.367 5 116788662.661 5  91004186.72647  22224153.07047
  20917500.195 7 109922161.548 7  85653672.07448  20917511.40248
 22  7  3 15 57  5.0000000  0  8G05G07G08G09G13G14G20G30            
  23251582.602 5 122187916.132 5  95211375.95546  23251592.00446
  21421141.117 6 112568852.309 6  87716022.90049  21421149.78949
  23773764.813 2 124931821.965 2  97349642.16347  23773778.23847
  22602476.672 6 118776807.964 6  92553384.50948  22602488.71548
  23998550.516 5 126113371.886 5  98270089.42746  23998559.04746
  20322638.836 6 106796184.935 6  83217834.41048  20322648.08248
  22226131.102 5 116799102.721 5  91012321.84747  22226139.74647
  20918815.672 7 109929070.982 7  85659056.04948  20918826.21948
 22  7  3 15 57 10.0000000  0  8G05G07G08G09G13G14G20G30            
  23251362.164 5 122186759.992 5  95210475.07947  23251372.18447
  21423865.914 6 112583171.635 6  87727180.82149  21423875.23049
  23775605.336 2 124941488.782 2  97357174.75647  23775617.59047
  22605962.984 6 118795123.623 6  92567656.42948  22605974.21948
  23996717.438 4 126103741.029 4  98262584.90446  23996726.62146
  20322684.148 6 106796422.060 6  83218019.18748  20322693.27048
  22228119.922 5 116809556.831 5  91020467.90647  22228129.24247
  20920131.070 7 109935986.051 7  85664444.42048  20920141.99648
 22  7  3 15 57 15.0000000  0  8G05G07G08G09G13G14G20G30            
  23251145.172 6 122185619.321 6  95209586.23647  23251154.51647
  21426591.492 6 112597495.112 6  87738341.96249  21426600.55949
  23777447.148 1 124951170.836 1  97364719.22147  23777459.93447
  22609450.039 5 118813449.313 5  92581936.16248  22609461.60548
  23994885.070 4 126094110.561 4  98255080.63946  23994893.63346
  20322732.133 6 106796674.979 6  83218216.25848  20322741.26648
  22230111.891 5 116820025.050 5  91028624.93847  22230121.82047
  20921448.547 7 109942906.788 7  85669837.20248  20921459.18848
 22  7  3 15 57 20.0000000  0  8G05G07G08G09G13G14G20G30            
  23250931.320 5 122184494.618 5  95208709.85347  23250940.51247
  21429318.289 6 112611823.268 6  87749506.75849  21429326.86749
  23779292.477 1 124960868.587 1  97372275.89347  23779305.17647
  22612939.023 6 118831785.544 6  92596224.12448  22612950.83648
  23993052.578 4 126084481.114 4  98247577.17346  23993061.31346
  20322783.078 6 106796944.194 6  83218426.03348  20322792.59848
  22232106.141 5 116830507.784 5  91036793.30947  22232116.22347
  20922766.398 7 109949833.688 7  85675234.78948  20922777.42648
 22  7  3 15 57 25.0000000  0  8G05G07G08G09G13G14G20G30            
  23250720.344 5 122183385.911 5  95207845.92147  23250729.93047
  21432046.016 6 112626156.096 6  87760675.17849  21432054.21149
  23781141.320 1 124970582.133 1  97379844.89247  23781153.62947
  22616430.148 5 118850132.274 5  92610520.27548  22616441.94148
  23991220.031 4 126074852.564 4  98240074.39146  23991229.14146
  20322837.516 6 106797229.709 6  83218648.51048  20322846.54748
  22234104.188 5 116841005.127 5  91044973.05047  22234113.49247
  20924086.016 7 109956766.748 7  85680637.16748  20924096.65648
 22  7  3 15 57 30.0000000  0  8G05G07G08G09G13G14G20G30            
  23250512.234 5 122182292.457 5  95206993.87447  23250521.49247
  21434774.281 6 112640492.916 6  87771846.71149  21434782.30949
  23782993.258 1 124980310.815 1  97387425.65947  23783005.10947
  22619923.195 5 118868488.942 5  92624824.15148  22619934.61748
  23989387.414 4 126065224.372 4  98232571.91346  23989396.69946
  20322894.555 6 106797530.879 6  83218883.19048  20322904.39848
  22236104.867 5 116851516.391 5  91053163.64247  22236113.80147
  20925406.016 7 109963705.293 7  85686043.82248  20925416.99648
 22  7  3 15 57 35.0000000  0  8G05G07G08G09G13G14G20G30            
  23250307.023 5 122181214.664 5  95206154.02947  23250316.45347
  21437503.117 6 112654834.028 6  87783021.59649  21437511.31649
  23784846.445 2 124990054.791 2  97395018.39347  23784859.01247
  22623418.273 5 118886855.782 5  92639135.96048  22623429.53548
  23987555.211 4 126055596.741 4  98225069.88346  23987564.58246
  20322954.766 6 106797847.978 6  83219130.27748  20322964.54748
  22238107.844 5 116862041.814 5  91061365.27947  22238116.53547
  20926727.516 7 109970649.634 7  85691454.99948  20926738.49248
 22  7  3 15 57 40.0000000  0  8G05G07G08G09G13G14G20G30            
  23250104.898 5 122180152.496 5  95205326.37647  23250114.54747
  21440233.117 6 112669179.366 6  87794199.79949  21440241.16449
  23786704.164 2 124999814.144 2  97402623.06947  23786716.80147
  22626915.609 5 118905232.747 5  92653455.66848  22626927.00448
  23985723.969 3 126045969.643 3  98217568.22946  23985732.94946
  20323018.266 6 106798180.991 6  83219389.77048  20323027.73848
  22240113.641 5 116872581.393 5  91069577.93447  22240122.64147
  20928050.383 7 109977599.734 7  85696870.66948  20928061.29348
 22  7  3 15 57 45.0000000  0  8G05G07G08G09G13G14G20G30            
  23249905.773 6 122179105.716 6  95204510.69847  23249915.63747
  21442963.570 6 112683528.793 6  87805381.15049  21442971.32049
  23788563.273 2 125009588.714 2  97410239.62947  23788576.77047
  22630414.063 5 118923619.682 5  92667783.11548  22630426.20348
  23983891.742 3 126036343.019 3  98210066.98346  23983900.66846
  20323085.117 6 106798529.732 6  83219661.51848  20323094.32048
  22242121.859 5 116883134.930 5  91077801.45547  22242130.97347
  20929373.938 7 109984555.445 7  85702290.69748  20929384.75048
 22  7  3 15 57 50.0000000  0  8G05G07G08G09G13G14G20G30            
  23249709.734 5 122178074.785 5  95203707.36947  23249719.50047
  21445695.336 6 112697882.758 6  87816566.05049  21445702.89549
  23790427.211 1 125019378.763 1  97417868.22647  23790439.72347
  22633915.188 6 118942016.962 6  92682118.66648  22633927.08648
  23982060.430 4 126026717.265 4  98202566.38746  23982069.03546
  20323154.859 6 106798894.643 6  83219945.85048  20323163.88348
  22244132.227 5 116893702.872 5  91086036.22347  22244141.97747
  20930698.523 7 109991517.161 7  85707715.42048  20930709.09848
 22  7  3 15 57 55.0000000  0  8G05G07G08G09G13G14G20G30            
  23249516.578 5 122177059.210 5  95202916.02047  23249526.28147
  21448427.875 6 112712240.648 6  87827754.01249  21448435.23449
  23792292.016 2 125029183.941 2  97425508.64947  23792305.79347
  22637417.023 5 118960424.079 5  92696461.85348  22637429.37948
  23980228.828 4 126017091.780 4  98195066.03246  23980237.79346
  20323226.914 6 106799275.183 6  83220242.37848  20323236.08648
  22246146.602 5 116904284.648 5  91094281.75547  22246155.05947
  20932024.320 7 109998484.323 7  85713144.37448  20932035.13348
 22  7  3 15 58  0.0000000  0  8G05G07G08G09G13G14G20G30            
  23249327.070 5 122176059.097 5  95202136.72447  23249335.69947
  21451160.461 6 112726602.695 6  87838945.21349  21451168.32049
  23794161.773 2 125039004.243 2  97433160.84247  23794174.52047
  22640922.602 5 118978841.255 5  92710812.87948  22640933.75848
  23978397.961 4 126007466.881 4  98187566.10946  23978406.25046
  20323302.508 6 106799671.520 6  83220551.20848  20323311.20348
  22248162.953 5 116914880.471 5  91102538.22047  22248171.84447
  20933351.102 7 110005457.133 7  85718577.73148  20933362.04348
 22  7  3 15 58  5.0000000  0  8G05G07G08G09G13G14G20G30            
  23249138.773 5 122175074.661 5  95201369.63747  23249148.16847
  21453894.594 6 112740969.098 6  87850139.80849  21453901.69949
  23796033.633 2 125048839.949 2  97440825.03447  23796046.05147
  22644428.773 5 118997268.566 5  92725171.81948  22644440.71948
  23976566.047 4 125997842.515 4  98180066.60646  23976574.54746
  20323380.656 6 106800083.800 6  83220872.46548  20323390.26248
  22250182.266 5 116925490.442 5  91110805.74747  22250190.69547
  20934679.578 7 110012435.731 7  85724015.59748  20934690.01248
 22  7  3 15 58 10.0000000  0  8G05G07G08G09G13G14G20G30            
  23248954.680 5 122174105.639 5  95200614.55147  23248963.92247
  21456628.391 6 112755339.563 6  87861337.54349  21456636.57049
  23797907.461 2 125058690.907 2  97448501.14347  23797920.27747
  22647937.055 5 119015705.849 5  92739538.51848  22647949.48048
  23974734.352 4 125988218.682 4  98172567.52146  23974743.24646
  20323462.055 6 106800511.853 6  83221206.02248  20323471.09048
  22252203.844 5 116936114.405 5  91119084.13947  22252212.48047
  20936008.141 7 110019419.948 7  85729457.85148  20936019.07848
 22  7  3 15 58 15.0000000  0  8G05G07G08G09G13G14G20G30            
  23248772.813 5 122173152.116 5  95199871.56047  23248781.97747
  21459364.203 6 112769714.130 6  87872538.50749  21459372.08649
  23799785.313 1 125068557.175 1  97456189.12447  23799797.98447
  22651447.859 5 119034153.068 5  92753912.96348  22651460.07848
  23972903.133 4 125978595.377 4  98165068.84846  23972912.21146
  20323546.234 6 106800955.664 6  83221551.83748  20323555.81648
  22254227.656 5 116946752.294 5  91127373.40647  22254236.44547
  20937338.516 7 110026409.760 7  85734904.45548  20937349.38748
 22  7  3 15 58 20.0000000  0  8G05G07G08G09G13G14G20G30            
  23248594.781 5 122172214.306 5  95199140.79847  23248603.03947
  21462100.430 6 112784093.113 6  87883742.89649  21462108.53149
  23801667.078 2 125078438.840 2  97463889.14847  23801677.80547
  22654959.945 5 119052610.571 5  92768295.41548  22654972.48848
  23971072.633 4 125968972.804 4  98157570.76246  23971080.62946
  20323633.750 6 106801415.561 6  83221910.20648  20323643.10948
  22256255.461 5 116957404.422 5  91135673.75947  22256263.48447
  20938669.531 7 110033405.473 7  85740355.65648  20938680.63348
 22  7  3 15 58 25.0000000  0  8G05G07G08G09G13G14G20G30            
  23248419.328 5 122171291.752 5  95198421.91747  23248427.82047
  21464837.266 6 112798476.021 6  87894950.35449  21464845.26649
  23803548.594 1 125088335.600 1  97471600.90047  23803561.82847
  22658474.516 5 119071077.853 5  92782685.49648  22658486.68848
  23969240.602 4 125959350.579 4  98150072.92246  23969249.98446
  20323724.125 6 106801891.066 6  83222280.73348  20323733.78948
  22258284.414 5 116968070.324 5  91143984.84247  22258293.23447
  20940001.859 7 110040406.616 7  85745811.09048  20940012.72348
 22  7  3 15 58 30.0000000  0  8G05G07G08G09G13G14G20G30            
  23248245.563 5 122170384.774 5  95197715.18247  23248255.48047
  21467575.141 6 112812863.053 6  87906161.02549  21467583.12949
  23805435.539 2 125098247.459 2  97479324.44447  23805447.84047
  22661990.805 5 119089555.119 5  92797083.35148  22662002.58248
  23967409.641 4 125949728.890 4  98142575.52946  23967419.14546
  20323818.250 6 106802382.367 6  83222663.56248  20323827.70348
  22260316.313 5 116978750.136 5  91152306.76447  22260325.37547
  20941335.406 7 110047413.356 7  85751270.89048  20941346.02748
 22  7  3 15 58 35.0000000  0  8G05G07G08G09G13G14G20G30            
  23248075.680 6 122169493.236 6  95197020.48547  23248085.69947
  21470313.773 6 112827254.158 6  87917374.86449  21470321.80949
  23807324.617 1 125108174.539 1  97487059.82247  23807336.84447
  22665509.188 5 119108042.249 5  92811488.91548  22665520.73448
  23965578.758 4 125940107.686 4  98135078.49046  23965588.31346
  20323914.594 6 106802889.419 6  83223058.66948  20323924.05148
  22262351.711 6 116989443.877 6  91160639.54347  22262360.16847
  20942669.750 7 110054425.691 7  85756735.05648  20942680.57848
 22  7  3 15 58 40.0000000  0  8G05G07G08G09G13G14G20G30            
  23247909.516 5 122168617.473 5  95196338.05747  23247918.70747
  21473052.813 6 112841649.593 6  87928592.09249  21473061.15649
  23809216.258 2 125118117.038 2  97494807.22247  23809229.16847
  22669028.547 5 119126539.615 5  92825902.42848  22669040.69948
  23963748.766 4 125930487.297 4  98127582.11546  23963757.95746
  20324014.195 6 106803412.467 6  83223466.24148  20324023.44948
  22264389.234 5 117000151.756 5  91168983.33947  22264398.25047
  20944004.992 7 110061443.868 7  85762203.75948  20944016.41848
 22  7  3 15 58 45.0000000  0  8G05G07G08G09G13G14G20G30            
  23247746.180 6 122167757.175 6  95195667.69447  23247755.35247
  21475792.883 6 112856049.097 6  87939812.46449  21475801.49649
  23811111.672 2 125128074.763 2  97502566.49447  23811123.77347
  22672549.711 5 119145046.896 5  92840323.69448  22672562.07048
  23961918.320 4 125920867.403 4  98120086.06646  23961927.18046
  20324117.164 6 106803951.303 6  83223886.11448  20324126.17248
  22266430.195 6 117010873.553 6  91177337.98947  22266438.40647
  20945341.906 7 110068467.609 7  85767676.80648  20945352.72348
 22  7  3 15 58 50.0000000  0  8G05G07G08G09G13G14G20G30            
  23247585.211 6 122166912.212 6  95195009.29447  23247594.59847
  21478533.797 6 112870452.480 6  87951035.86749  21478542.36349
  23813009.203 2 125138047.388 2  97510337.36647  23813021.28547
  22676074.391 5 119163563.859 5  92854752.47248  22676086.31648
  23960087.742 4 125911247.793 4  98112590.31346  23960096.87146
  20324222.453 6 106804505.651 6  83224318.07248  20324231.61348
  22268472.641 6 117021608.941 6  91185703.21847  22268480.76247
  20946679.344 7 110075496.671 7  85773153.99448  20946690.53148
 22  7  3 15 58 55.0000000  0  8G05G07G08G09G13G14G20G30            
  23247427.172 6 122166082.421 6  95194362.69147  23247436.52747
  21481275.664 6 112884859.598 6  87962262.19849  21481284.14149
  23814911.117 2 125148034.963 2  97518119.90647  23814922.16847
  22679599.672 5 119182090.439 5  92869188.76948  22679611.21548
  23958257.148 4 125901628.443 4  98105094.68846  23958266.71946
  20324330.516 6 106805075.443 6  83224762.06948  20324339.72748
  22270518.633 6 117032357.882 6  91194079.01347  22270526.17647
  20948017.992 7 110082530.985 7  85778635.28148  20948029.02348
 22  7  3 15 59  0.0000000  0  8G05G07G08G09G13G14G20G30            
  23247272.219 6 122165268.096 6  95193728.15947  23247281.93447
  21484017.547 6 112899270.693 6  87973491.63849  21484026.30149
  23816812.531 1 125158037.633 1  97525914.18847  23816825.87547
  22683127.227 5 119200626.864 5  92883632.72148  22683138.75848
  23956426.367 4 125892009.527 4  98097599.44746  23956436.69946
  20324441.836 6 106805660.987 6  83225218.33248  20324451.37548
  22272566.117 5 117043120.680 5  91202465.59447  22272574.58647
  20949357.406 7 110089570.873 7  85784120.90548  20949368.70748
 22  7  3 15 59  5.0000000  0  8G05G07G08G09G13G14G20G30            
  23247120.273 6 122164469.169 6  95193105.60747  23247129.66847
  21486760.523 6 112913685.850 6  87984724.22249  21486769.59449
  23818718.688 2 125168055.416 2  97533720.25547  23818732.21147
  22686655.922 5 119219173.161 5  92898084.36548  22686668.05148
  23954595.594 4 125882391.067 4  98090104.53146  23954606.06346
  20324556.477 6 106806262.191 6  83225686.80548  20324565.80948
  22274616.523 6 117053897.218 6  91210862.89847  22274625.12547
  20950697.859 7 110096616.214 7  85789610.77548  20950709.19148
 22  7  3 15 59 10.0000000  0  8G05G07G08G09G13G14G20G30            
  23246971.586 5 122163685.721 5  95192495.14047  23246980.66847
  21489504.453 6 112928105.036 6  87995959.94949  21489513.52349
  23820627.797 1 125178088.171 1  97541537.97347  23820641.21547
  22690188.141 5 119237729.250 5  92912543.63348  22690199.03948
  23952765.516 4 125872773.172 4  98082610.08246  23952775.36746
  20324673.578 6 106806879.124 6  83226167.53448  20324682.94548
  22276670.477 6 117064687.601 6  91219270.97047  22276678.87947
  20952040.039 7 110103667.091 7  85795104.96748  20952051.52748
 22  7  3 15 59 15.0000000  0  8G05G07G08G09G13G14G20G30            
  23246824.938 5 122162917.691 5  95191896.69347  23246834.57847
  21492249.031 6 112942528.150 6  88007198.74649  21492258.12549
  23822540.813 1 125188136.048 1  97549367.46247  23822553.64547
  22693720.508 5 119256295.174 5  92927010.58748  22693732.64848
  23950935.484 4 125863155.663 4  98075115.92446  23950945.86346
  20324794.297 6 106807511.695 6  83226660.45248  20324802.95748
  22278725.875 6 117075491.696 6  91227689.73747  22278734.78147
  20953382.320 7 110110723.406 7  85800603.38348  20953394.02048
 22  7  3 15 59 20.0000000  0  8G05G07G08G09G13G14G20G30            
  23246681.914 5 122162164.802 5  95191310.02347  23246691.31647
  21494994.375 6 112956954.980 6  88018440.43249  21495003.53549
  23824455.867 1 125198198.751 1  97557208.49347  23824468.54747
  22697255.531 5 119274870.642 5  92941484.96148  22697266.75448
  23949105.031 4 125853538.418 4  98067621.96946  23949115.50446
  20324917.281 6 106808159.719 6  83227165.40348  20324926.57048
  22280784.766 5 117086309.275 5  91236119.01547  22280793.73447
  20954726.688 7 110117784.945 7  85806105.88248  20954737.69548
 22  7  3 15 59 25.0000000  0  8G05G07G08G09G13G14G20G30            
  23246541.695 5 122161427.663 5  95190735.63647  23246550.67247
  21497740.609 6 112971386.104 6  88029685.46649  21497749.56649
  23826373.148 2 125208276.790 2  97565061.50847  23826385.55947
  22700792.023 5 119293456.171 5  92955967.18448  22700803.27748
  23947274.719 4 125843921.907 4  98060128.56246  23947285.97346
  20325043.883 6 106808823.732 6  83227682.82048  20325052.90248
  22282846.711 5 117097140.899 5  91244559.23647  22282854.53947
  20956071.328 7 110124852.287 7  85811612.89648  20956082.41048
 22  7  3 15 59 30.0000000  0  8G05G07G08G09G13G14G20G30            
  23246404.539 5 122160706.264 5  95190173.51647  23246413.42247
  21500487.859 6 112985821.495 6  88040933.82149  21500496.88349
  23828293.438 2 125218370.066 2  97572926.37847  23828306.44547
  22704330.391 5 119312051.820 5  92970457.30148  22704342.26248
  23945445.000 5 125834306.193 5  98052635.82646  23945455.64846
  20325173.070 6 106809503.690 6  83228212.66348  20325182.37548
  22284909.906 5 117107986.536 5  91253010.37347  22284918.53147
  20957417.531 7 110131925.390 7  85817124.39548  20957428.76248
 22  7  3 15 59 35.0000000  0  8G05G07G08G09G13G14G20G30            
  23246270.547 5 122160000.485 5  95189623.55947  23246279.19147
  21503235.750 6 113000261.081 6  88052185.44749  21503244.64549
  23830218.445 2 125228478.650 2  97580803.19747  23830229.37947
  22707870.797 5 119330657.470 5  92984955.18948  22707883.05548
  23943615.539 5 125824691.161 5  98045143.58146  23943626.29346
  20325305.688 6 106810199.524 6  83228754.87448  20325314.66048
  22286976.344 5 117118846.051 5  91261472.33447  22286984.80147
  20958764.539 7 110139004.108 7  85822640.28948  20958775.23048
 22  7  3 15 59 40.0000000  0  8G05G07G08G09G13G14G20G30            
  23246138.719 5 122159310.009 5  95189085.52147  23246148.00047
  21505984.148 6 113014704.560 6  88063440.11549  21505993.05149
  23832144.414 3 125238602.250 3  97588691.71847  23832156.47747
  22711413.922 5 119349272.781 5  92999460.61548  22711425.38348
  23941786.164 4 125815076.560 4  98037651.67746  23941796.46546
  20325441.047 6 106810910.938 6  83229309.22348  20325449.91848
  22289045.367 6 117129719.229 6  91269944.92547  22289053.71947
  20960112.234 7 110146088.187 7  85828160.35048  20960123.57448
 22  7  3 15 59 45.0000000  0  8G05G07G08G09G13G14G20G30            
  23246009.930 6 122158634.908 6  95188559.47847  23246019.46147
  21508733.703 6 113029151.841 6  88074697.73149  21508742.32449
  23834073.242 3 125248740.803 3  97596591.89547  23834085.55547
  22714957.719 5 119367897.743 5  93013973.55448  22714969.71148
  23939956.266 4 125805462.361 4  98030160.09246  23939967.19546
  20325579.406 6 106811637.900 6  83229875.68748  20325588.32048
  22291117.008 6 117140605.989 6  91278428.10447  22291125.94547
  20961461.844 7 110153177.642 7  85833684.59748  20961472.45748
 22  7  3 15 59 50.0000000  0  8G05G07G08G09G13G14G20G30            
  23245884.484 5 122157974.904 5  95188045.18247  23245893.64147
  21511483.148 6 113043602.714 6  88085958.15649  21511491.93049
  23836005.766 3 125258893.934 3  97604503.43547  23836017.56347
  22718503.922 5 119386532.144 5  93028493.85448  22718515.56648
  23938126.703 4 125795848.303 4  98022668.63446  23938137.66046
  20325720.742 6 106812380.182 6  83230454.09348  20325729.68448
  22293190.977 6 117151506.020 6  91286921.63047  22293200.11747
  20962811.711 7 110160272.171 7  85839212.80048  20962822.31648
 22  7  3 15 59 55.0000000  0  8G05G07G08G09G13G14G20G30            
  23245762.352 5 122157330.368 5  95187542.93847  23245771.38747
  21514234.008 6 113058057.545 6  88097221.64649  21514242.62949
  23837940.266 3 125269062.159 3  97612426.74247  23837952.50847
  22722051.133 5 119405176.278 5  93043021.74848  22722063.25048
  23936297.266 4 125786234.746 4  98015177.55546  23936307.98046
  20325864.875 6 106813138.169 6  83231044.73348  20325874.08648
  22295267.508 6 117162419.769 6  91295425.84547  22295276.52347
  20964162.867 7 110167372.170 7  85844745.26548  20964173.44948
 22  7  3 16  0  0.0000000  0  8G05G07G08G09G13G14G20G30            
  23245642.172 5 122156701.520 5  95187052.93147  23245651.54747
  21516985.203 6 113072516.578 6  88108488.43449  21516994.42249
  23839878.070 3 125279245.797 3  97620362.04647  23839890.68447
  22725601.297 5 119423830.523 5  93057557.51848  22725613.44548
  23934467.563 4 125776622.046 4  98007687.15046  23934478.59046
  20326012.352 6 106813912.100 6  83231647.80148  20326021.56348
  22297347.211 5 117173347.429 5  91303940.87847  22297356.08647
  20965515.211 7 110174477.897 7  85850282.18648  20965525.35248
 22  7  3 16  0  5.0000000  0  8G05G07G08G09G13G14G20G30            
  23245525.617 6 122156088.347 6  95186575.12847  23245534.80547
  21519737.711 6 113086979.761 6  88119758.44049  21519746.93849
  23841819.195 3 125289444.731 3  97628309.25847  23841831.79747
  22729153.383 5 119442494.705 5  93072101.01948  22729164.71148
  23932639.164 3 125767010.024 3  98000197.26246  23932649.57046
  20326162.266 6 106814701.908 6  83232263.24348  20326171.46548
  22299429.469 5 117184288.965 5  91312466.75947  22299438.11747
  20966868.000 7 110181589.280 7  85855823.52448  20966878.82048
 22  7  3 16  0 10.0000000  0  8G05G07G08G09G13G14G20G30            
  23245412.445 6 122155490.468 6  95186109.26347  23245421.36747
  21522490.711 6 113101446.655 6  88131031.34849  21522500.03149
  23843762.789 4 125299658.540 4  97636268.05747  23843775.74647
  22732706.484 5 119461168.417 5  93086651.94748  22732718.13348
  23930810.266 3 125757398.305 3  97992707.64046  23930820.48446
  20326315.648 6 106815507.170 6  83232890.72048  20326324.73448
  22301514.516 5 117195243.849 5  91321003.04947  22301522.94947
  20968222.508 7 110188705.886 7  85861368.93148  20968233.59048
 22  7  3 16  0 15.0000000  0  8G05G07G08G09G13G14G20G30            
  23245301.578 5 122154907.515 5  95185654.99247  23245310.35247
  21525244.547 6 113115917.197 6  88142307.08349  21525253.56349
  23845708.930 3 125309886.888 3  97644238.19447  23845722.11747
  22736262.266 5 119479851.361 5  93101210.08448  22736273.28548
  23928980.156 4 125747786.633 4  97985218.02146  23928991.14146
  20326472.063 6 106816327.645 6  83233530.05748  20326480.80948
  22303601.281 5 117206211.927 5  91329549.58947  22303609.68447
  20969577.883 7 110195827.447 7  85866918.19748  20969588.75448
 22  7  3 16  0 20.0000000  0  8G05G07G08G09G13G14G20G30            
  23245193.227 5 122154339.857 5  95185212.68247  23245202.05547
  21527999.141 6 113130391.407 6  88153585.69649  21528007.32449
  23847657.539 3 125320129.987 3  97652219.82547  23847671.44147
  22739818.828 5 119498543.947 5  93115775.73048  22739830.37548
  23927152.422 4 125738175.423 4  97977728.74546  23927162.44946
  20326631.234 6 106817163.595 6  83234181.44948  20326640.30948
  22305691.219 6 117217193.438 6  91338106.61147  22305699.52047
  20970933.992 7 110202954.268 7  85872471.56848  20970944.59048
 22  7  3 16  0 25.0000000  0  8G05G07G08G09G13G14G20G30            
  23245088.305 5 122153787.665 5  95184782.37347  23245096.97347
  21530754.000 6 113144869.523 6  88164867.32949  21530762.32049
  23849610.266 3 125330388.283 3  97660213.27647  23849623.43847
  22743378.195 5 119517246.159 5  93130348.85948  22743389.37148
  23925323.195 4 125728564.702 4  97970239.88546  23925333.11346
  20326792.648 6 106818015.190 6  83234845.03148  20326802.00448
  22307783.195 6 117228188.551 6  91346674.22547  22307791.68847
  20972291.367 7 110210086.497 7  85878029.14948  20972301.84848
 22  7  3 16  0 30.0000000  0  8G05G07G08G09G13G14G20G30            
  23244986.820 5 122153250.697 5  95184363.98147  23244995.00047
  21533509.430 6 113159351.322 6  88176151.85549  21533518.16049
  23851564.055 3 125340661.359 3  97668218.27547  23851578.23447
  22746938.859 5 119535957.876 5  93144929.40948  22746950.44148
  23923494.578 3 125718954.334 3  97962751.26546  23923504.66046
  20326958.195 6 106818882.217 6  83235520.64548  20326967.27048
  22309878.016 5 117239197.034 5  91355252.25347  22309886.54747
  20973649.383 7 110217223.920 7  85883590.76948  20973660.55548
 22  7  3 16  0 35.0000000  0  8G05G07G08G09G13G14G20G30            
  23244886.828 5 122152729.559 5  95183957.88847  23244895.39547
  21536266.891 6 113173837.423 6  88187439.72249  21536274.88749
  23853522.859 3 125350949.796 3  97676235.22947  23853535.77747
  22750500.945 5 119554679.729 5  93159517.84848  22750512.77048
  23921665.531 3 125709344.924 3  97955263.46146  23921675.53946
  20327125.844 6 106819765.314 6  83236208.77648  20327135.30948
  22311975.602 5 117250219.489 5  91363841.17347  22311984.23847
  20975008.656 7 110224367.198 7  85889156.96248  20975019.55148
 22  7  3 16  0 40.0000000  0  8G05G07G08G09G13G14G20G30            
  23244790.477 5 122152223.608 5  95183563.64547  23244799.30147
  21539023.617 6 113188327.085 6  88198730.36749  21539032.10249
  23855483.672 4 125361252.981 4  97684263.68347  23855496.34447
  22754064.945 5 119573411.022 5  93174113.65148  22754077.32448
  23919837.219 3 125699735.734 3  97947775.79645  23919847.02745
  20327297.117 6 106820663.760 6  83236908.86548  20327306.27048
  22314075.398 5 117261255.195 5  91372440.42047  22314084.12947
  20976368.703 7 110231515.552 7  85894727.09148  20976379.64548
 22  7  3 16  0 45.0000000  0  8G05G07G08G09G13G14G20G30            
  23244697.773 5 122151732.904 5  95183181.27247  23244706.23847
  21541781.750 6 113202820.346 6  88210023.82149  21541789.59849
  23857447.406 4 125371570.881 4  97692303.58847  23857459.68047
  22757631.898 5 119592151.696 5  93188716.75148  22757643.29348
  23918008.313 3 125690126.845 3  97940288.36446  23918018.52346
  20327470.734 6 106821577.612 6  83237620.95748  20327480.07448
  22316178.297 6 117272304.167 6  91381050.01447  22316186.75447
  20977730.523 7 110238669.038 7  85900301.23348  20977741.01648
 22  7  3 16  0 50.0000000  0  8G05G07G08G09G13G14G20G30            
  23244606.719 5 122151257.762 5  95182811.02647  23244615.63747
  21544540.438 6 113217317.658 6  88221320.41949  21544548.71949
  23859414.117 4 125381903.954 4  97700355.33647  23859425.85947
  22761199.906 5 119610902.188 5  93203327.50648  22761211.71548
  23916179.891 3 125680518.701 3  97932801.51446  23916190.05546
  20327647.930 6 106822507.224 6  83238345.33548  20327656.97348
  22318283.680 6 117283366.835 6  91389670.26047  22318292.21147
  20979092.430 7 110245828.060 7  85905879.69148  20979103.09448
 22  7  3 16  0 55.0000000  0  8G05G07G08G09G13G14G20G30            
  23244518.742 5 122150798.056 5  95182452.82847  23244527.92647
  21547300.156 6 113231818.819 6  88232620.02249  21547308.10249
  23861382.750 4 125392252.006 4  97708418.74747  23861394.45747
  22764770.336 5 119629662.323 5  93217945.78848  22764781.75448
  23914351.367 4 125670911.023 4  97925315.02546  23914361.62146
  20327827.766 6 106823452.407 6  83239081.83648  20327836.98848
  22320391.023 6 117294442.986 6  91398301.03047  22320399.42647
  20980455.945 7 110252992.431 7  85911462.31348  20980466.50848
 22  7  3 16  1  0.0000000  0  8G05G07G08G09G13G14G20G30            
  23244434.820 5 122150353.688 5  95182106.55947  23244443.52747
  21550060.641 6 113246323.783 6  88243922.60249  21550068.65649
  23863354.883 4 125402614.893 4  97716493.72747  23863366.89847
  22768341.594 5 119648432.027 5  93232571.52148  22768353.24648
  23912523.305 4 125661303.789 4  97917828.86046  23912533.38346
  20328010.703 6 106824413.161 6  83239830.47948  20328019.86748
  22322501.438 6 117305532.557 6  91406942.26347  22322509.82447
  20981820.320 7 110260162.085 7  85917049.05748  20981831.09448
 22  7  3 16  1  5.0000000  0  8G05G07G08G09G13G14G20G30            
  23244352.977 6 122149924.462 6  95181772.10547  23244361.49247
  21552821.117 6 113260832.303 6  88255227.92649  21552828.98449
  23865329.789 4 125412992.472 4  97724580.14947  23865341.40647
  22771914.914 5 119667211.056 5  93247204.52148  22771926.82848
  23910695.938 4 125651696.822 4  97910342.91646  23910705.05146
  20328196.656 6 106825389.212 6  83240591.04548  20328205.59048
  22324613.609 6 117316635.297 6  91415593.73847  22324622.18447
  20983185.266 7 110267336.790 7  85922639.72548  20983196.41448
 22  7  3 16  1 10.0000000  0  8G05G07G08G09G13G14G20G30            
  23244274.352 6 122149510.567 6  95181449.59247  23244283.35947
  21555583.070 6 113275344.539 6  88266536.16049  21555590.76249
  23867307.539 4 125423384.911 4  97732678.14447  23867319.09847
  22775490.813 5 119685999.547 5  93261844.89848  22775502.35548
  23908867.664 4 125642090.272 4  97902857.27246  23908877.46146
  20328385.133 6 106826380.723 6  83241363.65148  20328394.00848
  22326729.234 6 117327751.337 6  91424255.59247  22326737.48047
  20984551.883 7 110274516.696 7  85928234.45548  20984562.74648
 22  7  3 16  1 15.0000000  0  8G05G07G08G09G13G14G20G30            
  23244197.602 6 122149111.945 6  95181138.97047  23244206.81347
  21558344.773 6 113289860.479 6  88277847.28049  21558353.33649
  23869287.711 3 125433792.184 3  97740787.71147  23869299.87147
  22779067.492 4 119704797.541 4  93276492.66248  22779079.88348
  23907039.633 4 125632484.096 4  97895371.95046  23907048.88346
  20328576.781 6 106827387.686 6  83242148.29748  20328585.74648
  22328846.750 6 117338880.695 6  91432927.81247  22328855.99647
  20985919.133 7 110281701.796 7  85933833.22348  20985929.85948
 22  7  3 16  1 20.0000000  0  8G05G07G08G09G13G14G20G30            
  23244124.344 5 122148728.591 5  95180840.25447  23244134.07847
  21561108.227 6 113304380.012 6  88289161.19449  21561116.10249
  23871271.438 3 125444214.183 3  97748908.73847  23871282.38747
  22782647.070 5 119723604.916 5  93291147.74348  22782658.54748
  23905212.102 4 125622878.273 4  97887886.90246  23905221.32846
  20328771.336 6 106828410.034 6  83242944.93848  20328780.14148
  22330968.031 5 117350023.269 5  91441610.34147  22330976.46147
  20987287.484 7 110288892.021 7  85939435.99848  20987297.70748
 22  7  3 16  1 25.0000000  0  8G05G07G08G09G13G14G20G30            
  23244055.281 5 122148360.572 5  95180553.48147  23244064.32847
  21563871.500 6 113318903.306 6  88300478.04449  21563879.90649
  23873256.656 3 125454651.053 3  97757041.35447  23873268.63347
  22786227.477 5 119742421.837 5  93305810.26248  22786239.04748
  23903384.859 4 125613272.928 4  97880402.24046  23903393.69146
  20328968.508 6 106829447.933 6  83243753.68848  20328977.44548
  22333091.086 5 117361179.235 5  91450303.28847  22333098.94947
  20988656.828 7 110296087.528 7  85945042.88048  20988667.14848
 22  7  3 16  1 30.0000000  0  8G05G07G08G09G13G14G20G30            
  23243987.859 5 122148007.600 5  95180278.44947  23243997.37547
  21566635.906 6 113333430.020 6  88311797.56149  21566644.28949
  23875245.922 3 125465102.322 3  97765185.18847  23875256.64147
  22789809.148 5 119761247.890 5  93320479.91548  22789821.53148
  23901556.359 4 125603667.724 4  97872917.64046  23901565.61746
  20329168.875 6 106830500.977 6  83244574.24548  20329177.97748
  22335215.305 5 117372348.138 5  91459006.33547  22335224.31647
  20990026.688 7 110303287.922 7  85950653.58348  20990036.98448
 22  7  3 16  1 35.0000000  0  8G05G07G08G09G13G14G20G30            
  23243923.969 5 122147669.890 5  95180015.30347  23243932.47347
  21569401.484 6 113347960.354 6  88323119.89349  21569409.46549
  23877237.445 3 125475568.439 3  97773340.58447  23877248.84447
  22793394.133 5 119780083.417 5  93335156.93048  22793405.89548
  23899729.391 5 125594062.906 5  97865433.38646  23899737.93846
  20329372.383 6 106831569.467 6  83245406.84348  20329381.10248
  22337343.430 6 117383530.314 6  91467719.72147  22337352.73447
  20991397.828 7 110310493.481 7  85956268.30348  20991408.08248
 22  7  3 16  1 40.0000000  0  8G05G07G08G09G13G14G20G30            
  23243862.250 5 122147347.135 5  95179763.80547  23243871.52747
  21572166.961 6 113362494.004 6  88334444.80449  21572175.16049
  23879231.781 3 125486048.911 3  97781507.18447  23879242.90247
  22796979.594 5 119798927.982 5  93349841.00348  22796992.10248
  23897901.313 4 125584458.163 4  97857949.16646  23897910.54346
  20329578.094 6 106832653.044 6  83246251.19748  20329587.23848
  22339474.477 5 117394725.340 5  91476443.11647  22339482.94547
  20992769.781 7 110317703.853 7  85961886.77848  20992780.30148
 22  7  3 16  1 45.0000000  0  8G05G07G08G09G13G14G20G30            
  23243803.758 5 122147039.540 5  95179524.11147  23243812.71147
  21574933.320 6 113377031.260 6  88345772.53149  21574941.29749
  23881229.617 4 125496544.034 4  97789685.18247  23881240.61747
  22800567.883 4 119817781.902 4  93364532.35548  22800579.49648
  23896073.617 4 125574853.716 4  97850465.17346  23896083.19546
  20329787.414 6 106833751.940 6  83247107.48048  20329796.85248
  22341607.172 5 117405933.481 5  91485176.73947  22341615.89547
  20994143.250 7 110324919.290 7  85967509.20148  20994154.07048
 22  7  3 16  1 50.0000000  0  8G05G07G08G09G13G14G20G30            
  23243748.117 5 122146747.457 5  95179296.52447  23243757.35247
  21577699.891 6 113391572.421 6  88357103.30449  21577708.30549
  23883228.758 4 125507054.248 4  97797874.94747  23883241.18447
  22804157.141 5 119836645.454 5  93379231.23248  22804169.16448
  23894245.883 4 125565249.986 4  97842981.78746  23894255.73446
  20329999.844 6 106834866.526 6  83247975.99748  20330008.72748
  22343742.164 5 117417155.111 5  91493920.85447  22343751.12147
  20995517.172 7 110332140.152 7  85973135.84248  20995528.00448
 22  7  3 16  1 55.0000000  0  8G05G07G08G09G13G14G20G30            
  23243695.742 5 122146470.648 5  95179080.83447  23243704.45747
  21580467.891 6 113406117.195 6  88368436.88949  21580476.23049
  23885231.758 3 125517579.214 3  97806076.20947  23885244.23447
  22807748.813 4 119855518.443 4  93393937.43748  22807761.00048
  23892417.617 4 125555646.679 4  97835498.68646  23892427.83246
  20330214.039 6 106835996.536 6  83248856.52548  20330223.28948
  22345880.688 5 117428389.968 5  91502675.28347  22345889.15247
  20996892.422 7 110339366.155 7  85978766.48348  20996902.76248
 22  7  3 16  2  0.0000000  0  8G05G07G08G09G13G14G20G30            
  23243645.969 5 122146209.056 5  95178876.98247  23243654.95747
  21583236.742 6 113420665.561 6  88379773.26649  21583244.76649
  23887237.055 3 125528118.836 3  97814288.89147  23887250.44947
  22811341.586 4 119874400.735 4  93408650.90248  22811354.67248
  23890590.406 4 125546043.743 4  97828015.88546  23890600.63346
  20330432.461 6 106837141.908 6  83249749.02548  20330441.70348
  22348021.406 5 117439637.868 5  91511439.88847  22348029.41447
  20998268.695 7 110346597.217 7  85984401.07348  20998279.10548
 22  7  3 16  2  5.0000000  0  8G05G07G08G09G13G14G20G30            
  23243598.594 5 122145962.876 5  95178685.15647  23243608.23047
  21586005.383 6 113435217.644 6  88391112.54149  21586013.82849
  23889245.344 3 125538673.224 3  97822513.05147  23889258.75847
  22814936.766 4 119893292.471 4  93423371.72548  22814949.22348
  23888762.477 4 125536441.348 4  97820533.51346  23888773.28946
  20330653.758 6 106838302.748 6  83250653.57348  20330662.96548
  22350164.586 5 117450899.060 5  91520214.82747  22350172.28947
  20999645.289 7 110353833.479 7  85990039.71648  20999656.27748
 22  7  3 16  2 10.0000000  0  8G05G07G08G09G13G14G20G30            
  23243555.211 5 122145731.628 5  95178504.97247  23243564.14847
  21588775.297 6 113449773.005 6  88402454.37949  21588783.82449
  23891256.883 3 125549241.893 3  97830748.37147  23891270.02047
  22818534.227 4 119912193.232 4  93438099.56948  22818545.91848
  23886935.172 4 125526839.030 4  97813051.19946  23886945.71546
  20330877.445 6 106839478.639 6  83251569.85548  20330886.45348
  22352309.461 6 117462173.052 6  91528999.75747  22352318.19547
  21001023.117 6 110361074.517 6  85995682.08548  21001033.77048
 22  7  3 16  2 15.0000000  0  8G05G07G08G09G13G14G20G30            
  23243513.781 5 122145516.000 5  95178336.95347  23243522.94147
  21591545.984 6 113464332.307 6  88413799.28749  21591554.22349
  23893270.344 3 125559825.656 3  97838995.44247  23893284.40247
  22822132.531 5 119931103.657 5  93452834.95448  22822144.26248
  23885108.938 4 125517237.483 4  97805569.47546  23885118.63346
  20331104.297 6 106840670.256 6  83252498.38748  20331113.64548
  22354457.367 6 117473460.449 6  91537795.13247  22354465.77747
  21002402.258 7 110368321.008 7  86001328.69248  21002413.46548
 22  7  3 16  2 20.0000000  0  8G05G07G08G09G13G14G20G30            
  23243475.797 5 122145315.541 5  95178180.74347  23243484.99247
  21594317.023 6 113478895.117 6  88425146.92949  21594324.94549
  23895287.539 2 125570424.287 2  97847254.13047  23895301.26647
  22825732.203 5 119950023.364 5  93467577.56348  22825744.84448
  23883281.656 4 125507636.291 4  97798088.04246  23883291.29346
  20331333.656 6 106841877.163 6  83253438.83248  20331343.03948
  22356607.156 5 117484760.919 5  91546600.68947  22356616.49247
  21003782.125 6 110375572.499 6  86006979.19748  21003793.20748
 22  7  3 16  2 25.0000000  0  8G05G07G08G09G13G14G20G30            
  23243440.539 5 122145130.106 5  95178036.25047  23243449.19147
  21597088.820 6 113493461.269 6  88436497.18049  21597097.21149
  23897307.734 3 125581037.309 3  97855524.00947  23897320.43847
  22829335.000 5 119968952.123 5  93482327.23648  22829346.71548
  23881454.680 4 125498035.289 4  97790606.76246  23881464.28946
  20331566.125 6 106843099.201 6  83254391.07948  20331575.26648
  22358760.063 6 117496074.254 6  91555416.27347  22358769.35247
  21005162.570 6 110382828.833 6  86012633.47948  21005174.18048
 22  7  3 16  2 30.0000000  0  8G05G07G08G09G13G14G20G30            
  23243407.766 5 122144959.942 5  95177903.64547  23243416.99247
  21599861.570 6 113508031.000 6  88447850.21549  21599869.67249
  23899330.164 3 125591664.980 3  97863805.28247  23899343.28547
  22832937.586 5 119987890.223 5  93497084.18248  22832950.36348
  23879627.734 4 125488434.730 4  97783125.79746  23879637.41846
  20331801.641 6 106844336.634 6  83255355.30748  20331810.76648
  22360915.820 5 117507400.621 5  91564242.00847  22360924.96147
  21006545.203 6 110390090.271 6  86018291.74048  21006555.81348
 22  7  3 16  2 35.0000000  0  8G05G07G08G09G13G14G20G30            
  23243379.531 5 122144805.125 5  95177783.00947  23243387.29747
  21602634.688 6 113522604.378 6  88459206.08449  21602642.72749
  23901355.461 3 125602307.428 3  97872098.07247  23901368.31347
  22836543.883 5 120006837.710 5  93511848.45248  22836556.23448
  23877801.109 4 125478834.700 4  97775645.28046  23877810.34046
  20332040.000 6 106845589.525 6  83256331.58948  20332049.39548
  22363073.438 5 117518740.168 5  91573078.02847  22363082.51247
  21007927.727 7 110397356.850 7  86023954.00948  21007938.51248
 22  7  3 16  2 40.0000000  0  8G05G07G08G09G13G14G20G30            
  23243352.602 5 122144665.203 5  95177673.97747  23243361.11747
  21605408.797 6 113537180.943 6  88470564.44649  21605416.49249
  23903382.156 3 125612964.049 3  97880401.92547  23903396.08247
  22840151.344 5 120025794.110 5  93526619.65948  22840163.01248
  23875974.539 4 125469234.711 4  97768164.78146  23875983.59446
  20332281.297 6 106846857.408 6  83257319.55348  20332290.34448
  22365233.773 5 117530092.346 5  91581923.86947  22365242.73447
  21009311.203 7 110404628.129 7  86029619.93748  21009322.68448
 22  7  3 16  2 45.0000000  0  8G05G07G08G09G13G14G20G30            
  23243328.531 5 122144540.540 5  95177576.84447  23243337.50047
  21608182.484 6 113551761.043 6  88481925.56249  21608190.98449
  23905413.055 3 125623635.347 3  97888717.22247  23905426.17647
  22843760.266 5 120044759.744 5  93541398.06948  22843772.62948
  23874146.922 4 125459635.121 4  97760684.59246  23874156.56646
  20332525.625 6 106848140.615 6  83258319.45348  20332534.92248
  22367396.422 5 117541457.520 5  91590779.84846  22367405.49646
  21010696.008 7 110411904.452 7  86035289.79848  21010707.00448
 22  7  3 16  2 50.0000000  0  8G05G07G08G09G13G14G20G30            
  23243307.469 5 122144430.963 5  95177491.45947  23243316.17647
  21610957.695 6 113566344.496 6  88493289.29449  21610966.75449
  23907444.938 2 125634321.208 2  97897043.87347  23907459.54747
  22847371.414 5 120063734.498 5  93556183.56948  22847383.46948
  23872320.664 4 125450035.819 4  97753204.61546  23872329.82446
  20332772.875 6 106849438.949 6  83259331.14848  20332781.66048
  22369561.438 6 117552835.563 6  91599645.85147  22369570.35247
  21012081.156 7 110419185.619 7  86040963.42948  21012092.57048
 22  7  3 16  2 55.0000000  0  8G05G07G08G09G13G14G20G30            
  23243289.281 6 122144336.276 6  95177417.68747  23243298.33247
  21613733.852 6 113580931.160 6  88504655.52749  21613742.05949
  23909482.492 3 125645021.442 3  97905381.69747  23909495.70347
  22850983.508 5 120082718.176 5  93570976.03848  22850995.76248
  23870494.500 3 125440436.515 3  97745724.66546  23870503.19946
  20333022.695 6 106850752.310 6  83260354.54148  20333031.62548
  22371728.656 5 117564226.233 5  91608521.70047  22371738.37947
  21013467.875 6 110426471.488 6  86046640.72648  21013478.86348
 22  7  3 16  3  0.0000000  0  8G05G07G08G09G13G14G20G30            
  23243274.430 6 122144256.767 6  95177355.72847  23243283.36347
  21616510.180 6 113595521.271 6  88516024.43449  21616519.10249
  23911521.297 3 125655736.193 3  97913730.85047  23911533.70747
  22854598.195 5 120101710.986 5  93585775.61548  22854609.48048
  23868668.063 4 125430837.605 4  97738244.97146  23868676.27746
  20333275.844 6 106852080.906 6  83261389.81548  20333284.94148
  22373899.156 5 117575629.814 5  91617407.62247  22373908.26647
  21014855.250 7 110433762.325 7  86052321.89048  21014866.65248
 22  7  3 16  3  5.0000000  0  8G05G07G08G09G13G14G20G30            
  23243262.234 6 122144192.301 6  95177305.47447  23243270.78947
  21619286.938 6 113610114.645 6  88527395.88949  21619295.91049
  23913563.461 2 125666465.356 2  97922091.21947  23913575.71947
  22858213.352 5 120120712.862 5  93600582.25248  22858225.24648
  23866841.758 5 125421238.901 5  97730765.49346  23866850.32846
  20333531.328 6 106853424.592 6  83262436.84248  20333539.91048
  22376072.109 5 117587046.157 5  91626303.46947  22376080.81647
  21016243.375 7 110441057.961 7  86058006.78648  21016254.46148
 22  7  3 16  3 10.0000000  0  8G05G07G08G09G13G14G20G30            
  23243252.414 5 122144143.032 5  95177267.08147  23243261.43847
  21622064.922 6 113624711.520 6  88538770.07049  21622073.79749
  23915608.078 2 125677208.985 2  97930462.86847  23915620.31347
  22861831.609 5 120139723.889 5  93615396.02748  22861843.17248
  23865014.563 4 125411640.604 4  97723286.33646  23865023.48846
  20333789.602 6 106854783.594 6  83263495.81148  20333798.79748
  22378246.141 5 117598475.349 5  91635209.32447  22378255.24247
  21017633.023 7 110448358.537 7  86063695.55048  21017643.78948
 22  7  3 16  3 15.0000000  0  8G05G07G08G09G13G14G20G30            
  23243246.016 5 122144108.653 5  95177240.31347  23243255.01647
  21624842.688 6 113639311.504 6  88550146.68149  21624851.89849
  23917656.016 1 125687966.901 1  97938845.66447  23917667.66847
  22865451.250 5 120158743.706 5  93630216.64748  22865462.44148
  23863188.461 4 125402042.381 4  97715807.17146  23863197.35546
  20334051.461 6 106856157.512 6  83264566.39548  20334060.05548
  22380423.828 5 117609917.126 5  91644125.01047  22380432.31347
  21019022.813 6 110455663.769 6  86069387.93448  21019033.59048
 22  7  3 16  3 20.0000000  0  8G05G07G08G09G13G14G20G30            
  23243242.430 5 122144089.337 5  95177225.25147  23243251.29747
  21627621.891 6 113653914.823 6  88561525.88249  21627631.07049
  23919707.500 1 125698739.176 1  97947239.62147  23919717.64847
  22869071.727 5 120177772.565 5  93645044.31748  22869083.69148
  23861362.320 4 125392444.355 4  97708328.21946  23861370.77046
  20334315.406 6 106857546.482 6  83265648.70648  20334324.27748
  22382603.984 5 117621371.608 5  91653050.58247  22382612.09047
  21020413.961 7 110462973.754 7  86075084.02848  21020424.86748
 22  7  3 16  3 25.0000000  0  8G05G07G08G09G13G14G20G30            
  23243241.148 5 122144085.168 5  95177222.00747  23243250.36347
  21630401.406 6 113668521.551 6  88572907.74649  21630410.72349
  23921759.055 2 125709526.092 2  97955644.99147  23921770.37947
  22872694.391 5 120196810.577 5  93659879.10348  22872706.34448
  23859534.813 5 125382846.817 5  97700849.63246  23859544.41446
  20334582.766 6 106858950.792 6  83266742.96848  20334591.31648
  22384785.820 5 117632838.996 5  91661986.20747  22384794.53147
  21021806.016 6 110470288.731 6  86080784.00548  21021816.78548
 22  7  3 16  3 30.0000000  0  8G05G07G08G09G13G14G20G30            
  23243243.703 5 122144095.882 5  95177230.35547  23243252.74647
  21633181.523 6 113683131.448 6  88584292.07549  21633190.43849
  23923814.391 3 125720327.228 3  97964061.45547  23923825.94547
  22876318.977 5 120215857.370 5  93674720.74848  22876330.97348
  23857709.602 4 125373249.250 4  97693371.01446  23857717.62946
  20334853.070 6 106860369.973 6  83267848.83148  20334861.42648
  22386970.375 5 117644318.850 5  91670931.54547  22386978.86747
  21023198.766 6 110477608.292 6  86086487.55848  21023209.82448
 22  7  3 16  3 35.0000000  0  8G05G07G08G09G13G14G20G30            
  23243248.305 5 122144121.670 5  95177250.44847  23243257.72347
  21635962.008 6 113697744.700 6  88595679.02549  21635971.40649
  23925871.477 3 125731142.919 3  97972489.24947  23925884.39147
  22879945.672 5 120234913.283 5  93689569.49348  22879957.42648
  23855882.789 4 125363652.074 4  97685892.69546  23855891.48846
  20335125.750 6 106861804.384 6  83268966.55548  20335134.36748
  22389156.781 5 117655811.476 5  91679886.82646  22389165.73046
  21024592.891 6 110484932.798 6  86092194.95548  21024603.75448
 22  7  3 16  3 40.0000000  0  8G05G07G08G09G13G14G20G30            
  23243256.586 5 122144162.645 5  95177282.37947  23243265.43847
  21638743.836 6 113712361.418 6  88607068.67549  21638752.48849
  23927932.773 3 125741973.146 3  97980928.39747  23927944.84447
  22883573.219 5 120253978.350 5  93704425.37748  22883585.18448
  23854056.664 4 125354055.329 4  97678414.73746  23854065.55546
  20335401.961 6 106863254.060 6  83270096.16948  20335410.57048
  22391346.602 5 117667316.976 5  91688852.16746  22391355.30546
  21025987.836 6 110492262.200 6  86097906.16748  21025998.05148
 22  7  3 16  3 45.0000000  0  8G05G07G08G09G13G14G20G30            
  23243266.672 5 122144218.981 5  95177326.27347  23243276.23047
  21641525.328 6 113726981.702 6  88618461.10449  21641535.02049
  23929997.078 4 125752818.043 4  97989378.95447  23930008.41847
  22887203.641 5 120273052.686 5  93719288.48948  22887215.25848
  23852229.695 4 125344459.103 4  97670937.15246  23852239.37946
  20335679.742 6 106864719.129 6  83271237.78048  20335689.52748
  22393538.234 5 117678835.471 5  91697827.59346  22393547.18046
  21027383.516 6 110499596.720 6  86103621.38048  21027394.20748
 22  7  3 16  3 50.0000000  0  8G05G07G08G09G13G14G20G30            
  23243280.742 5 122144290.308 5  95177381.85447  23243289.79347
  21644308.398 6 113741605.196 6  88629856.03749  21644318.03149
  23932063.484 4 125763677.194 4  97997840.61947  23932075.28547
  22890834.375 5 120292135.942 5  93734158.54348  22890846.51648
  23850403.820 4 125334863.148 4  97663459.78646  23850413.57046
  20335962.125 6 106866199.248 6  83272391.12548  20335970.85548
  22395732.000 5 117690366.596 5  91706812.90047  22395741.53147
  21028780.109 6 110506935.979 6  86109340.26648  21028790.87948
 22  7  3 16  3 55.0000000  0  8G05G07G08G09G13G14G20G30            
  23243296.844 5 122144376.523 5  95177449.04447  23243306.12947
  21647092.008 6 113756231.893 6  88641253.46249  21647100.84849
  23934131.789 4 125774550.615 4  98006313.41347  23934144.22347
  22894467.203 5 120311227.967 5  93749035.43248  22894479.16448
  23848578.125 4 125325267.287 4  97655982.52946  23848587.31346
  20336246.703 6 106867694.306 6  83273556.10148  20336255.46548
  22397928.805 5 117701910.188 5  91715807.90146  22397938.19146
  21030177.391 6 110514279.835 6  86115062.75048  21030188.33648
 22  7  3 16  4  0.0000000  0  8G05G07G08G09G13G14G20G30            
  23243315.836 5 122144477.682 5  95177527.87847  23243325.31647
  21649875.766 6 113770861.723 6  88652653.32449  21649885.08649
  23936203.344 4 125785438.324 4  98014797.32447  23936216.66047
  22898103.031 5 120330328.859 5  93763919.22948  22898114.68448
  23846752.328 5 125315671.608 5  97648505.38846  23846761.35546
  20336534.125 6 106869204.333 6  83274732.74448  20336542.80148
  22400127.953 5 117713466.290 5  91724812.65546  22400137.26646
  21031576.000 6 110521628.355 6  86120788.86348  21031587.07848
 22  7  3 16  4  5.0000000  0  8G05G07G08G09G13G14G20G30            
  23243337.609 5 122144593.969 5  95177618.48747  23243347.29747
  21652660.336 6 113785494.913 6  88664055.80549  21652669.44949
  23938279.078 4 125796340.438 4  98023292.48147  23938291.37947
  22901739.172 5 120349438.826 5  93778810.09648  22901750.83648
  23844926.305 5 125306076.340 5  97641028.53946  23844935.42246
  20336824.164 6 106870729.588 6  83275921.25648  20336833.55548
  22402329.750 5 117725035.116 5  91733827.32347  22402338.80147
  21032975.023 7 110528981.814 7  86126518.82848  21032985.93448
 22  7  3 16  4 10.0000000  0  8G05G07G08G09G13G14G20G30            
  23243362.938 5 122144724.947 5  95177720.56147  23243372.21547
  21655446.039 6 113800131.085 6  88675460.60849  21655454.78149
  23940356.117 4 125807256.541 4  98031798.52447  23940368.48847
  22905377.344 5 120368557.336 5  93793707.63348  22905389.59048
  23843101.180 5 125296480.944 5  97633551.65846  23843109.64846
  20337117.906 6 106872269.550 6  83277121.22748  20337126.66048
  22404533.813 5 117736616.242 5  91742851.56747  22404542.25847
  21034375.109 6 110536339.617 6  86132252.18348  21034386.27748
 22  7  3 16  4 15.0000000  0  8G05G07G08G09G13G14G20G30            
  23243391.164 5 122144870.861 5  95177834.26347  23243399.87947
  21658231.828 6 113814770.348 6  88686867.81849  21658240.41049
  23942435.977 4 125818186.990 4  98040315.75547  23942448.76647
  22909016.602 5 120387684.664 5  93808612.03648  22909029.04748
  23841274.945 5 125286885.757 5  97626074.89346  23841284.03946
  20337413.367 6 106873824.466 6  83278332.84348  20337422.53548
  22406740.898 5 117748209.744 5  91751885.48047  22406748.23047
  21035776.305 6 110543702.041 6  86137989.12248  21035787.15648
 22  7  3 16  4 20.0000000  0  8G05G07G08G09G13G14G20G30            
  23243421.445 5 122145032.226 5  95177959.99147  23243430.73047
  21661018.563 6 113829413.215 6  88698277.84349  21661026.65249
  23944517.844 4 125829132.271 4  98048844.54447  23944531.29747
  22912658.703 5 120406821.289 5  93823523.67948  22912670.93448
  23839449.023 5 125277291.255 5  97618598.68246  23839458.50046
  20337711.836 6 106875394.856 6  83279556.52248  20337721.13348
  22408948.875 5 117759816.252 5  91760929.51447  22408957.39547
  21037178.063 6 110551069.627 6  86143730.09248  21037189.13348
 22  7  3 16  4 25.0000000  0  8G05G07G08G09G13G14G20G30            
  23243455.180 5 122145208.207 5  95178097.14147  23243464.23447
  21663805.320 6 113844058.871 6  88709690.03849  21663814.14549
  23946604.156 3 125840091.304 3  98057384.03547  23946616.97347
  22916301.180 5 120425966.372 5  93838441.91848  22916314.07448
  23837623.219 4 125267696.639 4  97611122.36046  23837632.54346
  20338013.391 6 106876979.850 6  83280791.57748  20338022.89148
  22411160.281 5 117771434.874 5  91769982.99446  22411168.03546
  21038580.914 6 110558441.497 6  86149474.40648  21038591.64148
 22  7  3 16  4 30.0000000  0  8G05G07G08G09G13G14G20G30            
  23243491.930 5 122145399.101 5  95178245.88047  23243500.73447
  21666592.898 6 113858707.669 6  88721104.67649  21666601.27749
  23948692.102 4 125851064.688 4  98065934.72047  23948704.80147
  22919946.492 5 120445120.273 5  93853367.02248  22919958.90248
  23835797.758 5 125258102.223 5  97603646.21346  23835807.22346
  20338318.203 6 106878579.805 6  83282038.29348  20338327.42648
  22413372.063 5 117783065.808 5  91779046.05446  22413381.03546
  21039984.578 6 110565818.001 6  86155222.32048  21039995.48048
 22  7  3 16  4 35.0000000  0  8G05G07G08G09G13G14G20G30            
  23243531.250 4 122145605.388 4  95178406.64847  23243539.80947
  21669380.922 6 113873360.008 6  88732522.07949  21669389.53149
  23950784.320 3 125862052.513 3  98074496.66447  23950795.52047
  22923593.766 5 120464283.374 5  93868299.29348  22923605.64548
  23833971.164 5 125248508.425 5  97596170.53446  23833981.61746
  20338624.992 6 106880195.159 6  83283297.01248  20338634.84848
  22415588.602 5 117794709.649 5  91788119.18347  22415597.17247
  21041389.414 6 110573199.571 6  86160974.18948  21041400.18848
 22  7  3 16  4 40.0000000  0  8G05G07G08G09G13G14G20G30            
  23243573.094 5 122145826.667 5  95178579.06747  23243581.89547
  21672170.133 6 113888015.563 6  88743941.98349  21672178.31349
  23952876.523 3 125873054.787 3  98083069.86147  23952888.74247
  22927242.125 5 120483455.347 5  93883238.49148  22927254.02748
  23832146.367 5 125238914.914 5  97588695.09546  23832156.44146
  20338935.766 6 106881825.558 6  83284567.45048  20338944.64148
  22417806.438 5 117806366.066 5  91797202.11546  22417815.32046
  21042794.609 6 110580585.866 6  86166729.73248  21042805.52048
 22  7  3 16  4 45.0000000  0  9G05G07G08G09G13G14G17G20G30         
  23243617.383 5 122146062.841 5  95178763.09647  23243626.83247
  21674959.563 6 113902674.146 6  88755364.25149  21674967.93049
  23954973.000 3 125884071.119 3  98091654.01747  23954985.18847
  22930891.266 5 120502636.045 5  93898184.47648  22930904.24648
  23830320.547 5 125229321.586 5  97581219.78246  23830330.79746
  20339248.625 6 106883470.855 6  83285849.49648  20339258.00848
  24218128.453 4 127267278.48714  99169230.78456  24218140.54346
  22420026.695 5 117818034.846 5  91806294.67247  22420035.77747
  21044201.320 6 110587976.705 6  86172488.82948  21044212.35548
 22  7  3 16  4 50.0000000  0  9G05G07G08G09G13G14G17G20G30         
  23243665.180 5 122146313.750 5  95178958.62147  23243674.77047
  21677749.938 6 113917335.647 6  88766788.79949  21677757.89149
  23957071.773 4 125895101.469 4  98100249.09847  23957084.39547
  22934542.844 5 120521825.247 5  93913137.09048  22934555.60248
  23828494.820 5 125219728.270 5  97573744.48446  23828505.06346
  20339564.695 6 106885130.862 6  83287143.01048  20339573.63748
  24216029.133 5 127256244.238 5  99160632.65346  24216041.01646
  22422250.133 5 117829715.809 5  91815396.70547  22422258.41847
  21045608.805 6 110595371.963 6  86178251.36048  21045620.02048
 22  7  3 16  4 55.0000000  0  9G05G07G08G09G13G14G17G20G30         
  23243716.609 5 122146579.497 5  95179165.68447  23243725.32047
  21680540.406 6 113932000.165 6  88778215.69149  21680548.38749
  23959173.305 4 125906146.041 4  98108855.25447  23959186.12947
  22938196.148 5 120541023.168 5  93928096.49948  22938208.36748
  23826669.445 5 125210135.113 5  97566269.32846  23826679.84046
  20339883.711 6 106886805.748 6  83288448.10848  20339892.47748
  24213928.813 5 127245208.104 5  99152033.07946  24213940.77746
  22424474.063 5 117841409.080 5  91824508.35446  22424483.80546
  21047016.953 6 110602771.721 6  86184017.40848  21047027.44148
 22  7  3 16  5  0.0000000  0  9G05G07G08G09G13G14G17G20G30         
  23243770.117 5 122146860.644 5  95179384.77147  23243778.94547
  21683331.445 6 113946668.165 6  88789645.31349  21683339.67249
  23961277.500 4 125917205.247 4  98117472.82047  23961290.41047
  22941851.305 5 120560230.181 5  93943062.99548  22941863.88348
  23824844.242 5 125200542.577 5  97558794.63546  23824853.60946
  20340205.086 6 106888495.988 6  83289765.17248  20340213.85948
  24211829.078 5 127234170.540 5  99143432.39046  24211840.10946
  22426702.555 5 117853115.113 5  91833629.92946  22426711.59446
  21048425.750 7 110610176.492 7  86189787.35448  21048436.68848
 22  7  3 16  5  5.0000000  0  9G05G07G08G09G13G14G17G20G30         
  23243826.000 5 122147156.933 5  95179615.64147  23243835.12947
  21686123.930 6 113961339.510 6  88801077.52649  21686131.53949
  23963385.898 3 125928278.832 3  98126101.57847  23963397.53947
  22945508.352 5 120579446.213 5  93958036.50848  22945520.66448
  23823018.195 5 125190950.550 5  97551320.31546  23823028.67646
  20340529.844 6 106890201.361 6  83291094.03148  20340538.41448
  24209728.281 5 127223131.417 5  99134830.48346  24209739.46146
  22428932.203 5 117864833.711 5  91842761.31646  22428941.43846
  21049835.734 7 110617586.113 7  86195561.08348  21049846.77048
 22  7  3 16  5 10.0000000  0  9G05G07G08G09G13G14G17G20G30         
  23243885.500 5 122147468.245 5  95179858.22647  23243894.26647
  21688916.234 6 113976014.118 6  88812512.28149  21688924.09049
  23965495.531 3 125939366.841 3  98134741.57847  23965507.90247
  22949166.188 5 120598671.055 5  93973016.89248  22949178.92248
  23821193.188 5 125181358.860 5  97543846.31346  23821203.39546
  20340857.023 6 106891921.747 6  83292434.59548  20340865.34048
  24207627.320 5 127212090.607 5  99126227.26646  24207638.34846
  22431164.898 5 117876564.708 5  91851902.34746  22431173.58646
  21051246.523 6 110625000.386 6  86201338.43548  21051257.47748
 22  7  3 16  5 15.0000000  0  9G05G07G08G09G13G14G17G20G30         
  23243946.789 5 122147795.126 5  95180112.93847  23243956.68047
  21691709.297 6 113990692.376 6  88823949.88349  21691717.35549
  23967608.469 3 125950469.642 3  98143393.10947  23967620.46947
  22952825.445 5 120617905.175 5  93988004.50148  22952839.40648
  23819367.836 5 125171767.888 5  97536372.81946  23819377.63346
  20341187.031 6 106893657.659 6  83293787.25048  20341196.28948
  24205525.875 5 127201048.486 5  99117623.01446  24205536.65246
  22433400.016 5 117888308.660 5  91861053.47247  22433408.18847
  21052658.688 6 110632419.820 6  86207119.81548  21052669.82448
 22  7  3 16  5 20.0000000  0  9G05G07G08G09G13G14G17G20G30         
  23244012.438 5 122148137.101 5  95180379.41146  23244022.05146
  21694502.766 6 114005373.897 6  88835390.02349  21694511.20349
  23969724.469 3 125961586.616 3  98152055.69047  23969736.28147
  22956488.102 4 120637148.219 4  94002999.06248  22956500.80548
  23817543.055 5 125162177.356 5  97528899.68946  23817552.46146
  20341520.680 6 106895408.667 6  83295151.66248  20341529.53148
  24203424.516 5 127190004.824 5  99109017.59346  24203435.04346
  22435637.164 5 117900065.100 5  91870214.34746  22435645.37546
  21054071.078 6 110639844.038 6  86212904.91448  21054082.36748
 22  7  3 16  5 25.0000000  0  9G05G07G08G09G13G14G17G20G30         
  23244080.375 5 122148493.673 5  95180657.27347  23244089.14147
  21697297.258 6 114020058.134 6  88846832.28249  21697305.49249
  23971841.773 3 125972717.501 3  98160729.10747  23971854.33247
  22960151.258 5 120656399.590 5  94018000.11948  22960164.57448
  23815718.609 5 125152586.681 5  97521426.45146  23815727.71146
  20341856.813 6 106897174.233 6  83296527.43048  20341865.71948
  24201322.563 4 127178959.060 4  99100410.50546  24201333.07046
  22437877.094 5 117911833.467 5  91879384.48647  22437884.94547
  21055485.156 6 110647272.473 6  86218693.30048  21055496.02048
 22  7  3 16  5 30.0000000  0  9G05G07G08G09G13G14G17G20G30         
  23244150.820 5 122148864.817 5  95180946.46747  23244159.62547
  21700092.031 6 114034745.063 6  88858276.64049  21700100.41849
  23973963.203 2 125983862.188 2  98169413.28647  23973974.85947
  22963816.508 4 120675659.300 4  94033007.66848  22963829.33648
  23813893.281 5 125142995.965 5  97513953.16946  23813902.28946
  20342195.531 6 106898954.320 6  83297914.50748  20342204.24648
  24199219.445 4 127167911.088 4  99091801.72946  24199230.86346
  22440118.234 5 117923613.788 5  91888563.97947  22440126.62947
  21056899.703 6 110654705.103 6  86224484.96348  21056910.50048
 22  7  3 16  5 35.0000000  0  9G05G07G08G09G13G14G17G20G30         
  23244224.359 5 122149250.914 5  95181247.32447  23244233.46147
  21702887.484 6 114049435.035 6  88869723.36749  21702895.77049
  23976085.867 3 125995021.038 3  98178108.49647  23976098.36747
  22967483.656 4 120694927.658 4  94048021.97648  22967495.92248
  23812067.789 5 125133405.505 5  97506480.11446  23812077.28546
  20342536.859 6 106900749.405 6  83299313.27448  20342546.11748
  24197116.969 3 127156861.478 3  99083191.63446  24197128.46946
  22442362.266 5 117935406.416 5  91897753.01647  22442370.69147
  21058314.906 6 110662142.329 6  86230280.19548  21058325.78948
 22  7  3 16  5 40.0000000  0  9G05G07G08G09G13G14G17G20G30         
  23244300.445 5 122149651.636 5  95181559.58646  23244309.62946
  21705683.086 6 114064127.761 6  88881172.24049  21705691.84849
  23978211.336 3 126006193.660 3  98186814.43447  23978224.64547
  22971152.516 5 120714204.417 5  94063042.81148  22971164.46148
  23810242.891 5 125123815.019 5  97499007.01046  23810252.24646
  20342881.586 6 106902559.049 6  83300723.38948  20342889.89548
  24195013.750 4 127145809.824 4  99074579.98746  24195025.02046
  22444608.031 5 117947211.008 5  91906951.41347  22444616.92247
  21059730.727 6 110669583.832 6  86236078.75848  21059741.60948
 22  7  3 16  5 45.0000000  0  9G05G07G08G09G13G14G17G20G30         
  23244380.625 5 122150067.541 5  95181883.65147  23244388.78947
  21708479.352 6 114078823.775 6  88892623.66949  21708488.24249
  23980340.695 3 126017380.725 3  98195531.62247  23980352.99247
  22974821.492 5 120733490.151 5  94078070.64448  22974834.21548
  23808417.766 5 125114225.043 5  97491534.30546  23808427.07046
  20343228.961 6 106904383.884 6  83302145.33548  20343237.50848
  24192910.859 2 127134756.675 2  99065967.17346  24192921.87146
  22446857.461 5 117959028.128 5  91916159.55347  22446865.53547
  21061148.039 6 110677030.142 6  86241881.07548  21061158.90648
 22  7  3 16  5 50.0000000  0  9G05G07G08G09G13G14G17G20G30         
  23244462.219 5 122150498.560 5  95182219.51346  23244470.67246
  21711276.969 6 114093523.117 6  88904077.70549  21711285.57849
  23982472.172 3 126028582.085 3  98204259.96347  23982485.28547
  22978492.992 5 120752784.762 5  94093105.38548  22978506.12948
  23806593.070 5 125104635.557 5  97484062.00646  23806602.16846
  20343578.641 6 106906223.829 6  83303579.06048  20343588.32048
  24190807.086 2 127123702.164 2  99057353.28746  24190818.15246
  22449108.430 5 117970857.675 5  91925377.37347  22449117.04747
  21062565.625 6 110684481.240 6  86247687.11848  21062576.60248
 22  7  3 16  5 55.0000000  0  9G05G07G08G09G13G14G17G20G30         
  23244547.516 5 122150944.592 5  95182567.06347  23244555.71547
  21714074.484 6 114108225.504 6  88915534.11249  21714083.61349
  23984606.953 4 126039797.667 4  98212999.38747  23984618.89847
  22982165.602 5 120772088.043 5  94108146.88748  22982179.59048
  23804769.000 5 125095046.390 5  97476589.94946  23804777.63346
  20343931.344 6 106908078.690 6  83305024.40048  20343940.75448
  24188703.945 2 127112645.868 2  99048738.01546  24188714.00846
  22451362.391 5 117982699.473 5  91934604.75647  22451370.48847
  21063984.336 6 110691936.914 6  86253496.72948  21063995.66048
 22  7  3 16  6  0.0000000  0  9G05G07G08G09G13G14G17G20G30         
  23244634.781 5 122151405.606 5  95182926.31547  23244643.64147
  21716873.023 6 114122930.949 6  88926992.90349  21716881.53949
  23986743.383 3 126051027.432 3  98221749.86147  23986756.00047
  22985841.328 4 120791399.979 4  94123195.13448  22985854.51248
  23802943.695 5 125085457.524 5  97469118.10146  23802952.66446
  20344287.453 6 106909948.498 6  83306481.38748  20344296.77748
  24186599.578 2 127101587.921 2  99040121.43846  24186610.28946
  22453617.602 5 117994553.543 5  91943841.67447  22453626.61747
  21065403.742 6 110699397.156 6  86259309.90248  21065415.41048
 22  7  3 16  6  5.0000000  0  9G05G07G08G09G13G14G17G20G30         
  23244724.633 5 122151881.608 5  95183297.22047  23244734.12547
  21719671.766 6 114137639.515 6  88938454.12148  21719680.76648
  23988882.977 3 126062271.169 3  98230511.20947  23988895.81647
  22989518.539 4 120810720.631 4  94138250.17848  22989530.94548
  23801118.930 5 125075869.021 5  97461646.56546  23801128.04746
  20344646.047 6 106911833.251 6  83307950.02548  20344655.57448
  24184493.406 2 127090528.279 2  99031503.58146  24184505.44946
  22455875.578 5 118006419.897 5  91953088.19046  22455884.90246
  21066824.633 6 110706861.987 6  86265126.65248  21066835.83248
 22  7  3 16  6 10.0000000  0  9G05G07G08G09G13G14G17G20G30         
  23244818.180 5 122152372.847 5  95183680.02646  23244827.34046
  21722471.031 6 114152351.406 6  88949917.92649  21722480.11749
  23991025.773 3 126073529.372 3  98239283.85247  23991038.24647
  22993196.922 4 120830050.195 4  94153312.15848  22993209.02348
  23799294.469 5 125066281.049 5  97454175.43946  23799303.47746
  20345007.180 6 106913733.150 6  83309430.46648  20345017.01648
  24182388.672 1 127079467.295 1  99022884.60646  24182400.55946
  22458136.148 5 118018298.669 5  91962344.38847  22458145.29347
  21068246.469 6 110714331.668 6  86270947.17848  21068257.22348
 22  7  3 16  6 15.0000000  0  9G05G07G08G09G13G14G17G20G30         
  23244914.938 5 122152879.076 5  95184074.48647  23244923.50847
  21725271.516 6 114167066.373 6  88961384.12948  21725280.01648
  23993171.281 3 126084801.896 3  98248067.66747  23993183.41447
  22996876.203 4 120849388.473 4  94168380.94148  22996888.98848
  23797470.680 5 125056693.439 5  97446704.57546  23797479.31646
  20345371.992 6 106915648.026 6  83310922.57448  20345381.19148
  24180284.578 1 127068404.655 1  99014264.42646  24180295.23846
  22460399.516 5 118030189.758 5  91971610.16447  22460408.08247
  21069668.500 6 110721805.953 6  86276771.28948  21069679.57848
 22  7  3 16  6 20.0000000  0  9G05G07G08G09G13G14G17G20G30         
  23245013.789 5 122153400.209 5  95184480.55247  23245023.06647
  21728071.961 6 114181784.351 6  88972852.68049  21728081.11349
  23995319.414 3 126096088.489 3  98256862.40447  23995331.34047
  23000558.055 5 120868735.343 5  94183456.41248  23000570.66448
  23795646.477 5 125047106.109 5  97439233.94446  23795655.19546
  20345739.031 6 106917577.759 6  83312426.26148  20345748.39548
  24178176.820 1 127057340.297 1  99005642.83846  24178189.91046
  22462664.430 5 118042092.968 5  91980885.39447  22462673.14847
  21071091.500 6 110729284.717 6  86282598.89448  21071102.83648
 22  7  3 16  6 25.0000000  0  9G05G07G08G09G13G14G17G20G30         
  23245115.992 5 122153936.759 5  95184898.64647  23245125.39847
  21730873.094 6 114196505.792 6  88984323.93449  21730882.51249
  23997469.508 3 126107389.492 3  98265668.38247  23997481.48047
  23004241.375 4 120888091.247 4  94198538.90948  23004253.46548
  23793821.758 4 125037519.527 4  97431763.93746  23793830.80146
  20346109.195 6 106919522.809 6  83313941.88348  20346118.55148
  24176071.133 1 127046274.770 1  98997020.38345  24176083.74245
  22464931.781 5 118054008.741 5  91990170.41047  22464941.43447
  21072515.703 6 110736768.479 6  86288430.38848  21072526.88348
 22  7  3 16  6 30.0000000  0  9G05G07G08G09G13G14G17G20G30         
  23245221.344 5 122154488.351 5  95185328.47047  23245230.49247
  21733675.078 6 114211230.327 6  88995797.58849  21733684.47349
  23999621.719 3 126118704.919 3  98274485.60547  23999634.51247
  23007926.539 4 120907455.869 4  94213628.22648  23007938.61748
  23791996.945 4 125027933.411 4  97424294.22746  23792006.51246
  20346482.344 6 106921482.857 6  83315469.18748  20346491.50848
  24173966.273 1 127035207.720 1  98988396.70546  24173978.00446
  22467201.844 5 118065936.783 5  91999464.99147  22467210.84447
  21073940.641 6 110744256.861 6  86294265.48748  21073951.54748
 22  7  3 16  6 35.0000000  0  9G05G07G08G09G13G14G17G20G30         
  23245328.156 5 122155054.890 5  95185769.92747  23245338.16847
  21736477.594 6 114225957.878 6  89007273.58948  21736487.10248
  24001778.617 2 126130034.428 2  98283313.80047  24001790.07447
  23011613.102 5 120926829.026 5  94228724.19048  23011625.56648
  23790173.766 5 125018347.563 5  97416824.73646  23790182.59446
  20346858.125 6 106923457.732 6  83317008.05548  20346867.16448
  24171859.156 1 127024138.977 1  98979771.78645  24171871.94945
  22469473.719 5 118077876.871 5  92008768.95747  22469482.87147
  21075366.234 6 110751749.722 6  86300104.07548  21075377.59848
 22  7  3 16  6 40.0000000  0  9G05G07G08G09G13G14G17G20G30         
  23245439.305 5 122155635.945 5  95186222.73547  23245449.44547
  21739281.094 6 114240687.987 6  89018751.58948  21739290.28948
  24003935.352 2                                  24003948.60547
  23015301.438 4 120946210.400 4  94243826.52648  23015313.52048
  23788349.508 4 125008761.574 4  97409355.17246  23788357.94146
  20347236.602 6 106925447.076 6  83318558.20248  20347245.89548
  24169754.227 1 127013068.219 1  98971145.22045  24169765.60945
  22471747.531 5 118089828.664 5  92018082.05547  22471756.54347
  21076793.266 6 110759246.694 6  86305945.87348  21076803.88348
 22  7  3 16  6 45.0000000  0  9G05G07G08G09G13G14G17G20G30         
  23245553.242 4 122156232.402 4  95186687.48447  23245562.12947
  21742084.531 6 114255421.563 6  89030232.29548  21742093.91448
  24006097.430 1 126152735.13611  98301002.65257  24006109.62947
  23018991.281 4 120965600.786 4  94258935.93548  23019003.44548
  23786524.742 4 124999176.353 4  97401886.16946  23786534.22346
  20347617.984 6 106927451.688 6  83320120.23548  20347626.97748
  24167646.594 1 127001996.285 1  98962517.73845  24167658.21545
  22474024.641 5 118101792.979 5  92027404.89247  22474034.07047
  21078220.820 6 110766748.569 6  86311791.47948  21078231.83248
 22  7  3 16  6 50.0000000  0  7G05G07G09G13G14G20G30               
  23245670.039 4 122156843.975 4  95187164.05046  23245679.17646
  21744888.758 6 114270158.309 6  89041715.46448  21744897.66048
  23022683.484 5 120984999.889 5  94274052.09148  23022694.73048
  23784701.422 4 124989591.652 4  97394417.60646  23784710.18846
  20348002.469 6 106929471.362 6  83321694.00948  20348011.36348
  22476303.297 5 118113769.538 5  92036737.28047  22476313.36347
  21079648.766 6 110774255.162 6  86317640.76548  21079660.43848
 22  7  3 16  6 55.0000000  0  7G05G07G09G13G14G20G30               
  23245788.125 5 122157470.285 5  95187652.07746  23245798.30146
  21747694.328 6 114284897.955 6  89053200.90648  21747702.77748
  23026376.930 4 121004407.438 4  94289174.86048  23026387.69948
  23782877.078 5 124980007.160 5  97386949.16746  23782886.05146
  20348389.453 6 106931505.769 6  83323279.26448  20348398.58648
  22478584.461 5 118125758.018 5  92046078.96946  22478593.99246
  21081078.508 6 110781766.155 6  86323493.48448  21081089.37548
 22  7  3 16  7  0.0000000  0  7G05G07G09G13G14G20G30               
  23245910.859 4 122158112.003 4  95188152.12746  23245920.26646
  21750499.250 6 114299640.988 6  89064688.98348  21750508.13348
  23030071.727 5 121023823.957 5  94304304.61048  23030082.93848
  23781053.398 5 124970423.376 5  97379481.29446  23781062.33246
  20348779.852 6 106933555.424 6  83324876.39548  20348788.59848
  22480868.484 5 118137758.974 5  92055430.34647  22480878.16447
  21082508.555 6 110789282.016 6  86329349.99848  21082519.48448
 22  7  3 16  7  5.0000000  0  9G05G07G08G09G13G14G17G20G30         
  23246035.289 5 122158768.855 5  95188663.95546  23246045.11346
  21753305.563 6 114314387.248 6  89076179.57348  21753314.49248
  24014769.617 2 126198309.50912  98336511.55857  24014782.10947
  23033767.992 5 121043249.282 5  94319441.21448  23033779.11748
  23779230.313 5 124960840.196 5  97372013.89746  23779238.25846
  20349172.594 6 106935620.199 6  83326485.30748  20349181.66848
  24159215.258 1 126957693.91211  98927996.52655  24159227.96145
  22483154.484 5 118149772.268 5  92064791.36847  22483163.88747
  21083939.672 6 110796802.629 6  86335210.22148  21083950.61348
 22  7  3 16  7 10.0000000  0  9G05G07G08G09G13G14G17G20G30         
  23246163.477 4 122159440.610 4  95189187.41446  23246173.02046
  21756112.336 6 114329136.444 6  89087672.45048  21756121.07048
  24016944.844 2 126209738.060 2  98345416.94847  24016956.51647
  23037465.313 5 121062683.117 5  94334584.43748  23037477.50848
  23777406.797 5 124951257.433 5  97364546.82846  23777415.02046
  20349568.156 6 106937699.783 6  83328105.77248  20349576.79348
  24157107.227 1 126946614.752 1  98919363.44445  24157119.65245
  22485442.797 5 118161797.529 5  92074161.71647  22485452.27047
  21085371.727 6 110804327.690 6  86341073.90948  21085382.87948
 22  7  3 16  7 15.0000000  0  9G05G07G08G09G13G14G17G20G30         
  23246293.898 4 122160127.194 4  95189722.42446  23246303.37546
  21758919.789 6 114343888.478 6  89099167.54648  21758928.50048
  24019121.781 3 126221180.585 3  98354333.17147  24019134.42647
  23041164.813 5 121082125.327 5  94349734.19248  23041177.28148
  23775582.156 4 124941674.826 4  97357079.87546  23775591.01246
  20349967.047 6 106939794.055 6  83329737.67648  20349975.68448
  24154997.984 1 126935533.859 1  98910729.01945  24155011.43045
  22487733.094 5 118173834.695 5  92083541.32847  22487743.05547
  21086804.344 6 110811857.081 6  86346940.95848  21086815.20748
 22  7  3 16  7 20.0000000  0  9G05G07G08G09G13G14G17G20G30         
  23246427.336 5 122160828.883 5  95190269.18546  23246437.28146
  21761726.969 6 114358643.579 6  89110665.03348  21761736.31348
  24021303.031 3 126232637.203 3  98363260.42447  24021314.74247
  23044866.352 5 121101576.142 5  94364890.65948  23044878.20348
  23773759.141 4 124932092.655 4  97349613.25446  23773767.74646
  20350367.836 6 106941903.278 6  83331381.21748  20350376.98848
  24152889.313 1 126924451.576 1  98902093.51245  24152902.40245
  22490026.719 5 118185883.965 5  92092930.36746  22490035.87946
  21088238.102 6 110819391.067 6  86352811.59748  21088248.87948
 22  7  3 16  7 25.0000000  0  9G05G07G08G09G13G14G17G20G30         
  23246563.344 5 122161546.063 5  95190828.04646  23246573.64546
  21764535.930 6 114373402.275 6  89122165.31548  21764544.56648
  24023484.781 3 126244108.372 3  98372199.00847  24023497.80147
  23048569.438 5 121121036.125 5  94380054.26448  23048581.40648
  23771935.805 4 124922511.456 4  97342147.39246  23771944.66446
  20350772.594 6 106944027.947 6  83333036.81348  20350781.30148
  24150779.219 1 126913368.359 1  98893457.22345  24150793.55145
  22492322.031 5 118197945.874 5  92102329.24147  22492331.08647
  21089672.594 6 110826930.128 6  86358686.17848  21089683.49248
 22  7  3 16  7 30.0000000  0  9G05G07G08G09G13G14G17G20G30         
  23246702.773 5 122162278.205 5  95191398.53246  23246712.63346
  21767344.711 6 114388163.920 6  89133667.89448  21767353.57848
  24025670.930 3 126255593.722 3  98381148.63347  24025683.18047
  23052274.672 5 121140504.613 5  94395224.49348  23052285.97348
  23770112.570 4 124912930.631 4  97334681.81746  23770121.32446
  20351179.672 6 106946167.436 6  83334703.94948  20351188.21548
  24148670.242 1 126902283.680 1  98884819.84145  24148683.96145
  22494619.391 5 118210019.811 5  92111737.52047  22494628.86747
  21091108.727 6 110834473.667 6  86364564.27448  21091118.78148
 22  7  3 16  7 35.0000000  0  9G05G07G08G09G13G14G17G20G30         
  23246845.672 4 122163025.365 4  95191980.75246  23246855.12146
  21770154.359 6 114402928.607 6  89145172.84248  21770163.58248
  24027858.836 3 126267093.058 3  98390109.14247  24027871.52347
  23055981.188 5 121159981.606 5  94410401.35948  23055992.23848
  23768289.961 4 124903350.248 4  97327216.60646  23768298.34446
  20351589.352 6 106948321.825 6  83336382.69548  20351598.10248
  24146559.883 1 126891197.415 1  98876181.21545  24146573.82045
  22496919.313 5 118222105.777 5  92121155.15746  22496928.77046
  21092544.313 6 110842021.721 6  86370445.86648  21092555.15648
 22  7  3 16  7 40.0000000  0  9G05G07G08G09G13G14G17G20G30         
  23246990.969 5 122163787.472 5  95192574.60346  23247000.22346
  21772964.375 6 114417696.294 6  89156680.12648  21772973.53548
  24030049.773 3 126278606.480 3  98399080.64447  24030062.55947
  23059688.250 5 121179467.167 5  94425584.88448  23059700.31348
  23766466.758 4 124893770.338 4  97319751.78846  23766475.45746
  20352002.406 6 106950491.064 6  83338073.01948  20352010.75448
  24144451.172 1 126880109.689 1  98867541.47645  24144464.26245
  22499222.078 5 118234203.762 5  92130582.15746  22499230.74246
  21093981.984 6 110849574.282 6  86376330.97548  21093992.26648
 22  7  3 16  7 45.0000000  0  9G05G07G08G09G13G14G17G20G30         
  23247137.883 4 122164564.854 4  95193180.36146  23247147.94946
  21775775.266 6 114432467.201 6  89168189.92448  21775784.39848
  24032244.422 3 126290134.264 3  98408063.32647  24032256.07047
  23063398.469 5 121198961.468 5  94440775.24248  23063409.83648
  23764644.250 5 124884191.014 5  97312287.38046  23764652.68446
  20352417.719 6 106952675.383 6  83339775.08448  20352426.58648
  24142339.844 1 126869020.813 1  98858900.79645  24142354.07845
  22501526.375 5 118246313.985 5  92140018.69547  22501534.91447
  21095420.148 6 110857131.545 6  86382219.74248  21095430.79748
 22  7  3 16  7 50.0000000  0  9G05G07G08G09G13G14G17G20G30         
  23247289.242 4 122165357.229 4  95193797.81146  23247299.02346
  21778586.945 6 114447241.163 6  89179702.09848  21778595.69548
  24034439.289 3 126301676.035 3  98417056.91547  24034452.58247
  23067110.148 4 121218464.348 4  94455972.28748  23067121.54748
  23762821.477 5 124874612.195 5  97304823.36146  23762829.90246
  20352836.672 6 106954874.653 6  83341488.80248  20352845.37548
  24140231.984 1 126857930.534 1  98850258.99845  24140243.84845
  22503832.781 5 118258436.212 5  92149464.58047  22503842.10547
  21096858.172 6 110864693.390 6  86388112.09248  21096869.43048
 22  7  3 16  7 55.0000000  0  9G05G07G08G09G13G14G17G20G30         
  23247443.211 4 122166164.452 4  95194426.82446  23247452.32046
  21781398.828 6 114462018.091 6  89191216.58148  21781407.19948
  24036639.109 3 126313231.747 3  98426061.38047  24036651.54347
  23070823.266 4 121237975.665 4  94471175.87948  23070834.70348
  23760997.570 4 124865033.769 4  97297359.64646  23761007.50046
  20353257.836 6 106957088.685 6  83343214.03148  20353266.66848
  24138120.797 1 126846838.805 1  98841616.16145  24138132.85945
  22506141.758 5 118270570.313 5  92158919.71847  22506151.36747
  21098299.398 6 110872259.653 6  86394007.87748  21098309.62148
 22  7  3 16  8  0.0000000  0  9G05G07G08G09G13G14G17G20G30         
  23247599.328 4 122166987.199 4  95195067.92447  23247608.53147
  21784211.727 6 114476798.375 6  89202733.68648  21784220.39148
  24038841.469 3 126324801.991 3  98435077.15347  24038853.44947
  23074537.578 4 121257495.938 4  94486386.46948  23074549.06648
  23759175.883 4 124855456.190 4  97289896.63046  23759185.10946
  20353682.672 6 106959318.020 6  83344951.17448  20353690.83648
  24136008.203 1 126835745.983 1  98832972.43645  24136022.26245
  22508453.680 5 118282716.847 5  92168384.54747  22508462.64847
  21099740.125 6 110879830.841 6  86399907.49248  21099750.09048
 22  7  3 16  8  5.0000000  0  9G05G07G08G09G13G14G17G20G30         
  23247759.609 4 122167824.830 4  95195720.63947  23247767.53547
  21787024.711 6 114491581.679 6  89214253.12448  21787032.99648
  24041045.500 3 126336386.155 3  98444103.78147  24041058.00047
  23078253.750 4 121277024.661 4  94501603.64148  23078265.54348
  23757352.922 4 124845879.008 4  97282433.92746  23757362.60246
  20354109.023 6 106961562.174 6  83346699.86548  20354118.10948
  24133897.211 1 126824651.852 1  98824327.65445  24133910.84845
  22510766.875 5 118294875.287 5  92177858.65947  22510776.03947
  21101181.859 6 110887406.477 6  86405810.59348  21101191.93048
 22  7  3 16  8 10.0000000  0  9G05G07G08G09G13G14G17G20G30         
  23247921.891 4 122168678.047 4  95196385.48347  23247930.28147
  21789838.484 6 114506368.439 6  89225775.27248  21789846.74248
  24043252.727 3 126347985.021 3  98453141.86947  24043265.08647
  23081971.680 5 121296562.428 5  94516827.86648  23081983.42248
  23755530.930 5 124836302.786 5  97274971.92946  23755539.69546
  20354539.039 6 106963821.691 6  83348460.53048  20354547.89848
  24131787.719 1 126813556.786 1  98815682.18545  24131799.02045
  22513083.531 5 118307046.198 5  92187342.49247  22513092.31347
  21102623.531 6 110894987.118 6  86411717.58348  21102634.42648
 22  7  3 16  8 15.0000000  0  9G05G07G08G09G13G14G17G20G30         
  23248085.422 4 122169546.598 4  95197062.27146  23248095.39546
  21792653.031 6 114521158.621 6  89237300.07648  21792661.28148
  24045462.242 4 126359598.229 4  98462191.10447  24045475.10547
  23085691.680 5 121316109.020 5  94532058.96048  23085703.22748
  23753708.609 5 124826727.488 5  97267510.65246  23753717.97346
  20354971.711 6 106966096.452 6  83350233.06948  20354980.73848
  24129674.609 1 126802460.792 1  98807035.93845  24129687.19945
  22515401.430 5 118319229.412 5  92196835.91147  22515410.77747
  21104066.789 6 110902572.642 6  86417628.38248  21104077.87948
 22  7  3 16  8 20.0000000  0  9G05G07G08G09G13G14G17G20G30         
  23248254.289 3 122170430.081 3  95197750.68446  23248263.58246
  21795468.219 6 114535951.693 6  89248827.13548  21795476.69148
  24047674.625 4 126371225.518 4  98471251.33147  24047687.16447
  23089411.719 5 121335664.071 5  94547296.65048  23089424.40648
  23751887.219 5 124817152.563 5  97260049.68646  23751895.96946
  20355407.555 6 106968385.987 6  83352017.12948  20355416.42248
  24127560.633 1 126791363.403 1  98798388.68745  24127575.16845
  22517722.688 5 118331424.478 5  92206338.54947  22517731.20747
  21105511.477 6 110910162.590 6  86423542.62148  21105522.30948
 22  7  3 16  8 25.0000000  0  9G05G07G08G09G13G14G17G20G30         
  23248425.828 4 122171328.410 4  95198450.68746  23248434.59846
  21798283.594 6 114550747.599 6  89260356.40948  21798292.33248
  24049890.555 4 126382866.710 4  98480322.38147  24049902.15647
  23093135.219 5 121355227.482 5  94562540.85448  23093147.57448
  23750065.422 5 124807578.066 5  97252589.04346  23750073.76646
  20355845.727 6 106970690.289 6  83353812.69048  20355854.82848
  24125448.703 1 126780264.46911  98789740.17555  24125463.31645
  22520045.406 5 118343631.313 5  92215850.36346  22520054.04346
  21106956.414 6 110917756.882 6  86429460.25248  21106967.60248
 22  7  3 16  8 30.0000000  0  9G05G07G08G09G13G14G17G20G30         
  23248599.133 3 122172241.858 3  95199162.47546  23248608.28946
  21801100.688 6 114565546.585 6  89271888.08048  21801108.47348
  24052108.406 4 126394522.073 4  98489404.47747  24052120.53947
  23096859.695 5 121374799.433 5  94577791.70648  23096871.98848
  23748243.609 5 124798004.144 5  97245128.85946  23748251.94946
  20356287.492 6 106973009.523 6  83355619.89248  20356296.20348
  24123337.055 1 126769164.402 1  98781090.80845  24123350.87945
  22522370.578 5 118355850.202 5  92225371.59647  22522378.79347
  21108402.508 6 110925355.779 6  86435381.48048  21108413.25048
 22  7  3 16  8 35.0000000  0  9G05G07G08G09G13G14G17G20G30         
  23248775.945 4 122173170.836 4  95199886.34546  23248785.24646
  21803916.641 6 114580348.998 6  89283422.41048  21803925.35548
  24054328.961 4 126406191.831 4  98498497.78847  24054341.44147
  23100586.188 5 121394380.339 5  94593049.56248  23100597.83648
  23746421.211 5 124788431.189 5  97237669.43546  23746430.24246
  20356731.711 6 106975344.052 6  83357439.01348  20356740.61748
  24121227.172 1 126758063.480 1  98772440.77445  24121238.61345
  22524697.797 5 118368081.379 5  92234902.36947  22524706.10247
  21109849.125 6 110932959.615 6  86441306.54548  21109860.68448
 22  7  3 16  8 40.0000000  0  9G05G07G08G09G13G14G17G20G30         
  23248955.375 4 122174114.530 4  95200621.70746  23248964.94146
  21806734.797 6 114595154.148 6  89294958.89649  21806742.68449
  24056552.055 4 126417875.379 4  98507601.83647  24056564.65247
  23104313.133 5 121413969.481 5  94608313.81848  23104325.45748
  23744599.914 5 124778858.521 5  97230210.20046  23744608.39146
  20357178.242 6 106977693.199 6  83359269.52048  20357187.10948
  24119116.883 1 126746961.026 1  98763789.51045  24119126.13745
  22527027.680 5 118380324.197 5  92244442.22647  22527036.27347
  21111296.992 6 110940567.721 6  86447234.93648  21111308.13748
 22  7  3 16  8 45.0000000  0  9G05G07G08G09G13G14G17G20G30         
  23249138.211 4 122175073.594 4  95201369.05346  23249147.45346
  21809552.164 6 114609962.589 6  89306497.94049  21809560.18049
  24058778.227 4 126429573.289 4  98516717.09447  24058790.58647
  23108042.742 4 121433567.390 4  94623584.90848  23108054.59048
  23742777.906 5 124769286.752 5  97222751.68846  23742787.02346
  20357628.195 6 106980057.555 6  83361111.88748  20357637.24248
  24117003.859 2 126735857.619 2  98755137.54346  24117013.34446
  22529359.453 5 118392579.270 5  92253991.62547  22529367.95347
  21112745.742 6 110948180.639 6  86453167.07848  21112756.55548
 22  7  3 16  8 50.0000000  0  9G05G07G08G09G13G14G17G20G30         
  23249324.219 4 122176048.080 4  95202128.39946  23249332.68846
  21812370.805 6 114624774.453 6  89318039.64549  21812378.33649
  24061007.320 4 126441285.690 4  98525843.61547  24061019.54347
  23111773.852 4 121453174.217 4  94638862.94048  23111785.80948
  23740956.930 5 124759715.939 5  97215293.92546  23740965.54746
  20358081.305 6 106982437.167 6  83362966.13848  20358090.10248
  24114891.602 2 126724753.284 2  98746484.82745  24114899.97345
  22531694.398 6 118404846.559 6  92263550.56347  22531702.13347
  21114195.273 6 110955798.415 6  86459103.00748  21114206.48048
 22  7  3 16  8 55.0000000  0  9G05G07G08G09G13G14G17G20G30         
  23249512.156 5 122177038.263 5  95202899.97546  23249521.15246
  21815190.102 6 114639589.957 6  89329584.18248  21815197.97348
  24063238.781 4 126453012.626 4  98534981.47547  24063251.11347
  23115506.164 5 121472790.174 5  94654148.08848  23115518.68048
  23739136.055 5 124750146.300 5  97207837.05346  23739144.73846
  20358536.930 6 106984832.270 6  83364832.45848  20358545.69148
  24112777.336 2 126713648.322 2  98737831.62946  24112786.52746
  22534031.031 6 118417126.384 6  92273119.25547  22534039.39147
  21115646.273 6 110963421.385 6  86465042.97548  21115656.97748
 22  7  3 16  9  0.0000000  0  9G05G07G08G09G13G14G17G20G30         
  23249703.461 5 122178043.382 5  95203683.18346  23249712.42646
  21818010.031 6 114654408.405 6  89341131.02948  21818017.65248
  24065473.273 5 126464753.511 5  98544130.21847  24065485.47747
  23119240.852 5 121492414.490 5  94669439.76348  23119253.20348
  23737315.219 4 124740577.156 4  97200380.59846  23737323.39146
  20358996.039 6 106987242.206 6  83366710.32748  20359004.50448
  24110663.680 3 126702542.108 3  98729177.49946  24110673.31646
  22536369.898 5 118429418.028 5  92282697.15847  22536378.20347
  21117097.492 6 110971048.757 6  86470986.38448  21117108.69148
 22  7  3 16  9  5.0000000  0  9G05G07G08G09G13G14G17G20G30         
  23249896.695 4 122179063.066 4  95204477.73346  23249906.64546
  21820830.242 6 114669229.359 6  89352679.81648  21820837.77748
  24067709.805 5 126476507.999 5  98553289.55348  24067722.19548
  23122977.508 5 121512046.776 5  94684737.62948  23122989.28148
  23735493.922 4 124731008.103 4  97192924.19046  23735502.46146
  20359457.273 6 106989666.485 6  83368599.38048  20359465.85548
  24108548.695 4 126691434.183 4  98720521.95646  24108559.52346
  22538711.102 6 118441721.006 6  92292283.88147  22538719.69147
  21118549.859 6 110978680.146 6  86476932.91448  21118560.82048
 22  7  3 16  9 10.0000000  0  9G05G07G08G09G13G14G17G20G30         
  23250093.813 4 122180097.911 4  95205284.13747  23250103.62147
  21823651.375 6 114684053.396 6  89364231.00849  21823659.33649
  24069949.914 5 126488276.671 5  98562459.95248  24069961.88348
  23126714.234 5 121531687.655 5  94700042.20448  23126726.57848
  23733673.273 4 124721439.723 4  97185468.34246  23733681.77046
  20359921.180 6 106992105.719 6  83370500.07848  20359929.96548
  24106434.531 4 126680325.190 4  98711865.63346  24106445.40246
  22541054.719 5 118454035.956 5  92301879.94947  22541062.52047
  21120002.859 6 110986316.095 6  86482883.00748  21120013.34848
 22  7  3 16  9 15.0000000  0  9G05G07G08G09G13G14G17G20G30         
  23250293.992 5 122181148.099 5  95206102.46746  23250303.43846
  21826472.648 6 114698880.688 6  89375784.74148  21826480.49248
  24072191.750 5 126500059.606 5  98571641.45348  24072204.40248
  23130453.406 5 121551337.196 5  94715353.51248  23130465.38348
  23731851.461 4 124711872.144 4  97178013.09046  23731861.03146
  20360387.992 6 106994560.112 6  83372412.60048  20360397.43448
  24104321.250 4 126669215.290 4  98703208.60646  24104331.21546
  22543399.883 5 118466362.990 5  92311485.44447  22543408.46147
  21121457.477 6 110993956.811 6  86488836.81648  21121467.77348
 22  7  3 16  9 20.0000000  0  9G05G07G08G09G13G14G17G20G30         
  23250496.742 5 122182213.009 5  95206932.25247  23250506.82047
  21829294.555 6 114713710.646 6  89387340.53649  21829302.55949
  24074437.055 5 126511856.146 5  98580833.55248  24074449.12548
  23134194.719 5 121570994.847 5  94730671.14648  23134206.86748
  23730032.039 4 124702304.811 4  97170558.02846  23730040.59046
  20360857.969 6 106997028.953 6  83374336.37248  20360867.05548
  24102205.516 5 126658103.781 5  98694550.29946  24102216.41446
  22545747.938 5 118478701.425 5  92321099.78847  22545756.41047
  21122911.711 6 111001601.662 6  86494793.83148  21122922.75448
 22  7  3 16  9 25.0000000  0  9G05G07G08G09G13G14G17G20G30         
  23250702.188 5 122183293.205 5  95207773.98547  23250711.93447
  21832117.508 6 114728543.893 6  89398898.90349  21832125.09449
  24076684.063 5 126523666.969 5  98590036.78147  24076696.71147
  23137936.078 5 121590661.248 5  94745995.59348  23137948.58648
  23728211.156 4 124692738.413 4  97163103.70046  23728220.27046
  20361331.094 6 106999513.001 6  83376271.99848  20361340.13348
  24100091.891 5 126646991.416 5  98685891.31546  24100101.79746
  22548098.492 5 118491051.994 5  92330723.60747  22548106.72747
  21124367.336 6 111009251.341 6  86500754.62148  21124378.17248
 22  7  3 16  9 30.0000000  0  9G05G07G08G09G13G14G17G20G30         
  23250910.516 5 122184388.507 5  95208627.47647  23250920.50847
  21834940.984 6 114743380.147 6  89410459.61649  21834948.68049
  24078933.672 5 126535491.899 5  98599251.00948  24078946.87948
  23141680.570 5 121610336.093 5  94761326.62448  23141692.92648
  23726392.117 3 124683172.622 3  97155649.85246  23726399.92646
  20361806.234 6 107002011.905 6  83378219.19448  20361815.09048
  24097976.781 5 126635877.965 5  98677231.50646  24097986.65646
  22550450.492 5 118503414.361 5  92340356.60147  22550459.34847
  21125823.789 6 111016905.484 6  86506718.89248  21125834.95748
 22  7  3 16  9 35.0000000  0  9G05G07G08G09G13G14G17G20G30         
  23251121.477 5 122185498.680 5  95209492.53246  23251132.16446
  21837764.523 6 114758219.219 6  89422022.52249  21837772.77349
  24081187.250 5 126547330.755 5  98608476.08748  24081199.27048
  23145426.680 5 121630019.230 5  94776664.12148  23145438.79748
  23724570.766 4 124673607.278 4  97148196.34046  23724579.91446
  20362284.219 6 107004525.554 6  83380177.88848  20362293.72348
  24095861.086 5 126624763.200 5  98668570.65346  24095872.00446
  22552805.281 5 118515788.423 5  92349998.73347  22552813.50047
  21127281.375 6 111024564.008 6  86512686.57548  21127292.28148
 22  7  3 16  9 40.0000000  0  9G05G07G08G09G13G14G17G20G30         
  23251335.828 5 122186624.309 5  95210369.64147  23251346.38347
  21840589.078 6 114773061.681 6  89433588.07149  21840597.69549
  24083442.773 5 126559183.826 5  98617712.24048  24083455.31648
  23149173.398 5 121649711.180 5  94792008.48248  23149185.64548
  23722751.102 3 124664043.037 3  97140743.67746  23722759.61746
  20362765.594 6 107007054.433 6  83382148.45048  20362775.02748
  24093745.539 5 126613647.727 5  98659909.24646  24093756.64546
  22555162.320 5 118528174.619 5  92359650.31147  22555170.45747
  21128739.469 6 111032227.396 6  86518658.04348  21128750.50048
 22  7  3 16  9 45.0000000  0  9G05G07G08G09G13G14G17G20G30         
  23251553.305 5 122187765.539 5  95211258.92347  23251563.39547
  21843413.977 6 114787907.653 6  89445156.35049  21843422.53549
  24085700.711 5 126571051.427 5  98626959.72448  24085713.57448
  23152922.906 5 121669412.112 5  94807359.84148  23152934.61748
  23720931.805 4 124654479.984 4  97133292.00146  23720939.94946
  20363249.844 6 107009598.688 6  83384130.99248  20363259.11348
  24091630.836 5 126602531.618 5  98651247.38046  24091641.19546
  22557521.547 5 118540573.136 5  92369311.48147  22557530.22747
  21130198.977 6 111039895.777 6  86524633.40748  21130209.58248
 22  7  3 16  9 50.0000000  0  9G05G07G08G09G13G14G17G20G30         
  23251772.992 5 122188921.817 5  95212159.90647  23251783.23847
  21846239.633 6 114802756.542 6  89456726.91849  21846248.00849
  24087962.492 5 126582933.025 5  98636218.10348  24087974.56648
  23156673.227 5 121689121.354 5  94822717.67648  23156684.75448
  23719111.422 4 124644917.547 4  97125840.74646  23719120.74246
  20363736.844 6 107012157.771 6  83386125.09148  20363746.27048
  24089515.492 5 126591414.367 5  98642584.61246  24089525.92646
  22559883.555 5 118552983.363 5  92378981.80047  22559891.43447
  21131658.703 6 111047568.644 6  86530612.26048  21131669.94548
 22  7  3 16  9 55.0000000  0  9G05G07G08G09G13G14G17G20G30         
  23251996.703 5 122190092.563 5  95213072.16947  23252005.81647
  21849066.039 6 114817607.908 6  89468299.40449  21849074.16049
  24090226.422 5 126594828.126 5  98645487.00348  24090237.71548
  23160425.539 5 121708838.526 5  94838081.69948  23160437.16448
  23717291.914 4 124635355.243 4  97118389.61746  23717301.04746
  20364226.672 6 107014731.180 6  83388130.35048  20364235.48848
  24087399.703 5 126580295.521 5  98633920.60146  24087410.19546
  22562246.266 5 118565404.812 5  92388660.83546  22562255.23846
  21133120.172 6 111055245.502 6  86536594.23148  21133130.60248
 22  7  3 16 10  0.0000000  0  9G05G07G08G09G13G14G17G20G30         
  23252221.422 5 122191278.008 5  95213995.90347  23252231.03147
  21851892.500 6 114832461.866 6  89479873.92349  21851901.23849
  24092492.047 5 126606736.849 5  98654766.52948  24092504.26248
  23164179.016 5 121728563.697 5  94853451.94748  23164190.12148
  23715472.031 4 124625793.158 4  97110938.64646  23715481.41446
  20364718.836 6 107017319.036 6  83390146.87448  20364728.31648
  24085283.477 5 126569175.229 5  98625255.44546  24085293.77046
  22564612.641 5 118577837.607 5  92398348.72147  22564621.57047
  21134581.547 6 111062926.385 6  86542579.33448  21134592.09448
 22  7  3 16 10  5.0000000  0  9G05G07G08G09G13G14G17G20G30         
  23252450.164 5 122192478.702 5  95214931.51346  23252459.66046
  21854719.625 6 114847318.963 6  89491450.87549  21854728.36749
  24094760.891 5 126618659.699 5  98664057.05848  24094772.76248
  23167934.000 5 121748297.437 5  94868828.87448  23167945.19948
  23713652.867 4 124616231.864 4  97103488.28946  23713661.79746
  20365214.297 6 107019921.913 6  83392175.08948  20365223.60548
  24083167.047 5 126558054.021 5  98616589.58646  24083177.82446
  22566980.703 5 118590282.296 5  92408045.88647  22566989.70347
  21136043.656 6 111070611.932 6  86548568.07348  21136054.44548
 22  7  3 16 10 10.0000000  0  9G05G07G08G09G13G14G17G20G30         
  23252681.500 5 122193694.739 5  95215879.07347  23252691.12147
  21857547.250 6 114862179.363 6  89503030.40049  21857555.95749
  24097031.695 5 126630596.876 5  98673358.74748  24097044.70348
  23171691.016 5 121768039.880 5  94884212.58348  23171702.09448
  23711833.953 4 124606671.554 4  97096038.72246  23711842.22346
  20365712.945 6 107022539.975 6  83394215.13448  20365721.62548
  24081050.633 5 126546932.054 5  98607923.12246  24081061.14546
  22569350.922 5 118602739.009 5  92417752.40346  22569360.02346
  21137507.273 6 111078302.254 6  86554560.53648  21137518.59848
 22  7  3 16 10 15.0000000  0  9G05G07G08G09G13G14G17G20G30         
  23252916.477 5 122194926.272 5  95216838.72047  23252925.49247
  21860375.734 6 114877043.023 6  89514612.47649  21860384.75049
  24099306.875 5 126642548.344 5  98682671.56448  24099318.92248
  23175450.266 5 121787791.000 5  94899603.06048  23175460.89148
  23710013.250 4 124597112.311 4  97088589.94946  23710022.99646
  20366214.234 6 107025173.168 6  83396266.98148  20366222.73448
  24078933.891 5 126535809.400 5  98599256.14546  24078944.21946
  22571723.266 5 118615207.788 5  92427468.33646  22571732.75446
  21138971.734 6 111085997.390 6  86560556.74148  21138982.60548
 22  7  3 16 10 20.0000000  0  9G05G07G08G09G13G14G17G20G30         
  23253153.734 4 122196172.861 4  95217810.10147  23253162.58647
  21863205.273 6 114891909.743 6  89526196.93449  21863213.87949
  24101583.641 5 126654513.792 5  98691995.28548  24101596.06348
  23179210.180 4 121807550.613 4  94915000.14848  23179220.78548
  23708194.813 4 124587553.815 4  97081141.81846  23708204.38746
  20366717.359 6 107027821.285 6  83398330.45348  20366726.50848
  24076817.328 5 126524685.813 5  98590588.42746  24076827.78946
  22574098.609 5 118627688.279 5  92437193.39147  22574107.71547
  21140436.664 6 111093697.069 6  86566556.49848  21140447.66048
 22  7  3 16 10 25.0000000  0  9G05G07G08G09G13G14G17G20G30         
  23253394.133 4 122197434.438 4  95218793.14847  23253402.60947
  21866034.391 6 114906779.302 6  89537783.59049  21866043.56349
  24103863.602 5 126666493.068 5  98701329.77848  24103875.98848
  23182971.508 4 121827318.395 4  94930403.60148  23182982.67648
  23706375.750 4 124577995.852 4  97073694.02746  23706385.87546
  20367224.133 6 107030484.094 6  83400405.37548  20367233.48448
  24074700.633 5 126513561.011 5  98581919.76346  24074710.72346
  22576475.594 5 118640180.322 5  92446927.45147  22576485.05147
  21141903.102 6 111101401.087 6  86572559.62348  21141913.71548
 22  7  3 16 10 30.0000000  0  9G05G07G08G09G13G14G17G20G30         
  23253635.922 5 122198710.907 5  95219787.80447  23253645.16847
  21868864.430 6 114921651.685 6  89549372.45149  21868873.45349
  24106144.859 5 126678486.191 5  98710675.07648  24106158.22748
  23186734.734 4 121847094.437 4  94945813.48748  23186746.20348
  23704557.602 4 124568438.469 4  97066246.75246  23704567.40646
  20367733.883 6 107033161.626 6  83402491.77148  20367743.03148
  24072583.297 5 126502435.121 5  98573250.25646  24072593.27046
  22578855.289 5 118652683.921 5  92456670.50947  22578864.66047
  21143369.469 6 111109109.433 6  86578566.12548  21143380.61348
 22  7  3 16 10 35.0000000  0  9G05G07G08G09G13G14G17G20G30         
  23253881.953 5 122200002.563 5  95220794.29247  23253891.17647
  21871694.852 6 114936527.092 6  89560963.68949  21871704.17249
  24108429.789 5 126690493.406 5  98720031.32148  24108443.36748
  23190500.172 5 121866878.926 5  94961229.96548  23190511.12948
  23702739.086 4 124558881.905 4  97058800.08646  23702748.59446
  20368246.305 6 107035854.052 6  83404589.76748  20368255.45748
  24070465.641 5 126491308.256 5  98564579.97646  24070476.09846
  22581236.445 5 118665199.244 5  92466422.70947  22581246.45747
  21144837.289 6 111116822.345 6  86584576.18748  21144847.90248
 22  7  3 16 10 40.0000000  0  9G05G07G08G09G13G14G17G20G30         
  23254130.883 5 122201309.545 5  95221812.72347  23254139.92647
  21874526.313 6 114951405.736 6  89572557.44249  21874535.83249
  24110717.219 5 126702514.769 5  98729398.60348  24110730.77348
  23194266.180 5 121886672.062 5  94976653.17148  23194277.63348
  23700920.906 4 124549326.311 4  97051354.17446  23700930.14846
  20368761.328 7 107038561.586 7  83406699.54348  20368770.64848
  24068348.742 5 126480180.723 5  98555909.19846  24068358.31346
  22583620.828 5 118677726.488 5  92476184.20447  22583630.14547
  21146306.352 6 111124539.975 6  86590589.92948  21146316.91048
 22  7  3 16 10 45.0000000  0  9G05G07G08G09G13G14G17G20G30         
  23254382.109 5 122202631.489 5  95222842.81347  23254391.35247
  21877358.500 6 114966287.222 6  89584153.39649  21877367.61349
  24113007.539 5 126714549.902 5  98738776.61248  24113020.68848
  23198034.617 5 121906473.349 5  94992082.73748  23198045.58248
  23699101.727 5 124539771.305 5  97043908.71946  23699112.19946
  20369279.430 6 107041283.792 6  83408820.74848  20369288.57448
  24066230.508 5 126469052.131 5  98547237.60146  24066241.07046
  22586007.148 5 118690265.198 5  92485954.62847  22586016.22747
  21147775.508 6 111132261.917 6  86596607.02448  21147786.08248
 22  7  3 16 10 50.0000000  0  9G05G07G08G09G13G14G17G20G30         
  23254636.633 5 122203968.257 5  95223884.44847  23254645.34847
  21880190.352 6 114981171.386 6  89595751.43849  21880199.55949
  24115299.984 5 126726598.808 5  98748165.36148  24115313.20748
  23201803.867 5 121926282.719 5  95007518.59648  23201815.99248
  23697283.297 4 124530216.857 4  97036463.70046  23697293.67246
  20369800.367 7 107044020.578 7  83410953.31548  20369809.63748
  24064112.648 5 126457922.308 5  98538565.03646  24064123.32846
  22588395.039 4 118702815.262 4  92495733.89446  22588404.31646
  21149245.289 6 111139988.068 6  86602627.40448  21149256.59048
 22  7  3 16 10 55.0000000  0  9G05G07G08G09G13G14G17G20G30         
  23254894.211 5 122205320.622 5  95224938.25147  23254902.61347
  21883023.570 6 114996059.006 6  89607352.17548  21883032.59448
  24117596.633 5 126738661.988 5  98757565.22248  24117609.14848
  23205574.914 5 121946100.933 5  95022961.34948  23205587.00848
  23695466.172 4 124520663.539 4  97029019.59446  23695475.64546
  20370323.672 6 107046772.631 6  83413097.77448  20370333.45348
  24061994.977 5 126446792.033 5  98529892.11046  24062005.50846
  22590786.109 5 118715377.456 5  92505522.61347  22590794.92247
  21150717.117 6 111147719.124 6  86608651.60748  21150727.68448
 22  7  3 16 11  0.0000000  0  9G05G07G08G09G13G14G17G20G30         
  23255154.211 5 122206688.005 5  95226003.73247  23255162.92647
  21885857.617 6 115010949.556 6  89618955.19748  21885866.23848
  24119894.508 4 126750739.271 4  98766976.08148  24119907.21548
  23209348.000 5 121965927.463 5  95038410.57448  23209360.54348
  23693647.445 4 124511111.025 4  97021576.07346  23693658.09046
  20370850.375 6 107049539.518 6  83415253.79648  20370859.48048
  24059876.938 5 126435660.823 5  98521218.43846  24059887.07046
  22593177.859 5 118727951.212 5  92515320.35447  22593187.65247
  21152188.656 6 111155454.679 6  86614679.31348  21152199.75848
 22  7  3 16 11  5.0000000  0  9G05G07G08G09G13G14G17G20G30         
  23255417.219 5 122208070.473 5  95227080.99247  23255425.95347
  21888691.813 6 115025842.983 6  89630560.46348  21888700.53948
  24122195.383 4 126762830.342 4  98776397.69348  24122208.15648
  23213122.914 5 121985762.207 5  95053866.20448  23213135.05148
  23691830.992 4 124501559.159 4  97014133.05546  23691840.47746
  20371379.820 7 107052321.186 7  83417421.33548  20371388.98448
  24057758.109 5 126424528.687 5  98512544.07446  24057769.04746
  22595573.406 4 118740536.521 4  92525127.08447  22595582.62547
  21153662.258 6 111163194.548 6  86620710.37848  21153673.04748
 22  7  3 16 11 10.0000000  0  9G05G07G08G09G13G14G17G20G30         
  23255682.477 5 122209467.852 5  95228169.84647  23255691.93847
  21891526.172 6 115040739.216 6  89642167.92049  21891535.08649
  24124498.945 5 126774935.253 5  98785830.08548  24124511.94948
  23216898.063 5 122005605.199 5  95069328.27048  23216911.44148
  23690013.664 3 124492007.927 3  97006690.55146  23690023.29746
  20371911.602 7 107055117.524 7  83419600.30648  20371921.12148
  24055640.156 5 126413395.509 5  98503868.89046  24055650.67246
  22597970.719 5 118753133.306 5  92534942.75247  22597979.72747
  21155135.563 6 111170938.835 6  86626744.89348  21155146.69148
 22  7  3 16 11 15.0000000  0  9G05G07G08G09G13G14G17G20G30         
  23255951.813 5 122210880.398 5  95229270.52647  23255960.93447
  21894361.008 6 115055638.494 6  89653777.74748  21894369.41048
  24126804.938 5 126787054.164 5  98795273.39148  24126817.72748
  23220675.938 5 122025456.530 5  95084796.82848  23220688.65248
  23688196.773 3 124482457.574 3  96999248.70246  23688206.32046
  20372446.602 7 107057928.756 7  83421790.88348  20372456.33648
  24053521.336 5 126402261.565 5  98495193.10946  24053531.62546
  22600370.125 5 118765741.736 5  92544767.50847  22600379.09847
  21156610.063 6 111178687.577 6  86632782.87948  21156620.88348
 22  7  3 16 11 20.0000000  0  9G05G07G08G09G13G14G17G20G30         
  23256223.523 6 122212307.873 6  95230382.84747  23256232.63747
  21897196.844 6 115070540.533 6  89665389.71649  21897205.72349
  24129113.430 5 126799186.779 5  98804727.35648  24129126.39548
  23224454.398 5 122045315.990 5  95100271.71648  23224468.02348
  23686378.586 3 124472907.810 3  96991807.35346  23686388.80946
  20372984.422 6 107060754.629 6  83423992.85948  20372993.66048
  24051403.109 5 126391126.549 5  98486516.49546  24051412.89846
  22602771.406 5 118778361.561 5  92554601.14747  22602780.00047
  21158085.219 6 111186440.618 6  86638824.20448  21158096.48848
 22  7  3 16 11 25.0000000  0  9G05G07G08G09G13G14G17G20G30         
  23256497.977 5 122213750.780 5  95231507.18347  23256507.10247
  21900033.328 6 115085445.930 6  89677004.31148  21900042.10948
  24131425.125 5 126811333.815 5  98814192.58548  24131437.75048
  23228235.305 5 122065184.170 5  95115753.39648  23228248.62548
  23684562.000 3 124463359.263 3  96984366.92746  23684572.14146
  20373525.227 6 107063595.716 6  83426206.69748  20373534.13348
  24049282.328 5 126379991.073 5  98477839.52046  24049293.75846
  22605175.531 5 118790993.277 5  92564444.02747  22605184.15247
  21159561.500 6 111194198.503 6  86644869.30748  21159572.77048
 22  7  3 16 11 30.0000000  0  9G05G07G08G09G13G14G17G20G30         
  23256775.867 5 122215208.934 5  95232643.40347  23256784.48847
  21902870.117 6 115100354.356 6  89688621.26248  21902879.14548
  24133739.023 4 126823494.838 4  98823668.69548  24133751.71148
  23232017.766 5 122085060.758 5  95131241.63448  23232030.76248
  23682744.422 3 124453811.607 3  96976927.22146  23682755.10946
  20374068.406 6 107066451.719 6  83428432.16648  20374077.36348
  24047163.594 5 126368854.857 5  98469161.95247  24047174.53547
  22607580.195 5 118803636.643 5  92574296.00847  22607590.42647
  21161038.656 6 111201960.954 6  86650917.97748  21161049.63348
 22  7  3 16 11 35.0000000  0  9G05G07G08G09G13G14G17G20G30         
  23257055.469 5 122216682.105 5  95233791.33347  23257065.20347
  21905708.102 6 115115265.677 6  89700240.47048  21905716.84448
  24136056.680 4 126835669.643 4  98833155.55748  24136068.78948
  23235801.516 5 122104945.602 5  95146736.30748  23235815.05148
  23680928.938 3 124444264.711 3  96969488.09646  23680938.31646
  20374615.125 6 107069322.503 6  83430669.13848  20374624.12548
  24045045.039 5 126357717.728 5  98460483.69446  24045055.15646
  22609989.711 5 118816291.488 5  92584156.92947  22609999.04347
  21162516.836 6 111209727.831 6  86656970.09748  21162528.14548
 22  7  3 16 11 40.0000000  0  9G05G07G08G09G13G14G17G20G30         
  23257339.352 5 122218170.433 5  95234951.06747  23257348.35247
  21908546.164 6 115130179.985 6  89711862.00448  21908555.20748
  24138375.828 4 126847858.478 4  98842653.35348  24138388.30148
  23239587.508 5 122124838.706 5  95162237.41348  23239600.68448
  23679111.914 3 124434718.660 3  96962049.59246  23679121.96146
  20375164.000 6 107072208.085 6  83432917.64448  20375173.18448
  24042924.828 5 126346579.779 5  98451804.76746  24042935.99646
  22612399.359 5 118828957.901 5  92594026.85347  22612408.94547
  21163995.609 6 111217499.143 6  86663025.65348  21164007.02348
 22  7  3 16 11 45.0000000  0  9G05G07G08G09G13G14G17G20G30         
  23257625.195 5 122219673.788 5  95236122.51547  23257634.25847
  21911384.227 6 115145097.141 6  89723485.75848  21911394.07848
  24140698.531 4 126860061.113 4  98852161.89348  24140710.12548
  23243374.320 4 122144740.042 4  95177744.94948  23243387.39548
  23677295.516 4 124425173.411 4  96954611.77146  23677304.73046
  20375716.109 6 107075108.441 6  83435177.66848  20375725.14548
  24040805.195 5 126335440.956 5  98443125.18447  24040816.30947
  22614811.922 5 118841635.746 5  92603905.68946  22614821.18046
  21165475.211 6 111225274.841 6  86669084.64348  21165486.55148
 22  7  3 16 11 50.0000000  0  9G05G07G08G09G13G14G17G20G30         
  23257914.797 5 122221192.808 5  95237306.15447  23257923.19547
  21914224.117 6 115160017.809 6  89735112.24449  21914233.07849
  24143022.664 4 126872278.295 4  98861681.75648  24143035.28148
  23247163.742 5 122164650.248 5  95193259.38548  23247176.23048
  23675478.828 4 124415629.469 4  96947174.93346  23675488.96946
  20376271.039 6 107078024.160 6  83437449.65848  20376279.85948
  24038685.656 6 126324301.910 6  98434445.42446  24038696.35546
  22617226.289 5 118854325.696 5  92613793.95947  22617235.95747
  21166956.055 6 111233055.523 6  86675147.52148  21166967.12148
 22  7  3 16 11 55.0000000  0  9G05G07G08G09G13G14G17G20G30         
  23258206.422 5 122222726.612 5  95238501.34647  23258215.03147
  21917063.695 6 115174941.104 6  89746740.78849  21917072.98849
  24145350.023 3 126884509.104 3  98871212.24648  24145362.62948
  23250954.070 4 122184568.348 4  95208779.98548  23250966.29348
  23673662.781 4 124406086.135 4  96939738.56146  23673673.09046
  20376828.609 6 107080954.379 6  83439732.95148  20376837.22348
  24036565.859 6 126313161.823 6  98425764.85747  24036576.73047
  22619644.117 5 118867026.804 5  92623690.92647  22619652.91447
  21168437.164 6 111240840.409 6  86681213.66348  21168448.35948
 22  7  3 16 12  0.0000000  0  9G05G07G08G09G13G14G17G20G30         
  23258500.609 5 122224275.137 5  95239707.97547  23258509.60247
  21919904.039 6 115189866.907 6  89758371.26349  21919913.45749
  24147679.586 3 126896753.371 3  98880753.21848  24147692.91048
  23254745.508 4 122204494.304 4  95224306.70548  23254757.81648
  23671846.648 4 124396543.194 4  96932302.50546  23671856.77746
  20377389.141 6 107083898.953 6  83442027.43348  20377397.77048
  24034445.516 6 126302020.530 6  98417083.33347  24034457.06347
  22622063.008 5 118879738.983 5  92633596.52747  22622071.56647
  21169919.188 6 111248629.243 6  86687282.89148  21169930.57448
 22  7  3 16 12  5.0000000  0  9G05G07G08G09G13G14G17G20G30         
  23258798.461 5 122225838.573 5  95240926.22747  23258807.31647
  21922745.344 6 115204795.475 6  89770003.91049  21922753.91849
  24150012.242 3 126909011.209 3  98890304.76248  24150025.85548
  23258538.680 4 122224428.364 4  95239839.73548  23258551.17648
  23670031.109 4 124387000.978 4  96924867.03446  23670040.95746
  20377952.156 6 107086858.169 6  83444333.31648  20377960.43448
  24032324.969 6 126290878.346 6  98408401.13147  24032336.59847
  22624484.375 5 118892462.403 5  92643510.86947  22624493.10247
  21171402.430 6 111256422.369 6  86693355.44848  21171413.55948
 22  7  3 16 12 10.0000000  0  9G05G07G08G09G13G14G17G20G30         
  23259098.680 5 122227417.298 5  95242156.40647  23259107.94147
  21925587.227 6 115219727.262 6  89781639.06449  21925595.32049
  24152347.938 3 126921283.271 3  98899867.38848  24152360.81348
  23262334.141 4 122244370.896 4  95255379.35248  23262346.59048
  23668215.430 4 124377459.852 4  96917432.40546  23668225.03146
  20378518.117 6 107089832.451 6  83446650.94148  20378526.69548
  24030204.180 6 126279735.641 6  98399718.50847  24030215.97747
  22626907.766 5 118905197.538 5  92653434.36747  22626916.81647
  21172886.195 6 111264220.181 6  86699431.66448  21172897.60948
 22  7  3 16 12 15.0000000  0  9G05G07G08G09G13G14G17G20G30         
  23259402.406 5 122229011.033 5  95243398.29547  23259410.93847
  21928428.578 6 115234661.924 6  89793276.45149  21928437.01649
  24154687.047 4 126933568.929 4  98909440.60548  24154698.78548
  23266130.344 3 122264321.552 3  95270925.30448  23266143.04348
  23666399.563 4 124367919.460 4  96909998.31646  23666409.39846
  20379086.781 6 107092821.334 6  83448979.94248  20379095.02048
  24028084.422 6 126268592.069 6  98391035.21347  24028094.98847
  22629332.742 5 118917943.931 5  92663366.60046  22629342.08246
  21174370.742 6 111272022.277 6  86705511.21048  21174382.38348
 22  7  3 16 12 20.0000000  0  9G05G07G08G09G13G14G17G20G30         
  23259708.328 5 122230619.906 5  95244651.96347  23259716.94947
  21931270.383 6 115249599.499 6  89804916.11949  21931279.62149
  24157026.672 4 126945868.559 4  98919024.73248  24157039.46548
  23269927.492 4 122284280.429 4  95286477.66548  23269940.92648
  23664584.820 4 124358379.940 4  96902564.95446  23664593.85546
  20379658.125 6 107095825.060 6  83451320.52248  20379666.63748
  24025963.266 6 126257447.765 6  98382351.36847  24025974.26647
  22631760.859 5 118930701.798 5  92673307.79347  22631769.94947
  21175856.375 6 111279828.851 6  86711594.25748  21175867.71948
 22  7  3 16 12 25.0000000  0  9G05G07G08G09G13G14G17G20G30         
  23260017.500 5 122232243.912 5  95245917.41747  23260026.54347
  21934114.023 6 115264540.002 6  89816558.05149  21934122.37549
  24159369.125 4 126958182.155 4  98928619.74148  24159382.49248
  23273727.445 3 122304247.629 3  95302036.50648  23273740.58248
  23662768.617 3 124348841.366 3  96895132.26646  23662778.92246
  20380232.359 6 107098843.604 6  83453672.63648  20380241.52048
  24023842.742 5 126246302.827 5  98373666.99347  24023854.20347
  22634190.789 5 118943471.133 5  92683257.93046  22634199.23846
  21177342.953 6 111287639.857 6  86717680.75548  21177354.23048
 22  7  3 16 12 30.0000000  0  9G05G07G08G09G13G14G17G20G30         
  23260329.234 5 122233882.834 5  95247194.49147  23260337.90647
  21936957.469 6 115279483.176 6  89828202.07949  21936966.43049
  24161715.328 4 126970509.360 4  98938225.37048  24161728.26248
  23277528.477 3 122324222.733 3  95317601.51048  23277541.36748
  23660953.383 3 124339303.549 3  96887700.21546  23660963.51246
  20380809.523 6 107101876.715 6  83456036.09748  20380818.69548
  24021721.586 6 126235156.988 6  98364981.94847  24021732.84447
  22636622.789 5 118956251.654 5  92693216.75846  22636631.35946
  21178830.102 6 111295455.112 6  86723770.56248  21178841.04748
 22  7  3 16 12 35.0000000  0  9G05G07G08G09G13G14G17G20G30         
  23260643.680 5 122235536.538 5  95248483.10347  23260653.06647
  21939802.297 6 115294428.924 6  89839848.10349  21939810.30549
  24164063.773 4 126982850.098 4  98947841.51548  24164076.69948
  23281330.914 4 122344205.820 4  95333172.74048  23281344.13348
  23659139.258 3 124329766.257 3  96880268.56346  23659148.82846
  20381389.961 6 107104924.295 6  83458410.84548  20381398.58248
  24019600.289 5 126224010.099 5  98356296.06947  24019611.48447
  22639056.805 5 118969043.215 5  92703184.20247  22639065.39547
  21180317.672 6 111303274.440 6  86729863.53148  21180329.01248
 22  7  3 16 12 40.0000000  0  9G05G07G08G09G13G14G17G20G30         
  23260960.859 5 122237205.228 5  95249783.38047  23260971.06647
  21942646.570 6 115309377.497 6  89851496.33149  21942654.76249
  24166414.180 4 126995204.528 4  98957468.32048  24166427.87548
  23285134.047 4 122364196.969 4  95348750.23648  23285147.86748
  23657324.602 3 124320229.694 3  96872837.49146  23657334.02046
  20381973.203 6 107107986.536 6  83460796.99948  20381981.52048
  24017478.789 5 126212862.442 5  98347609.59546  24017489.90646
  22641493.063 5 118981846.055 5  92713160.43147  22641502.08647
  21181806.758 6 111311098.099 6  86735959.88748  21181817.64848
 22  7  3 16 12 45.0000000  0  9G05G07G08G09G13G14G17G20G30         
  23261281.109 5 122238888.679 5  95251095.14847  23261291.73847
  21945491.797 6 115324328.687 6  89863146.60249  21945499.89849
  24168767.406 4 127007572.486 4  98967105.69848  24168781.12148
  23288940.781 4 122384196.001 4  95364333.88848  23288953.48448
  23655509.727 2 124310693.718 2  96865406.84146  23655519.52346
  20382557.953 6 107111063.232 6  83463194.42848  20382566.66848
  24015357.906 5 126201713.836 5  98338922.38947  24015368.78147
  22643931.234 5 118994659.970 5  92723145.27647  22643940.55147
  21183296.477 6 111318925.862 6  86742059.45248  21183307.24248
 22  7  3 16 12 50.0000000  0  9G05G07G08G09G13G14G17G20G30         
  23261605.047 5 122240587.023 5  95252418.53947  23261614.83647
  21948337.492 6 115339282.602 6  89874798.98949  21948345.72349
  24171125.063 4 127019954.150 4  98976753.74748  24171137.02748
  23292748.352 4 122404203.097 4  95379923.79948  23292761.16048
  23653694.711 2 124301158.496 2  96857976.82446  23653705.05146
  20383146.508 6 107114154.518 6  83465603.22548  20383154.67248
  24013235.758 5 126190564.439 5  98330234.55147  24013246.71147
  22646372.250 5 119007485.063 5  92733138.86247  22646381.16447
  21184786.938 6 111326757.843 6  86748162.29748  21184797.81348
 22  7  3 16 12 55.0000000  0  9G05G07G08G09G13G14G17G20G30         
  23261930.758 5 122242300.323 5  95253753.58147  23261940.71947
  21951183.617 6 115354239.338 6  89886453.56949  21951192.32049
  24173482.945 3 127032349.479 3  98986412.43548  24173496.26248
  23296556.727 4 122424218.159 4  95395519.92848  23296569.80948
  23651881.164 2 124291624.095 2  96850547.41446  23651890.88346
  20383737.602 6 107117260.413 6  83468023.40648  20383746.10548
  24011114.000 5 126179414.249 5  98321546.11946  24011124.69546
  22648815.313 5 119020321.349 5  92743141.17047  22648823.84847
  21186278.008 6 111334594.106 6  86754268.47848  21186288.44948
 22  7  3 16 13  0.0000000  0  9G05G07G08G09G13G14G17G20G30         
  23262259.594 5 122244028.641 5  95255100.32447  23262269.39547
  21954030.250 6 115369198.717 6  89898110.22749  21954038.78949
  24175844.289 2 127044758.406 2  98996081.70848  24175857.14848
  23300367.375 4 122444241.229 4  95411122.29448  23300379.94948
  23650067.633 2 124282090.390 2  96843118.57445  23650076.42245
  20384330.992 6 107120380.911 6  83470454.96648  20384340.07448
  24008992.133 5 126168263.244 5  98312857.02547  24009003.11347
  22651260.320 5 119033168.762 5  92753152.12846  22651268.18046
  21187769.758 6 111342434.589 6  86760377.94648  21187780.43048
 22  7  3 16 13  5.0000000  0  9G05G07G08G09G13G14G17G20G30         
  23262591.500 5 122245771.972 5  95256458.76447  23262601.25447
  21956877.547 6 115384160.947 6  89909769.09549  21956885.87949
  24178208.930 3 127057181.178 3  99005761.78248  24178221.24648
  23304178.953 3 122464272.458 3  95426731.03048  23304191.90648
  23648252.805 2 124272557.564 2  96835690.42845  23648262.57445
  20384927.711 6 107123516.116 6  83472897.99048  20384936.74648
  24006870.453 5 126157111.548 5  98304167.40947  24006880.57047
  22653706.344 5 119046027.486 5  92763171.90747  22653715.19947
  21189262.875 6 111350279.429 6  86766490.81248  21189274.09048
 22  7  3 16 13 10.0000000  0  9G05G07G08G09G13G14G17G20G30         
  23262926.086 5 122247530.267 5  95257828.87647  23262936.02347
  21959725.445 6 115399125.910 6  89921430.10049  21959732.95349
  24180574.734 3 127069617.470 3  99015452.39948  24180587.48848
  23307992.508 3 122484311.676 3  95442345.97948  23308005.37548
  23646439.070 2 124263025.569 2  96828262.92546  23646449.07846
  20385526.266 6 107126665.866 6  83475352.34948  20385536.01248
  24004748.539 5 126145959.086 5  98295477.20146  24004758.40646
  22656155.891 5 119058897.322 5  92773200.33747  22656164.96947
  21190756.133 6 111358128.485 6  86772606.96148  21190767.51248
 22  7  3 16 13 15.0000000  0  9G05G07G08G09G13G14G17G20G30         
  23263263.625 5 122249303.600 5  95259210.69347  23263272.59447
  21962573.766 6 115414093.762 6  89933093.35448  21962581.59048
  24182944.563 4 127082067.719 4  99025153.87147  24182957.29747
  23311807.281 3 122504358.949 3  95457967.21748  23311819.96548
  23644624.695 2 124253494.483 2  96820836.11246  23644635.01246
  20386129.289 6 107129830.375 6  83477818.20248  20386138.48448
  24002626.664 5 126134806.091 5  98286786.54646  24002636.28146
  22658606.828 5 119071778.498 5  92783237.62346  22658616.13346
  21192251.000 6 111365981.953 6  86778726.53248  21192262.17648
 22  7  3 16 13 20.0000000  0  9G05G07G08G09G13G14G17G20G30         
  23263604.773 5 122251091.689 5  95260603.99347  23263613.24247
  21965422.867 6 115429064.054 6  89944758.50348  21965430.34448
  24185316.547 3 127094531.254 3  99034865.71947  24185328.70747
  23315623.492 3 122524413.971 3  95473594.50248  23315636.23448
  23642811.625 2 124243963.908 2  96813409.67145  23642821.80545
  20386734.086 6 107133009.188 6  83480295.19448  20386743.27048
  24000503.219 5 126123652.060 5  98278095.11246  24000513.34846
  22661060.250 5 119084670.490 5  92793283.33546  22661069.05146
  21193746.172 6 111373839.348 6  86784849.17348  21193757.52348
 22  7  3 16 13 25.0000000  0  9G05G07G08G09G13G14G17G20G30         
  23263947.094 6 122252894.368 6  95262008.69147  23263956.42247
  21968271.047 6 115444036.724 6  89956425.51749  21968279.31649
  24187689.102 3 127107008.091 3  99044587.93547  24187702.39847
  23319442.070 3 122544476.648 3  95489227.73248  23319454.75048
  23640998.492 2 124234433.857 2  96805983.69246  23641008.59446
  20387341.891 6 107136202.248 6  83482783.29648  20387351.34448
  23998380.828 4 126112496.934 4  98269402.82246  23998390.83246
  22663515.320 5 119097573.218 5  92803337.38246  22663524.33246
  21195242.922 6 111381700.677 6  86790974.88348  21195253.84448
 22  7  3 16 13 30.0000000  0  9G05G07G08G09G13G14G17G20G30         
  23264293.320 6 122254711.840 6  95263424.90047  23264302.16447
  21971120.797 6 115459011.993 6  89968094.55549  21971129.71149
  24190066.055 3 127119498.496 3  99054320.71947  24190078.74247
  23323261.563 3 122564547.117 3  95504867.05148  23323273.72748
  23639185.727 2 124224904.419 2  96798558.14946  23639195.25846
  20387952.656 6 107139409.739 6  83485282.63348  20387961.22348
  23996257.930 5 126101341.011 5  98260709.89546  23996267.85246
  22665972.680 5 119110486.957 5  92813400.02746  22665981.82846
  21196739.328 6 111389566.087 6  86797103.77248  21196750.14848
 22  7  3 16 13 35.0000000  0  9G05G07G08G09G13G14G17G20G30         
  23264641.383 5 122256544.335 5  95264852.81247  23264650.58247
  21973971.609 6 115473990.114 6  89979765.81349  21973979.94149
  24192446.023 3 127132002.554 3  99064064.14547  24192458.31347
  23327081.734 3 122584625.702 3  95520512.67948  23327094.61348
  23637371.648 3 124215375.929 3  96791133.35946  23637381.91446
  20388565.523 6 107142631.916 6  83487793.42148  20388574.14548
  23994135.258 4 126090184.420 4  98252016.47146  23994144.64846
  22668432.664 5 119123411.915 5  92823471.41946  22668441.59446
  21198236.297 6 111397435.797 6  86803236.02448  21198247.60948
 22  7  3 16 13 40.0000000  0  9G05G07G08G09G13G14G17G20G30         
  23264992.813 5 122258391.694 5  95266292.31947  23265001.99247
  21976821.867 6 115488970.902 6  89991439.14849  21976830.69949
  24194827.766 2 127144520.228 2  99073818.18147  24194840.00847
  23330905.008 4 122604712.161 4  95536164.46548  23330916.98048
  23635559.406 3 124205848.155 3  96783709.14346  23635569.43846
  20389181.227 6 107145868.605 6  83490315.51248  20389190.45748
  23992011.492 5 126079027.110 5  98243322.48146  23992021.52746
  22670894.531 5 119136347.891 5  92833551.39647  22670902.91847
  21199734.594 6 111405309.694 6  86809371.51748  21199746.24648
 22  7  3 16 13 45.0000000  0  9G05G07G08G09G13G14G17G20G30         
  23265347.672 6 122260254.123 6  95267743.57347  23265356.41847
  21979673.188 6 115503954.553 6  90003114.71448  21979682.28548
  24197213.086 1 127157051.676 1  99083582.95147  24197224.84847
  23334728.695 4 122624806.650 4  95551822.48748  23334740.50848
  23633746.844 3 124196321.383 3  96776285.66746  23633756.26246
  20389799.891 6 107149119.996 6  83492849.06948  20389808.77348
  23989888.375 5 126067869.258 5  98234628.05746  23989898.68446
  22673357.844 5 119149295.070 5  92843640.11347  22673366.91447
  21201233.992 6 111413187.974 6  86815510.43848  21201245.39548
 22  7  3 16 13 50.0000000  0  9G05G07G08G09G13G14G17G20G30         
  23265704.109 6 122262131.500 6  95269206.46047  23265713.62147
  21982524.906 6 115518940.931 6  90014792.40149  21982534.07849
  24199600.313 2 127169596.739 2  99093358.32747  24199612.49647
  23338554.094 4 122644909.175 4  95567486.77648  23338566.07848
  23631933.477 3 124186795.501 3  96768862.95546  23631943.35246
  20390421.289 6 107152385.989 6  83495394.00448  20390430.62548
  23987765.523 5 126056710.783 5  98225933.16346  23987774.96146
  22675823.617 5 119162253.303 5  92853737.41946  22675832.29746
  21202733.906 6 111421070.482 6  86821652.65648  21202745.35248
 22  7  3 16 13 55.0000000  0  9G05G07G08G09G13G14G17G20G30         
  23266064.852 5 122264023.402 5  95270680.66547  23266073.77747
  21985376.813 6 115533929.574 6  90026471.85048  21985386.28948
  24201989.391 2 127182154.855 2  99103143.86947  24202003.33647
  23342380.297 4 122665019.122 4  95583156.85048  23342393.06648
  23630121.219 4 124177269.978 4  96761440.43846  23630130.71546
  20391045.227 6 107155666.041 6  83497949.89048  20391054.34048
  23985641.406 5 126045551.171 5  98217237.36646  23985651.09846
  22678291.742 5 119175222.120 5  92863843.01246  22678300.60246
  21204234.875 6 111428956.741 6  86827797.79048  21204246.14148
 22  7  3 16 14  0.0000000  0  9G05G07G08G09G13G14G17G20G30         
  23266427.414 5 122265929.849 5  95272166.19147  23266436.79747
  21988229.750 6 115548920.524 6  90038153.09849  21988238.84449
  24204382.273 3 127194726.172 3  99112939.68747  24204395.49647
  23346208.828 4 122685136.609 4  95598832.79448  23346221.20348
  23628308.523 4 124167744.930 4  96754018.32246  23628318.39846
  20391672.445 6 107158960.258 6  83500516.81848  20391681.26648
  23983517.203 5 126034390.499 5  98208540.74746  23983527.79746
  22680761.055 5 119188201.504 5  92873956.81047  22680770.26247
  21205736.148 6 111436846.806 6  86833945.89048  21205747.18448
 22  7  3 16 14  5.0000000  0  9G05G07G08G09G13G14G17G20G30         
  23266793.438 5 122267851.497 5  95273663.59347  23266802.53547
  21991083.328 6 115563914.359 6  90049836.59849  21991091.88349
  24206777.156 3 127207311.254 3  99122746.25347  24206790.46947
  23350039.117 4 122705262.294 4  95614515.12448  23350051.19948
  23626496.313 4 124158220.989 4  96746597.08246  23626506.05146
  20392302.320 6 107162269.322 6  83503095.31148  20392311.09048
  23981393.555 5 126023229.497 5  98199843.88546  23981403.59846
  22683233.344 5 119201192.176 5  92884079.41447  22683242.71547
  21207238.148 6 111444741.349 6  86840097.48248  21207249.62148
 22  7  3 16 14 10.0000000  0  9G05G07G08G09G13G14G17G20G30         
  23267161.633 5 122269787.917 5  95275172.50347  23267170.77747
  21993936.820 6 115578910.721 6  90061522.07148  21993945.72348
  24209174.109 2 127219909.781 2  99132563.27847  24209187.94947
  23353869.211 5 122725395.684 5  95630203.48048  23353882.05548
  23624683.945 4 124148697.727 4  96739176.35546  23624693.84046
  20392934.406 6 107165592.722 6  83505684.97048  20392943.34448
  23979269.109 4 126012067.666 4  98191146.35746  23979279.54746
  22685707.938 5 119214193.646 5  92894210.41347  22685716.46147
  21208741.352 6 111452639.922 6  86846252.21948  21208752.76648
 22  7  3 16 14 15.0000000  0  9G05G07G08G09G13G14G17G20G30         
  23267532.859 5 122271739.433 5  95276693.15547  23267542.35247
  21996791.320 6 115593909.964 6  90073209.78148  21996799.54748
  24211574.516 2 127232522.125 2  99142391.07147  24211587.42647
  23357702.727 5 122745537.101 5  95645898.07448  23357715.45348
  23622871.438 4 124139175.447 4  96731756.41546  23622881.82046
  20393570.023 6 107168930.792 6  83508286.06748  20393578.55948
  23977144.664 4 126000905.405 4  98182448.49746  23977155.30546
  22688183.883 5 119227206.245 5  92904350.09547  22688192.98047
  21210245.633 6 111460542.854 6  86852410.34748  21210256.29748
 22  7  3 16 14 20.0000000  0  9G05G07G08G09G13G14G17G20G30         
  23267907.547 5 122273706.008 5  95278225.55047  23267916.21147
  21999646.398 6 115608912.063 6  90084899.73148  21999655.10248
  24213977.188 2 127245148.252 2  99152229.61447  24213990.02747
  23361536.953 4 122765686.604 4  95661598.97948  23361549.57848
  23621059.297 4 124129654.241 4  96724337.26646  23621069.96546
  20394207.820 6 107172283.607 6  83510898.65248  20394216.35948
  23975020.891 4 125989742.758 4  98173750.34746  23975031.24646
  22690662.227 5 119240229.928 5  92914498.41647  22690670.94947
  21211750.320 6 111468450.129 6  86858571.85548  21211761.15648
 22  7  3 16 14 25.0000000  0  9G05G07G08G09G13G14G17G20G30         
  23268284.453 5 122275687.436 5  95279769.52747  23268293.44547
  22002500.922 6 115623916.774 6  90096591.70848  22002510.16048
  24216382.055 2 127257787.827 2  99162078.63047  24216395.19947
  23365372.922 4 122785843.907 4  95677305.94848  23365385.49648
  23619248.914 5 124120133.865 5  96716918.80446  23619258.11746
  20394848.438 6 107175650.854 6  83513522.47448  20394857.02048
  23972896.734 4 125978579.452 4  98165051.68346  23972907.25846
  22693142.461 5 119253264.501 5  92924655.22447  22693151.46147
  21213255.078 6 111476361.533 6  86864736.58548  21213266.63348
 22  7  3 16 14 30.0000000  0  9G05G07G08G09G13G14G17G20G30         
  23268664.469 5 122277683.547 5  95281324.94147  23268673.24247
  22005356.750 6 115638923.999 6  90108285.63348  22005365.51248
  24218790.313 2 127270440.769 2  99171938.04647  24218802.69947
  23369209.828 4 122806008.881 4  95693018.89248  23369223.15648
  23617436.961 5 124110614.189 5  96709500.87646  23617446.34846
  20395492.328 6 107179032.428 6  83516157.46348  20395500.67648
  23970772.070 4 125967415.389 4  98156352.41046  23970782.85546
  22695625.250 5 119266309.838 5  92934820.42147  22695633.67647
  21214761.242 6 111484276.938 6  86870904.42048  21214772.54748
 22  7  3 16 14 35.0000000  0  9G05G07G08G09G13G14G17G20G30         
  23269047.008 5 122279694.587 5  95282891.99947  23269056.01247
  22008212.625 6 115653933.792 6  90119981.57348  22008222.03948
  24221200.797 2 127283107.266 2  99181808.05647  24221212.69147
  23373048.984 4 122826181.615 4  95708737.89448  23373061.65648
  23615625.156 4 124101095.278 4  96702083.55146  23615635.43846
  20396138.469 6 107182428.440 6  83518803.71048  20396146.98448
  23968647.672 5 125956250.606 5  98147652.61046  23968658.04746
  22698109.898 5 119279366.043 5  92944994.08747  22698118.84847
  21216268.891 6 111492196.455 6  86877075.47548  21216279.67648
 22  7  3 16 14 40.0000000  0  9G05G07G08G09G13G14G17G20G30         
  23269432.102 5 122281720.240 5  95284470.41947  23269441.32047
  22011069.922 6 115668946.040 6  90131679.41848  22011079.30148
  24223612.953 1 127295786.896 1  99191688.28447  24223625.41447
  23376889.492 4 122846361.904 4  95724462.80048  23376901.71948
  23613813.867 4 124091577.025 4  96694666.73646  23613824.08646
  20396787.641 6 107185838.691 6  83521461.05148  20396796.41448
  23966523.273 4 125945085.061 4  98138952.17646  23966532.82846
  22700595.734 5 119292432.877 5  92955176.03847  22700605.25847
  21217776.477 6 111500119.869 6  86883249.56848  21217787.82048
 22  7  3 16 14 45.0000000  0  9G05G07G08G09G13G14G17G20G30         
  23269820.641 6 122283760.591 6  95286060.29447  23269829.89547
  22013926.906 6 115683960.751 6  90143379.18848  22013936.03948
  24226028.875 1 127308479.901 1  99201578.91947  24226041.11347
  23380731.258 4 122866549.944 4  95740193.72948  23380743.57448
  23612002.648 4 124082059.470 4  96687250.46646  23612012.97746
  20397439.078 6 107189263.278 6  83524129.55448  20397447.75448
  23964398.195 4 125933918.767 4  98130251.16146  23964408.41446
  22703085.414 5 119305510.439 5  92965366.34147  22703094.05147
  21219284.992 6 111508047.276 6  86889426.76948  21219296.53148
 22  7  3 16 14 50.0000000  0  9G05G07G08G09G13G14G17G20G30         
  23270212.063 6 122285816.061 6  95287661.96847  23270220.95347
  22016785.336 6 115698978.354 6  90155081.21048  22016794.27348
  24228446.461 2 127321186.638 2  99211480.30147  24228459.27047
  23384573.953 4 122886746.003 4  95755930.90948  23384586.64548
  23610191.688 4 124072543.035 4  96679835.07046  23610201.99246
  20398093.219 6 107192702.571 6  83526809.52948  20398102.38348
  23962272.656 4 125922752.150 4  98121549.91846  23962283.20346
  22705574.867 5 119318599.099 5  92975565.28947  22705584.79347
  21220794.656 6 111515979.080 6  86895607.39748  21220805.98448
 22  7  3 16 14 55.0000000  0  9G05G07G08G09G13G14G17G20G30         
  22970813.477 6 120712466.771 6  94061675.49047  22970822.55547
  21719850.023 6 114138581.517 6  88939187.56948  21719860.39848
  23931076.039 2 125758489.296 2  97993794.05347  23931088.31347
  23088627.211 4 121331533.765 4  94544077.21148  23088639.64548
  23308587.992 4 122487605.474 4  95444818.78846  23308598.30146
  20098958.086 6 105620736.907 6  82301901.22148  20098967.22348
  23660355.578 4 124336162.588 4  96885246.34746  23660365.39146
  22408276.273 5 117756281.274 5  91758174.78346  22408285.09446
  20922512.422 6 109948496.494 6  85674192.39848  20922523.66048
 22  7  3 16 15  0.0000000  0  9G05G07G08G09G13G14G17G20G30         
  22971209.766 6 120714551.583 6  94063300.02147  22971219.21147
  21722709.656 5 114153603.945 5  88950893.35448  21722718.93048
  23933498.117 2 125771222.384 2  98003715.93747  23933511.65247
  23092472.938 4 121351744.879 4  94559826.12348  23092485.93048
  23306778.242 4 122478090.313 4  95437404.39246  23306787.74246
  20099618.063 6 105624204.643 6  82304603.35648  20099627.17248
  23658230.461 4 124324994.386 4  96876543.88346  23658240.25446
  22410770.383 5 117769391.185 5  91768390.28347  22410780.33647
  20924023.602 6 109956436.106 6  85680379.10048  20924034.35548
 22  7  3 16 15  5.0000000  0  9G05G07G08G09G13G14G17G20G30         
  22971608.898 5 120716650.974 5  94064935.89347  22971618.57447
  21725568.336 5 114168628.680 5  88962600.92648  21725578.47348
  23935923.945 2 125783968.873 2  98013648.26347  23935937.80547
  23096320.633 4 121371963.567 4  94575580.92948  23096333.52348
  23304967.539 4 122468575.715 4  95429990.42746  23304976.78146
  20100280.398 6 105627686.549 6  82307316.52748  20100289.94948
  23656104.422 4 124313825.334 4  96867840.72246  23656114.27746
  22413267.336 5 117782511.583 5  91778613.97447  22413277.17247
  20925534.984 6 109964379.519 6  85686568.77348  20925545.90648
 22  7  3 16 15 10.0000000  0  9G05G07G08G09G13G14G17G20G30         
  22972011.523 5 120718765.259 5  94066583.39547  22972021.24247
  21728428.125 6 114183656.029 6  88974310.54948  21728437.79348
  23938353.891 3 125796728.735 3  98023591.00947  23938365.49647
  23100168.633 4 121392189.955 4  94591341.72748  23100182.88748
  23303156.586 4 122459062.035 4  95422577.18246  23303166.55546
  20100945.938 6 105631182.879 6  82310040.94048  20100955.31648
  23653979.102 3 124302655.783 3  96859137.19946  23653989.75046
  22415766.563 5 117795642.745 5  91788846.03647  22415776.22747
  20927047.469 6 109972327.072 6  85692761.67348  20927058.55148
 22  7  3 16 15 15.0000000  0  9G05G07G08G09G13G14G17G20G30         
  22972417.180 5 120720894.360 5  94068242.42847  22972425.98047
  21731288.648 6 114198685.985 6  88986022.18948  21731297.79748
  23940783.227 3 125809501.928 3  98033544.14147  23940796.54747
  23104019.273 4 121412424.037 4  94607108.53448  23104032.90648
  23301347.172 5 122449549.206 5  95415164.57646  23301355.91046
  20101614.203 6 105634693.627 6  82312776.59048  20101623.41848
  23651853.383 3 124291485.692 3  96850433.22346  23651863.39846
  22418267.258 5 117808784.664 5  91799086.49447  22418276.75047
  20928560.492 6 109980278.673 6  85698957.72548  20928571.39548
 22  7  3 16 15 20.0000000  0  9G05G07G08G09G13G14G17G20G30         
  22972824.352 5 120723038.336 5  94069913.04347  22972833.75047
  21734149.313 6 114213718.479 6  88997735.82548  21734158.34848
  23943215.914 3 125822288.595 3  98043507.77848  23943229.43448
  23107871.352 4 121432665.867 4  94622881.38448  23107884.23048
  23299537.016 5 122440037.306 5  95407752.69746  23299546.02046
  20102285.102 6 105638218.755 6  82315523.43848  20102293.73448
  23649728.055 3 124280314.995 3  96841728.78046  23649737.86746
  22420770.086 5 117821937.249 5  91809335.25147  22420779.65647
  20930074.578 6 109988234.371 6  85705156.97248  20930085.30148
 22  7  3 16 15 25.0000000  0  9G05G07G08G09G13G14G17G20G30         
  22973236.133 5 120725196.973 5  94071595.10447  22973244.83647
  21737010.508 6 114228753.295 6  89009451.27448  21737019.49248
  23945652.203 3 125835088.351 3  98053481.60448  23945665.14548
  23111724.813 4 121452915.135 4  94638660.01548  23111737.76648
  23297726.891 5 122430526.045 5  95400341.33746  23297735.95746
  20102958.523 6 105641758.052 6  82318281.33348  20102967.46548
  23647602.664 4 124269143.566 4  96833023.79046  23647611.98046
  22423275.625 5 117835100.358 5  91819592.22047  22423284.71147
  20931588.867 6 109996193.937 6  85711359.22948  20931600.08248
 22  7  3 16 15 30.0000000  0  9G05G07G08G09G13G14G17G20G30         
  22973649.078 5 120727369.988 5  94073288.36746  22973658.13346
  21739871.430 6 114243790.216 6  89021168.33848  21739881.06648
  23948090.844 3 125847901.105 3  98063465.57348  23948103.75448
  23115579.289 4 121473171.648 4  94654444.28748  23115591.90648
  23295917.086 5 122421015.166 5  95392930.25346  23295925.64546
  20103634.875 6 105645311.298 6  82321050.09348  20103643.51648
  23645476.164 3 124257971.137 3  96824318.01446  23645486.41446
  22425781.820 5 117848273.717 5  91829857.17447  22425791.24647
  20933104.625 6 110004157.100 6  85717564.28948  20933115.25448
 22  7  3 16 15 35.0000000  0  9G05G07G08G09G13G14G17G20G30         
  22974065.859 5 120729557.988 5  94074993.29747  22974074.48047
  21742734.016 6 114258829.826 6  89032887.50948  21742742.80148
  23950530.820 3 125860727.366 3  98073460.09047  23950544.43847
  23119436.398 4 121493436.012 4  94670234.69248  23119448.41448
  23294106.883 5 122411505.366 5  95385520.05046  23294116.21146
  20104313.781 6 105648879.079 6  82323830.17748  20104322.49648
  23643349.992 3 124246798.281 3  96815611.89146  23643360.14546
  22428290.000 6 117861457.891 6  91840130.54647  22428300.24647
  20934620.227 6 110012124.502 6  85723772.65548  20934631.49248
 22  7  3 16 15 40.0000000  0  9G05G07G08G09G13G14G17G20G30         
  22974484.477 5 120731760.780 5  94076709.76447  22974493.60247
  21745596.539 6 114273871.991 6  89044608.66949  21745605.41049
  23952974.688 3 125873567.078 3  98083465.03047  23952987.62547
  23123293.938 4 121513708.044 4  94686031.07448  23123305.79748
  23292298.117 5 122401996.350 5  95378110.39946  23292306.50446
  20104995.344 6 105652461.188 6  82326621.43048  20105004.05948
  23641223.648 4 124235624.879 4  96806905.36646  23641234.10246
  22430800.969 5 117874652.678 5  91850412.18047  22430811.16847
  20936137.484 6 110020095.921 6  85729984.15248  20936148.51648
 22  7  3 16 15 45.0000000  0  9G05G07G08G09G13G14G17G20G30         
  22974907.367 5 120733978.374 5  94078437.76347  22974915.85547
  21748459.164 6 114288916.615 6  89056331.74549  21748468.68849
  23955420.242 3 125886419.951 3  98093480.27648  23955433.43448
  23127152.656 4 121533987.669 4  94701833.35248  23127164.72748
  23290487.805 5 122392488.196 5  95370701.44946  23290497.26246
  20105679.648 6 105656057.610 6  82329423.84348  20105688.59448
  23639095.695 3 124224450.963 3  96798198.42046  23639107.37946
  22433313.914 5 117887858.058 5  91860702.08647  22433323.64147
  20937655.094 6 110028071.333 6  85736198.75548  20937666.09448
 22  7  3 16 15 50.0000000  0  9G05G07G08G09G13G14G17G20G30         
  22975332.219 5 120736210.953 5  94080177.43647  22975341.02747
  21751322.375 6 114303963.932 6  89068056.93149  21751331.74649
  23957868.758 3 125899286.379 3  98103506.06848  23957881.08248
  23131012.867 5 121554275.030 5  94717641.65948  23131025.61748
  23288679.031 5 122382981.046 5  95363293.28546  23288687.71146
  20106366.547 6 105659668.501 6  82332237.52148  20106375.59448
  23636970.438 3 124213276.729 3  96789491.23546  23636981.13746
  22435829.250 6 117901074.205 6  91871000.37447  22435838.68847
  20939173.602 6 110036050.866 6  85742416.57748  20939184.45348
 22  7  3 16 15 55.0000000  0  9G05G07G08G09G13G14G17G20G30         
  22975759.664 5 120738458.153 5  94081928.49947  22975769.02747
  21754186.641 6 114319013.597 6  89079783.92949  21754195.76649
  23960319.578 3 125912166.033 3  98113542.15047  23960332.35947
  23134874.828 4 121574569.855 4  94733455.80048  23134887.44548
  23286870.031 5 122373474.621 5  95355885.66846  23286879.06346
  20107056.594 6 105663293.562 6  82335062.24148  20107065.38348
  23634843.766 4 124202101.788 4  96780783.50046  23634854.46546
  22438345.922 5 117914300.894 5  91881306.88047  22438355.75047
  20940692.563 7 110044034.303 7  85748637.44748  20940703.22348
 22  7  3 16 16  0.0000000  0  9G05G07G08G09G13G14G17G20G30         
  22976190.305 5 120740719.912 5  94083690.91947  22976199.55547
  21757051.594 6 114334065.537 6  89091512.70549  21757060.22349
  23962772.406 3 125925058.656 3  98123588.35547  23962785.37547
  23138738.883 4 121594872.047 4  94749275.67148  23138750.84848
  23285061.422 5 122363968.819 5  95348478.55946  23285070.44146
  20107748.695 6 105666932.706 6  82337897.93848  20107758.08648
  23632717.789 4 124190926.146 4  96772075.21746  23632728.30146
  22440865.094 5 117927537.865 5  91891621.40247  22440874.32047
  20942212.453 7 110052021.509 7  85754861.24448  20942223.37548
 22  7  3 16 16  5.0000000  0  9G05G07G08G09G13G14G17G20G30         
  22976623.281 5 120742996.405 5  94085464.81846  22976632.41846
  21759916.313 6 114349120.038 6  89103243.47349  21759925.10949
  23965228.945 3 125937964.722 3  98133645.02347  23965240.87547
  23142604.398 4 121615181.836 4  94765101.47048  23142615.69548
  23283252.063 5 122354463.931 5  95341072.16446  23283261.30946
  20108444.477 6 105670586.176 6  82340744.80148  20108453.50048
  23630589.859 4 124179750.024 4  96763366.55746  23630601.43046
  22443386.227 5 117940785.405 5  91901944.16247  22443394.99247
  20943733.180 6 110060012.717 6  85761088.16348  20943744.39148
 22  7  3 16 16 10.0000000  0  9G05G07G08G09G13G14G17G20G30         
  22977059.461 5 120745287.789 5  94087250.31546  22977068.25046
  21762781.383 6 114364177.015 6  89114976.17449  21762790.08249
  23967687.336 3 125950883.998 3  98143711.99647  23967699.47347
  23146470.211 5 121635499.199 5  94780933.15548  23146482.28948
  23281443.844 5 122344959.941 5  95333666.45846  23281453.15646
  20109142.586 6 105674253.937 6  82343602.78848  20109150.91848
  23628464.125 4 124168573.407 4  96754657.51446  23628474.34046
  22445909.531 5 117954043.569 5  91912275.19747  22445917.97747
  20945254.773 6 110068007.925 6  85767318.19648  20945265.35948
 22  7  3 16 16 15.0000000  0  9G05G07G08G09G13G14G17G20G30         
  22977498.367 5 120747594.068 5  94089047.43346  22977506.98846
  21765647.289 6 114379236.564 6  89126710.88349  21765655.87549
  23970148.164 2 125963816.912 2  98153789.58547  23970159.65247
  23150337.375 4 121655824.286 4  94796770.85948  23150349.94548
  23279635.320 5 122335456.960 5  95326261.54246  23279644.37146
  20109842.734 6 105677936.122 6  82346472.02048  20109851.85948
  23626337.289 3 124157396.495 3  96745948.26246  23626347.30146
  22448434.391 5 117967312.400 5  91922614.53846  22448442.82846
  20946777.047 6 110076007.253 6  85773551.44148  20946787.87948
 22  7  3 16 16 20.0000000  0  9G05G07G08G09G13G14G17G20G30         
  22977939.406 5 120749915.321 5  94090856.19046  22977948.63746
  21768513.063 6 114394298.918 6  89138447.77448  21768522.28948
  23972613.500 3 125976763.300 3  98163877.70147  23972623.73447
  23154206.633 4 121676157.220 4  94812614.68148  23154219.00448
  23277826.984 5 122325955.155 5  95318857.54746  23277836.48846
  20110546.242 6 105681632.910 6  82349352.64048  20110555.52048
  23624209.836 4 124146219.386 4  96737238.82346  23624220.02046
  22450961.320 5 117980591.975 5  91932962.24846  22450969.88346
  20948300.055 6 110084010.873 6  85779788.03148  20948310.77748
 22  7  3 16 16 25.0000000  0  9G05G07G08G09G13G14G17G20G30         
  22978384.563 5 120752251.294 5  94092676.43446  22978392.91446
  21771380.336 6 114409363.770 6  89150186.62249  21771388.67249
  23975077.969 2 125989722.821 2  98173976.03047  23975089.80147
  23158078.398 4 121696497.664 4  94828464.35648  23158089.98848
  23276019.750 5 122316454.222 5  95311454.21846  23276028.64846
  20111252.188 6 105685343.908 6  82352244.32848  20111261.25048
  23622082.414 3 124135041.771 3  96728529.01346  23622093.48046
  22453490.250 5 117993882.007 5  91943318.12546  22453498.73446
  20949823.750 6 110092018.412 6  85786027.67648  20949834.46948
 22  7  3 16 16 30.0000000  0  9G05G07G08G09G13G14G17G20G30         
  22978831.164 5 120754601.703 5  94094507.92546  22978840.57846
  21774247.477 6 114424430.696 6  89161927.07449  21774255.96149
  23977546.008 2 126002695.189 2  98184084.39747  23977557.91847
  23161948.609 4 121716845.293 4  94844319.61048  23161961.68048
  23274211.617 5 122306953.845 5  95304051.34946  23274220.80146
  20111961.633 6 105689068.837 6  82355146.86948  20111970.24248
  23619956.055 3 124123863.402 3  96719818.60346  23619966.21146
  22456021.492 5 118007182.140 5  91953681.85446  22456029.60246
  20951348.227 6 110100029.580 6  85792270.14448  20951359.33648
 22  7  3 16 16 35.0000000  0  9G05G07G08G09G13G14G17G20G30         
  22979281.359 5 120756966.898 5  94096350.93646  22979290.27346
  21777114.938 6 114439500.172 6  89173669.52449  21777123.37949
  23980017.586 1 126015681.023 1  98194203.22847  23980029.08647
  23165822.898 4 121737200.530 4  94860180.82648  23165835.74248
  23272404.359 5 122297454.453 5  95296649.23246  23272413.10546
  20112672.781 6 105692808.138 6  82358060.60248  20112682.14848
  23617828.328 3 124112684.743 3  96711107.97246  23617838.90646
  22458554.180 5 118020492.865 5  91964053.83646  22458562.43846
  20952873.617 6 110108044.830 6  85798515.80148  20952884.56348
 22  7  3 16 16 40.0000000  0  9G05G07G08G09G13G14G17G20G30         
  22979734.320 5 120759346.956 5  94098205.51946  22979743.05546
  21779982.859 6 114454572.276 6  89185414.00949  21779991.11749
  23982490.461 1 126028680.208 1  98204332.44347  23982502.73047
  23169697.922 4 121757563.477 4  94876048.03647  23169710.24647
  23270596.438 5 122287956.146 5  95289247.94946  23270605.51246
  20113387.516 6 105696561.871 6  82360985.58548  20113396.23448
  23615701.953 3 124101505.801 3  96702397.10746  23615711.35246
  22461089.180 5 118033814.205 5  91974434.08546  22461097.43446
  20954399.906 6 110116064.208 6  85804764.67048  20954410.40648
 22  7  3 16 16 45.0000000  0  9G05G07G08G09G13G14G17G20G30         
  22980189.883 5 120761741.703 5  94100071.57246  22980198.63746
  21782850.797 6 114469646.712 6  89197160.32349  21782859.70749
  23984967.297 2 126041692.483 2  98214471.90047  23984979.53547
  23173573.898 4 121777933.819 4  94891921.00048  23173586.51648
  23268789.320 5 122278458.640 5  95281847.30646  23268798.07046
  20114104.289 6 105700329.752 6  82363921.60248  20114112.98048
  23613574.063 3 124090326.349 3  96693685.83246  23613584.01646
  22463626.211 5 118047145.816 5  91984822.35646  22463634.34446
  20955926.500 6 110124087.461 6  85811016.55648  20955937.29748
 22  7  3 16 16 50.0000000  0  9G05G07G08G09G13G14G17G20G30         
  22980648.508 5 120764151.172 5  94101949.08846  22980657.56646
  21785720.383 6 114484723.555 6  89208908.48749  21785729.15249
  23987445.172 2 126054717.958 2  98224621.62447  23987458.44947
  23177451.961 4 121798311.558 4  94907799.74948  23177464.22748
  23266982.500 5 122268961.950 5  95274447.26446  23266990.96946
  20114823.820 6 105704111.790 6  82366868.63148  20114833.19548
  23611446.523 3 124079146.419 3  96684974.20046  23611456.77746
  22466164.070 5 118060487.815 5  91995218.71446  22466173.09846
  20957453.781 6 110132114.550 6  85817271.42248  20957464.57448
 22  7  3 16 16 55.0000000  0  9G05G07G08G09G13G14G17G20G30         
  22981109.914 5 120766575.633 5  94103838.27046  22981118.49646
  21788590.078 6 114499803.131 6  89220658.79648  21788598.48048
  23989928.211 2 126067756.952 2  98234781.87347  23989939.85547
  23181331.523 4 121818697.108 4  94923684.58048  23181343.37948
  23265175.281 5 122259466.452 5  95267048.19646  23265184.35246
  20115546.461 6 105707908.371 6  82369827.00748  20115555.32048
  23609318.719 3 124067966.353 3  96676262.46446  23609329.40646
  22468705.789 5 118073840.563 5  92005623.43746  22468713.85246
  20958982.359 6 110140145.901 6  85823529.61848  20958993.34448
 22  7  3 16 17  0.0000000  0  9G05G07G08G09G13G14G17G20G30         
  22981573.813 5 120769015.065 5  94105739.13746  22981582.53146
  21791459.969 6 114514885.352 6  89232411.16148  21791468.89548
  23992411.805 2 126080809.316 2  98244952.54747  23992424.43447
  23185212.484 3 121839090.288 3  94939575.36248  23185224.64148
  23263368.453 5 122249972.105 5  95259649.99346  23263376.73446
  20116271.383 6 105711719.370 6  82372796.61348  20116280.77348
  23607192.344 3 124056786.222 3  96667550.66746  23607202.05146
  22471248.086 5 118087203.851 5  92016036.40046  22471256.64846
  20960511.203 7 110148181.410 7  85829791.05648  20960522.36748
 22  7  3 16 17  5.0000000  0  9G05G07G08G09G13G14G17G20G30         
  22982041.234 5 120771469.228 5  94107651.44746  22982049.39846
  21794330.320 6 114529970.093 6  89244165.50148  21794338.94548
  23994898.328 2 126093874.980 2  98255133.57647  23994910.46947
  23189094.875 4 121859491.016 4  94955472.02148  23189106.80148
  23261561.953 5 122240478.750 5  95252252.59246  23261570.20346
  20116999.336 6 105715544.703 6  82375777.38548  20117008.91048
  23605064.313 3 124045605.648 3  96658838.55146  23605074.24646
  22473794.133 5 118100577.604 5  92026457.48446  22473801.53146
  20962040.703 6 110156220.912 6  85836055.60148  20962051.94148
 22  7  3 16 17 10.0000000  0  9G05G07G08G09G13G14G17G20G30         
  22982511.484 5 120773938.218 5  94109575.35447  22982519.41847
  21797201.063 6 114545057.239 6  89255921.71248  21797210.18848
  23997386.719 2 126106953.759 2  98265324.84047  23997399.12547
  23192977.484 4 121879899.213 4  94971374.50448  23192989.94148
  23259756.047 5 122230986.345 5  95244855.89846  23259763.60946
  20117729.664 6 105719384.201 6  82378769.20048  20117739.43048
  23602936.008 3 124034424.739 3  96650126.15146  23602946.52746
  22476340.547 5 118113961.700 5  92036886.63546  22476348.36746
  20963571.984 7 110164264.333 7  85842323.19948  20963582.53148
 22  7  3 16 17 15.0000000  0  9G05G07G08G09G13G14G17G20G30         
  22982983.352 5 120776421.975 5  94111510.73946  22982991.75846
  21800073.008 6 114560146.837 6  89267679.83649  21800081.62149
  23999878.813 2 126120045.663 2  98275526.30547  23999891.00847
  23196863.344 4 121900314.858 4  94987282.79148  23196875.48448
  23257949.742 5 122221494.965 5  95237460.00846  23257958.03946
  20118463.508 6 105723237.980 6  82381772.13948  20118472.75448
  23600808.500 3 124023243.521 3  96641413.49846  23600818.95346
  22478889.992 5 118127356.192 5  92047323.90046  22478897.24646
  20965103.258 7 110172311.740 7  85848593.91348  20965113.76248
 22  7  3 16 17 20.0000000  0  9G05G07G08G09G13G14G17G20G30         
  22983459.508 5 120778920.411 5  94113457.58446  22983467.33246
  21802944.859 6 114575238.882 6  89279439.85549  21802953.92649
  24002371.508 2 126133150.846 2  98285738.13547  24002384.46947
  23200749.547 4 121920737.963 4  95003196.89148  23200761.79748
  23256143.961 5 122212004.441 5  95230064.82046  23256151.52346
  20119199.297 6 105727105.967 6  82384786.15448  20119208.67648
  23598680.453 4 124012061.896 4  96632700.57246  23598690.97346
  22481440.453 5 118140761.009 5  92057769.20146  22481448.39146
  20966635.219 7 110180363.066 7  85854867.67448  20966645.95348
 22  7  3 16 17 25.0000000  0  9G05G07G08G09G13G14G17G20G30         
  22983937.539 5 120781433.180 5  94115415.59546  22983945.45346
  21805817.328 6 114590333.032 6  89291201.52748  21805826.05148
  24004868.648 3 126146268.790 3  98295959.91347  24004881.27047
  23204637.320 4 121941168.201 4  95019116.54548  23204649.41048
  23254337.328 5 122202514.571 5  95222670.12146  23254345.75046
  20119938.305 6 105730987.798 6  82387810.96148  20119947.11748
  23596552.742 3 124000879.636 3  96623987.10746  23596563.49246
  22483992.773 5 118154175.799 5  92068222.28246  22484000.96546
  20968168.266 7 110188417.984 7  85861144.22948  20968178.96548
 22  7  3 16 17 30.0000000  0  9G05G07G08G09G13G14G17G20G30         
  22984418.672 5 120783960.705 5  94117385.12346  22984426.56346
  21808689.531 6 114605429.615 6  89302965.09548  21808698.63748
  24007365.930 2 126159400.016 2  98306192.02347  24007379.60547
  23208526.766 4 121961605.882 4  95035041.99548  23208538.27348
  23252531.750 5 122193025.728 5  95215276.21846  23252539.83246
  20120679.797 6 105734883.889 6  82390846.87548  20120688.37148
  23594424.742 4 123989697.117 4  96615273.45646  23594435.22746
  22486548.148 5 118167600.903 5  92078683.39546  22486555.52346
  20969701.594 7 110196476.864 7  85867423.87548  20969712.32848
 22  7  3 16 17 35.0000000  0  9G05G07G08G09G13G14G17G20G30         
  22984901.594 5 120786503.055 5  94119366.17646  22984910.44146
  21811562.977 6 114620528.654 6  89314730.57649  21811571.75849
  24009867.125 2 126172544.404 2  98316434.39147  24009880.63747
  23212416.570 4 121982051.024 4  95050973.25748  23212429.52348
  23250726.844 5 122183537.922 5  95207883.12346  23250734.94146
  20121423.695 6 105738794.248 6  82393893.90648  20121433.24648
  23592296.180 4 123978514.312 4  96606559.58146  23592307.16046
  22489104.781 5 118181036.396 5  92089152.61446  22489112.34046
  20971235.664 6 110204539.725 6  85873706.62148  20971246.88348
 22  7  3 16 17 40.0000000  0  9G05G07G08G09G13G14G17G20G30         
  22985388.391 5 120789059.700 5  94121358.35746  22985397.44946
  21814436.422 6 114635629.667 6  89326497.59749  21814445.59449
  24012371.164 1 126185701.570 1  98326686.71947  24012384.70347
  23216308.148 4 122002503.113 4  95066909.94348  23216321.38348
  23248921.547 5 122174050.648 5  95200490.44746  23248929.46946
  20122170.430 6 105742718.354 6  82396951.64448  20122179.40248
  23590168.227 4 123967330.775 4  96597845.14446  23590179.53946
  22491662.734 5 118194481.676 5  92099629.43147  22491670.89147
  20972770.703 7 110212606.071 7  85879992.09548  20972781.83248
 22  7  3 16 17 45.0000000  0  9G05G07G08G09G13G14G17G20G30         
  22985877.203 5 120791630.928 5  94123361.91046  22985886.33646
  21817310.766 6 114650732.952 6  89338266.37848  21817319.44548
  24014877.914 2 126198871.652 2  98336949.09947  24014890.26647
  23220201.930 4 122022962.497 4  95082852.30348  23220214.87548
  23247115.758 5 122164564.268 5  95193098.47446  23247124.34046
  20122920.375 6 105746656.511 6  82400020.34148  20122929.25848
  23588040.141 4 123956146.895 4  96589130.44146  23588050.62546
  22494223.406 5 118207937.121 5  92110114.19946  22494231.67646
  20974306.250 7 110220676.188 7  85886280.48848  20974317.50048
 22  7  3 16 17 50.0000000  0  9G05G07G08G09G13G14G17G20G30         
  22986369.219 5 120794216.876 5  94125376.91746  22986379.14146
  21820184.875 6 114665838.783 6  89350037.14449  21820194.39549
  24017386.344 1 126212054.875 1  98347221.74347  24017398.86747
  23224096.984 4 122043429.289 4  95098800.43148  23224109.68048
  23245310.531 5 122155078.824 5  95185707.21246  23245319.16046
  20123671.859 6 105750608.832 6  82403100.06548  20123681.30548
  23585912.266 4 123944962.674 4  96580415.44946  23585922.35246
  22496786.094 5 118221402.829 5  92120606.94446  22496793.76646
  20975842.703 6 110228750.223 6  85892571.94448  20975854.03548
 22  7  3 16 17 55.0000000  0  9G05G07G08G09G13G14G17G20G30         
  22986863.773 5 120796817.736 5  94127403.57947  22986873.87947
  21823060.469 6 114680947.159 6  89361809.90248  21823069.14848
  24019897.953 2 126225251.450 2  98357504.77447  24019910.20347
  23227992.969 5 122063903.691 5  95114754.49948  23228005.76648
  23243506.016 5 122145594.595 5  95178316.92146  23243515.03946
  20124426.938 6 105754575.555 6  82406191.01848  20124436.39848
  23583784.289 4 123933778.445 4  96571700.48646  23583794.07446
  22499350.742 5 118234878.999 5  92131107.84946  22499358.39146
  20977379.961 6 110236828.356 6  85898866.58948  20977391.34448
 22  7  3 16 18  0.0000000  0  9G05G07G08G09G13G14G17G20G30         
  22987362.344 5 120799433.598 5  94129441.90446  22987371.80946
  21825935.422 6 114696058.109 6  89373584.66449  21825944.75849
  24022411.445 1 126238461.273 1  98367798.14547  24022423.73847
  23231890.078 5 122084385.593 5  95130714.39748  23231903.02048
  23241701.313 5 122136111.565 5  95170927.56346  23241710.79346
  20125184.367 6 105758556.620 6  82409293.13948  20125193.83248
  23581655.781 4 123922594.136 4  96562985.45346  23581665.57846
  22501917.672 5 118248365.578 5  92141616.85146  22501924.71146
  20978918.320 7 110244910.595 7  85905164.43848  20978929.63348
 22  7  3 16 18  5.0000000  0  9G05G07G08G09G13G14G17G20G30         
  22987863.086 5 120802064.048 5  94131491.59047  22987872.26647
  21828811.758 6 114711171.312 6  89385361.18548  21828820.84848
  24024928.414 2 126251684.193 2  98378101.72547  24024939.80547
  23235789.008 5 122104874.789 5  95146679.97948  23235802.34048
  23239897.141 5 122126629.366 5  95163538.82946  23239906.37146
  20125944.461 6 105762551.722 6  82412406.20348  20125953.86748
  23579527.109 4 123911409.490 4  96554270.13646  23579537.26246
  22504485.781 5 118261862.292 5  92152133.77646  22504492.91846
  20980456.914 7 110252996.633 7  85911465.24448  20980467.89848
 22  7  3 16 18 10.0000000  0  9G05G07G08G09G13G14G17G20G30         
  22988366.391 5 120804708.951 5  94133552.56246  22988375.51246
  21831688.211 6 114726286.592 6  89397139.32948  21831697.17248
  24027445.531 1 126264919.989 1  98388415.33147  24027458.19947
  23239689.352 5 122125370.987 5  95162651.03048  23239702.58248
  23238092.742 5 122117147.977 5  95156150.74446  23238102.03546
  20126707.484 6 105766560.727 6  82415530.10248  20126716.86348
  23577398.609 4 123900224.346 4  96545554.45046  23577408.72746
  22507056.156 5 118275368.947 5  92162658.43846  22507063.96946
  20981996.141 7 110261086.263 7  85917768.84548  20982007.29348
 22  7  3 16 18 15.0000000  0  9G05G07G08G09G13G14G17G20G30         
  22988872.125 5 120807368.202 5  94135624.70247  22988881.81647
  21834564.289 6 114741403.948 6  89408919.08248  21834574.02048
  24029967.797 2 126278168.589 2  98398738.92747  24029979.49247
  23243592.055 4 122145874.277 4  95178627.59248  23243604.09048
  23236289.008 5 122107667.290 5  95148763.19146  23236297.98046
  20127473.117 6 105770583.552 6  82418664.76548  20127482.16848
  23575270.414 4 123889038.690 4  96536838.34446  23575280.09846
  22509627.750 5 118288885.458 5  92173190.77246  22509635.78146
  20983536.523 6 110269179.491 6  85924075.25548  20983547.15248
 22  7  3 16 18 20.0000000  0  9G05G07G08G09G13G14G17G20G30         
  22989380.883 5 120810042.258 5  94137708.38747  22989391.06647
  21837442.320 6 114756523.807 6  89420700.78348  21837451.40648
  24032491.617 2 126291430.204 2  98409072.66847  24032503.25847
  23247493.984 5 122166385.068 5  95194610.00648  23247507.16048
  23234484.375 5 122098187.712 5  95141376.50146  23234494.00046
  20128241.570 6 105774620.653 6  82421810.55548  20128250.46548
  23573142.125 4 123877852.957 4  96528122.21946  23573151.52346
  22512201.820 5 118302412.240 5  92183731.10547  22512209.92247
  20985077.352 6 110277276.728 6  85930384.79248  20985088.31648
 22  7  3 16 18 25.0000000  0  9G05G07G08G09G13G14G17G20G30         
  22989893.305 5 120812730.869 5  94139803.42047  22989903.13347
  21840319.125 6 114771645.827 6  89432484.17248  21840328.82048
  24035016.844 2 126304704.657 2  98419416.41547  24035029.17247
  23251398.203 5 122186902.895 5  95210597.89648  23251411.21148
  23232681.289 5 122088708.938 5  95133990.46846  23232690.18446
  20129012.297 6 105778671.672 6  82424967.18348  20129021.80948
  23571013.430 4 123866666.814 4  96519405.72946  23571022.71946
  22514777.906 5 118315948.932 5  92194279.18146  22514786.20746
  20986619.383 7 110285377.614 7  85936697.16948  20986630.08248
 22  7  3 16 18 30.0000000  0  9G05G07G08G09G13G14G17G20G30         
  22990407.563 5 120815434.239 5  94141909.95047  22990417.65647
  21843197.758 6 114786770.302 6  89444269.46948  21843207.05948
  24037544.367 1 126317992.264 1  98429770.39047  24037558.09047
  23255303.938 5 122207428.104 5  95226591.54848  23255316.84448
  23230877.164 5 122079231.318 5  95126605.28946  23230886.78146
  20129785.953 6 105782736.869 6  82428134.86848  20129794.91848
  23568884.648 4 123855480.552 4  96510689.17946  23568893.66446
  22517355.922 5 118329495.830 5  92204835.20247  22517364.50847
  20988161.141 7 110293482.437 7  85943012.62448  20988171.96148
 22  7  3 16 18 35.0000000  0  9G05G07G08G09G13G14G17G20G30         
  22990924.852 5 120818152.031 5  94144027.71847  22990934.55147
  21846076.063 5 114801896.863 5  89456056.39148  21846085.30948
  24040076.164 1 126331292.738 1  98440134.38947  24040088.55147
  23259211.883 4 122227960.396 4  95242590.72148  23259224.54748
  23229074.727 5 122069754.474 5  95119220.73246  23229083.09846
  20130562.664 6 105786815.976 6  82431313.39448  20130571.41848
  23566756.250 4 123844293.898 4  96501972.29846  23566764.98446
  22519935.352 5 118343052.656 5  92215398.95746  22519943.82046
  20989704.680 7 110301590.908 7  85949330.90948  20989715.12148
 22  7  3 16 18 40.0000000  0  9G05G07G08G09G13G14G17G20G30         
  22991444.578 5 120820884.394 5  94146156.83747  22991454.88747
  21848955.531 6 114817025.712 6  89467845.10248  21848964.47748
  24042610.234 1 126344606.134 1  98450508.47347  24042622.15647
  23263121.203 4 122248499.848 4  95258595.47948  23263132.93048
  23227270.727 5 122060278.560 5  95111836.89146  23227279.78146
  20131341.273 6 105790909.075 6  82434502.81348  20131350.02048
  23564626.773 5 123833106.947 5  96493255.17946  23564636.40646
  22522517.102 5 118356619.454 5  92225970.48447  22522525.48047
  20991247.758 7 110309703.158 7  85955652.13848  20991259.10248
 22  7  3 16 18 45.0000000  0  9G05G07G08G09G13G14G17G20G30         
  22991967.383 5 120823631.225 5  94148297.21747  22991977.54347
  21851834.477 6 114832156.741 6  89479635.50848  21851843.45348
  24045145.391 1 126357932.417 1  98460892.59147  24045158.34847
  23267031.016 4 122269046.431 4  95274605.78348  23267043.09048
  23225467.719 5 122050803.494 5  95104453.75346  23225476.83646
  20132122.500 6 105795016.100 6  82437703.08748  20132131.75048
  23562498.273 4 123821919.649 4  96484537.81646  23562507.39846
  22525101.031 5 118370196.197 5  92236549.76647  22525109.34847
  20992792.313 7 110317819.058 7  85961976.22048  20992803.46948
 22  7  3 16 18 50.0000000  0  9G05G07G08G09G13G14G17G20G30         
  22992493.383 5 120826392.783 5  94150449.08947  22992502.24247
  21854714.258 6 114847290.224 6  89491427.81748  21854723.34448
  24047682.945 1 126371271.73411  98471286.86357  24047696.46547
  23270941.961 5 122289600.279 5  95290621.73948  23270954.18048
  23223665.484 4 122041329.507 4  95097071.41646  23223673.78546
  20132907.266 6 105799137.242 6  82440914.35848  20132915.89548
  23560369.336 4 123810732.199 4  96475820.32446  23560378.28946
  22527686.531 5 118383783.033 5  92247136.90446  22527694.59446
  20994337.313 7 110325938.855 7  85968303.32748  20994348.83248
 22  7  3 16 18 55.0000000  0  9G05G07G08G09G13G14G17G20G30         
  22993021.039 5 120829168.604 5  94152612.09847  22993030.33247
  21857594.531 6 114862425.716 6  89503221.70448  21857603.55548
  24050223.555 1 126384623.91511  98481691.17257  24050237.37147
  23274854.391 4 122310161.074 4  95306643.11548  23274866.79748
  23221862.078 4 122031856.266 4  95089689.68646  23221871.16046
  20133693.328 6 105803272.170 6  82444136.38148  20133702.47348
  23558240.125 5 123799544.330 5  96467102.52246  23558249.56346
  22530273.383 5 118397379.617 5  92257731.63247  22530281.79747
  20995883.242 7 110334062.190 7  85974633.20548  20995894.52348
 22  7  3 16 19  0.0000000  0  9G05G07G08G09G13G14G17G20G30         
  22993551.891 5 120831959.122 5  94154786.50447  22993561.50847
  21860475.859 6 114877563.438 6  89515017.32048  21860484.12548
  24052765.484 1 126397988.869 1  98492105.43747  24052780.31647
  23278767.508 4 122330729.065 4  95322670.10248  23278780.62148
  23220058.930 4 122022384.033 4  95082308.75446  23220068.42246
  20134483.094 6 105807421.088 6  82447369.30448  20134492.10548
  23556111.078 5 123788356.236 5  96458384.50946  23556120.53146
  22532862.711 5 118410986.138 5  92268334.11347  22532871.16447
  20997429.508 7 110342189.260 7  85980965.98248  20997441.29748
 22  7  3 16 19  5.0000000  0  9G05G07G08G09G13G14G17G20G30         
  22994085.328 5 120834763.757 5  94156971.95547  22994095.18047
  21863356.406 6 114892702.990 6  89526814.36648  21863365.01648
  24055311.766 1 126411366.193 1  98502529.34347  24055326.21147
  23282684.281 4 122351303.707 4  95338702.25548  23282695.68848
  23218257.266 4 122012912.258 4  95074928.12746  23218266.22746
  20135275.094 6 105811583.516 6  82450612.74748  20135284.06648
  23553982.797 4 123777167.463 4  96449665.99246  23553991.24246
  22535453.656 5 118424602.149 5  92278943.99746  22535462.47746
  20998976.883 6 110350319.629 6  85987301.33748  20998987.69148
 22  7  3 16 19 10.0000000  0  9G05G07G08G09G13G14G17G20G30         
  22994622.406 5 120837582.998 5  94159168.76847  22994631.82847
  21866237.891 6 114907844.744 6  89538613.12748  21866246.14848
  24057859.836 1 126424756.388 1  98512963.26547  24057874.28547
  23286600.734 4 122371885.508 4  95354740.00848  23286612.14548
  23216454.883 4 122003441.533 4  95067548.38246  23216463.21146
  20136069.969 6 105815759.979 6  82453867.13448  20136079.07848
  23551853.484 4 123765978.521 4  96440947.33446  23551862.12546
  22538046.602 5 118438228.090 5  92289561.59247  22538055.17247
  21000524.758 6 110358453.761 6  85993639.61948  21000535.84048
 22  7  3 16 19 15.0000000  0  9G05G07G08G09G13G14G17G20G30         
  22995161.125 5 120840416.830 5  94161376.94146  22995170.55546
  21869119.047 6 114922988.762 6  89550413.63248  21869128.52748
  24060409.992 1 126438159.661 1  98523407.37447  24060424.91047
  23290517.813 4 122392474.472 4  95370783.34948  23290529.96148
  23214653.055 4 121993971.824 4  95060169.35646  23214661.52046
  20136866.727 6 105819950.413 6  82457132.40748  20136876.42248
  23549723.320 5 123754789.409 5  96432228.56046  23549733.14846
  22540641.906 5 118451863.938 5  92300186.93047  22540650.44947
  21002073.008 6 110366591.671 6  85999980.83948  21002084.33648
 22  7  3 16 19 20.0000000  0  9G05G07G08G09G13G14G17G20G30         
  22995703.078 5 120843264.948 5  94163596.27146  22995712.59846
  21872002.141 6 114938134.744 6  89562215.69148  21872010.44148
  24062962.453 1 126451575.647 1  98533861.39946  24062977.95746
  23294436.734 4 122413070.313 4  95386832.04648  23294449.12548
  23212850.789 4 121984502.807 4  95052790.92146  23212859.48846
  20137667.344 7 105824154.570 7  82460408.36448  20137676.52748
  23547594.773 5 123743599.892 5  96423509.45146  23547604.07046
  22543238.320 5 118465509.444 5  92310819.80847  22543246.73047
  21003622.727 6 110374733.059 6  86006324.77548  21003633.80148
 22  7  3 16 19 25.0000000  0  9G05G07G08G09G13G14G17G20G30         
  22996248.695 5 120846128.023 5  94165827.22846  22996257.35246
  21874884.047 6 114953283.277 6  89574019.72948  21874893.26248
  24065518.883 1 126465004.710 1  98544325.60547  24065533.74247
  23298358.203 4 122433673.626 4  95402886.55847  23298369.31347
  23211049.031 4 121975035.170 4  95045413.55046  23211058.36746
  20138469.656 7 105828373.040 7  82463695.48248  20138478.97748
  23545465.188 5 123732410.475 5  96414790.43946  23545474.67246
  22545836.297 5 118479165.179 5  92321460.60947  22545845.39147
  21005172.625 6 110382878.530 6  86012671.89648  21005183.77348
 22  7  3 16 19 30.0000000  0  9G05G07G08G09G13G14G17G20G30         
  22996795.375 5 120849005.527 5  94168069.45746  22996804.57446
  21877767.305 6 114968434.017 6  89585825.49448  21877776.30548
  24068077.133 1 126478446.689 1  98554799.89647  24068091.75847
  23302279.398 4 122454283.938 4  95418946.52448  23302291.81348
  23209247.727 4 121965568.577 4  95038036.97946  23209256.94546
  20139275.250 7 105832605.442 7  82466993.45648  20139284.46548
  23543335.492 4 123721220.893 4  96406071.28946  23543345.56646
  22548437.250 5 118492830.745 5  92332109.11847  22548446.20347
  21006723.617 6 110391027.705 6  86019021.90548  21006734.63348
 22  7  3 16 19 35.0000000  0  9G05G07G08G09G13G14G17G20G30         
  22997346.086 5 120851897.978 5  94170323.29546  22997355.07446
  21880651.063 6 114983587.347 6  89597633.27649  21880659.96949
  24070638.484 1 126491901.868 1  98565284.43947  24070652.34847
  23306204.102 5 122474901.764 5  95435012.33648  23306215.59448
  23207446.320 5 121956103.255 5  95030661.41346  23207455.79746
  20140083.469 6 105836852.100 6  82470302.53948  20140092.88348
  23541207.031 5 123710031.490 5  96397352.25547  23541216.49647
  22551039.469 5 118506506.533 5  92342765.55647  22551048.57447
  21008274.789 7 110399180.955 7  86025375.08148  21008286.13748
 22  7  3 16 19 40.0000000  0  9G05G07G08G09G13G14G17G20G30         
  22997899.086 5 120854805.132 5  94172588.61246  22997908.64846
  21883535.094 6 114998742.993 6  89609442.86249  21883544.13749
  24073199.594 1 126505369.962 1  98575779.07246  24073215.44946
  23310128.266 5 122495526.758 5  95451083.74548  23310139.97348
  23205645.039 5 121946639.030 5  95023286.69046  23205654.92646
  20140894.547 6 105841112.836 6  82473622.58948  20140903.52748
  23539077.789 5 123698842.083 5  96388633.24246  23539086.99246
  22553643.430 5 118520192.196 5  92353429.70647  22553653.24647
  21009827.336 6 110407338.020 6  86031731.23848  21009838.50448
 22  7  3 16 19 45.0000000  0  9G05G07G08G09G13G14G17G20G30         
  22998454.570 5 120857727.091 5  94174865.46046  22998464.39146
  21886419.813 6 115013901.075 6  89621254.34748  21886428.60948
  24075765.930 1 126518851.032 1  98586283.77246  24075780.90646
  23314054.734 4 122516158.985 4  95467160.78948  23314066.26648
  23203844.898 5 121937176.100 5  95015912.97546  23203854.20746
  20141707.961 6 105845387.724 6  82476953.66648  20141717.07048
  23536948.664 4 123687652.771 4  96379914.28246  23536957.98446
  22556250.008 5 118533887.912 5  92364101.68347  22556259.39547
  21011380.227 6 110415499.040 6  86038090.47248  21011391.30548
 22  7  3 16 19 50.0000000  0  9G05G07G08G09G13G14G17G20G30         
  22999013.938 5 120860663.526 5  94177153.58347  22999023.05547
  21889304.859 6 115029061.289 6  89633067.49348  21889313.16448
  24078331.609 1 126532344.965 1  98596798.56046  24078348.93046
  23317981.508 5 122536798.264 5  95483243.32748  23317994.17248
  23202044.625 4 121927714.146 4  95008540.03646  23202053.59046
  20142524.078 6 105849676.459 6  82480295.53048  20142532.82048
  23534819.508 4 123676463.290 4  96371195.19246  23534828.77746
  22558858.359 5 118547593.386 5  92374781.26447  22558867.31347
  21012933.531 6 110423663.683 6  86044452.52948  21012944.54348
 22  7  3 16 19 55.0000000  0  9G05G07G08G09G13G14G17G20G30         
  22999575.359 5 120863614.921 5  94179453.37446  22999585.03146
  21892189.781 6 115044224.188 6  89644882.74348  21892198.68848
  24080902.539 1 126545852.223 1  98607323.68446  24080919.03946
  23321911.039 4 122557445.048 4  95499331.71748  23321923.14848
  23200244.203 4 121918253.664 4  95001168.23946  23200252.98846
  20143343.086 6 105853979.583 6  82483648.60248  20143352.05148
  23532689.469 4 123665274.151 4  96362476.40347  23532699.42647
  22561468.742 5 118561309.112 5  92385468.84947  22561477.68447
  21014488.289 6 110431832.467 6  86050817.82048  21014499.11748
 22  7  3 16 20  0.0000000  0  9G05G07G08G09G13G14G17G20G30         
  23000139.969 5 120866580.811 5  94181764.47546  23000149.52746
  21895075.648 6 115059389.208 6  89656699.64648  21895084.61348
  24083474.109 1 126559372.189 1  98617858.71547  24083491.37147
  23325841.242 5 122578098.803 5  95515425.53948  23325853.55548
  23198443.539 3 121908794.188 3  94993797.20446  23198453.04346
  20144164.258 6 105858296.571 6  82487012.49048  20144173.22748
  23530560.906 5 123654084.891 5  96353757.49946  23530570.41846
  22564080.148 5 118575034.576 5  92396164.00147  22564089.37547
  21016043.289 6 110440004.970 6  86057186.00348  21016054.53948
 22  7  3 16 20  5.0000000  0  9G05G07G08G09G13G14G17G20G30         
  23000706.594 5 120869561.047 5  94184086.72447  23000716.42647
  21897961.547 6 115074556.271 6  89668518.12948  21897970.95748
  24086049.367 1 126572904.866 1  98628403.64146  24086067.21546
  23329773.219 4 122598759.460 4  95531524.73948  23329785.77348
  23196643.492 4 121899335.589 4  94986426.89946  23196653.02346
  20144988.250 6 105862627.293 6  82490387.07848  20144997.44148
  23528430.914 5 123642895.376 5  96345038.39046  23528440.77746
  22566693.820 5 118588769.622 5  92406866.62747  22566702.94547
  21017599.352 6 110448180.980 6  86063556.92748  21017610.27348
 22  7  3 16 20 10.0000000  0  9G05G07G08G09G13G14G17G20G30         
  23001276.219 5 120872555.920 5  94186420.41547  23001286.49647
  21900848.344 6 115089725.545 6  89680338.33948  21900857.41848
  24088626.898 1 126586450.328 1  98638958.53046  24088644.27746
  23333706.047 5 122619427.162 5  95547629.42448  23333718.35548
  23194844.227 3 121889878.035 3  94979057.37946  23194853.35546
  20145815.594 6 105866971.946 6  82493772.52148  20145824.60948
  23526301.852 5 123631705.802 5  96336319.24847  23526311.30147
  22569309.930 5 118602514.464 5  92417576.89247  22569318.73047
  21019155.953 6 110456360.732 6  86069930.75648  21019166.62148
 22  7  3 16 20 15.0000000  0  9G05G07G08G09G13G14G17G20G30         
  23001850.125 5 120875565.902 5  94188765.85947  23001859.77047
  21903735.352 6 115104897.740 6  89692160.83048  21903744.50848
  24091208.469 1 126600009.164 1  98649523.87146  24091224.73446
  23337640.188 5 122640102.553 5  95563740.11048  23337652.58648
  23193044.914 4 121880422.133 4  94971689.15246  23193053.93046
  20146644.906 6 105871331.194 6  82497169.33448  20146653.82448
  23524172.234 5 123620516.861 5  96327600.58247  23524181.95347
  22571927.344 5 118616269.666 5  92428295.22647  22571936.33647
  21020713.398 6 110464544.820 6  86076307.97648  21020723.94148
 22  7  3 16 20 20.0000000  0  9G05G07G08G09G13G14G17G20G30         
  23002425.531 4 120878591.044 4  94191123.11447  23002435.27747
  21906623.234 6 115120072.616 6  89703985.39848  21906632.32448
  24093791.016 1 126613581.424 1  98660099.65847  24093807.10547
  23341575.242 4 122660785.458 4  95579856.64548  23341588.74648
  23191245.641 3 121870967.979 3  94964322.29246  23191255.54746
  20147476.805 6 105875704.853 6  82500577.36849  20147486.44949
  23522043.234 5 123609328.368 5  96318882.27846  23522052.94946
  22574546.500 5 118630035.169 5  92439021.58947  22574555.66847
  21022271.242 6 110472733.162 6  86082688.49548  21022282.02748
 22  7  3 16 20 25.0000000  0  9G05G07G08G09G13G14G17G20G30         
  23003003.922 4 120881631.114 4  94193492.00147  23003013.64547
  21909511.383 6 115135250.085 6  89715811.98548  21909520.46148
  24096376.758 1 126627166.866 1  98670685.71947  24096392.39847
  23345513.039 4 122681475.807 4  95595978.97948  23345525.99248
  23189446.938 4 121861515.217 4  94956956.47845  23189455.61745
  20148312.320 6 105880092.810 6  82503996.54848  20148321.70748
  23519914.328 5 123598140.254 5  96310164.28646  23519924.19146
  22577167.164 5 118643810.719 5  92449755.78047  22577177.01247
  21023830.633 6 110480925.617 6  86089072.22748  21023840.91048
 22  7  3 16 20 30.0000000  0  9G05G07G08G09G13G14G17G20G30         
  23003585.391 5 120884685.797 5  94195872.29647  23003594.74247
  21912400.047 6 115150429.806 6  89727640.33348  21912409.30148
  24098966.250 1 126640764.958 1  98681281.63547  24098980.02047
  23349451.727 4 122702173.105 4  95612106.74248  23349464.66048
  23187649.039 4 121852063.534 4  94949591.55545  23187656.94145
  20149150.008 6 105884494.675 6  82507426.56848  20149159.25048
  23517784.766 5 123586952.186 5  96301446.29946  23517795.31346
  22579791.164 5 118657595.980 5  92460497.52847  22579800.48047
  21025390.266 6 110489121.753 6  86095458.82648  21025400.73048
 22  7  3 16 20 35.0000000  0  9G05G07G08G09G13G14G17G20G30         
  23004169.359 5 120887755.224 5  94198264.06947  23004178.99247
  21915289.609 6 115165611.946 6  89739470.57149  21915298.41449
  24101556.828 1 126654376.077 1  98691887.70247  24101570.27347
  23353392.219 4 122722877.696 4  95628240.14948  23353404.64548
  23185850.883 3 121842613.141 3  94942227.60445  23185858.98445
  20149990.391 6 105888910.623 6  82510867.56348  20149999.30948
  23515656.375 5 123575764.284 5  96292728.47247  23515666.60947
  22582415.305 5 118671391.187 5  92471247.03047  22582425.88747
  21026950.578 6 110497321.829 6  86101848.49548  21026961.31348
 22  7  3 16 20 40.0000000  0  9G05G07G08G09G13G14G17G20G30         
  23004756.406 5 120890839.646 5  94200667.52647  23004765.89847
  21918178.531 6 115180796.734 6  89751302.87549  21918187.96949
  24104148.875 1 126668000.462 1  98702504.13447  24104162.84447
  23357333.656 4 122743589.669 4  95644379.33748  23357346.03548
  23184052.273 4 121833164.432 4  94934865.00746  23184060.04346
  20150832.961 6 105893340.965 6  82514319.77848  20150842.15648
  23513526.758 5 123564576.859 5  96284010.99846  23513537.44146
  22585042.766 5 118685196.550 5  92482004.43847  22585052.61747
  21028511.625 6 110505526.056 6  86108241.39848  21028522.37548
 22  7  3 16 20 45.0000000  0  9G05G07G08G09G13G14G17G20G30         
  23005345.688 5 120893938.894 5  94203082.52547  23005355.42247
  21921069.281 6 115195983.956 6  89763137.06948  21921078.11348
  24106745.180 2 126681637.907 2  98713130.69847  24106757.77047
  23361276.078 3 122764308.958 3  95660524.22148  23361289.23448
  23182254.016 3 121823716.998 3  94927503.33546  23182262.34846
  20151679.156 6 105897785.426 6  82517782.98348  20151687.98448
  23511397.484 5 123553389.740 5  96275293.75146  23511408.38746
  22587671.969 5 118699011.831 5  92492769.59847  22587682.06347
  21030073.773 6 110513734.225 6  86114637.36448  21030084.66448
 22  7  3 16 20 50.0000000  0  9G05G07G08G09G13G14G17G20G30         
  23005937.773 5 120897052.968 5  94205509.07146  23005948.03146
  21923959.648 6 115211173.688 6  89774973.21648  21923968.45348
  24109341.789 2 126695288.407 2  98723767.45547  24109355.90647
  23365220.406 4 122785035.447 4  95676674.72848  23365232.81348
  23180456.641 4 121814271.035 4  94920142.81346  23180464.53146
  20152527.609 6 105902244.081 6  82521257.25348  20152536.43848
  23509269.180 5 123542202.997 5  96266576.82947  23509279.68447
  22590302.797 5 118712837.061 5  92503542.50247  22590312.15647
  21031636.289 6 110521946.416 6  86121036.47348  21031647.20348
 22  7  3 16 20 55.0000000  0  9G05G07G08G09G13G14G17G20G30         
  23006533.922 4 120900182.245 4  94207947.45947  23006543.12547
  21926850.680 6 115226366.253 6  89786811.57448  21926859.65648
  24111943.023 2 126708952.395 2  98734414.72447  24111955.44547
  23369165.953 4 122805769.649 4  95692831.22048  23369178.88748
  23178659.680 4 121804826.892 4  94912783.76446  23178667.65646
  20153378.734 6 105906717.272 6  82524742.84848  20153387.30948
  23507140.516 5 123531016.993 5  96257860.44746  23507151.35946
  22592935.141 5 118726672.648 5  92514323.48046  22592945.29346
  21033199.859 6 110530162.936 6  86127438.95748  21033210.75848
 22  7  3 16 21  0.0000000  0  9G05G07G08G09G13G14G17G20G30         
  23007132.359 5 120903326.688 5  94210397.66947  23007142.02347
  21929741.750 6 115241561.640 6  89798652.13148  21929751.06648
  24114545.141 3 126722629.669 3  98745072.34047  24114558.51247
  23373113.328 5 122826511.413 5  95708993.62748  23373125.73448
  23176862.328 3 121795384.519 3  94905426.10646  23176870.90646
  20154232.656 6 105911204.984 6  82528239.76748  20154241.28548
  23505012.453 5 123519831.644 5  96249144.60946  23505022.57046
  22595570.398 5 118740518.501 5  92525112.44647  22595579.60947
  21034764.180 6 110538383.821 6  86133844.84648  21034775.25448
 22  7  3 16 21  5.0000000  0  9G05G07G08G09G13G14G17G20G30         
  23007733.414 5 120906485.687 5  94212859.23647  23007742.93047
  21932634.984 6 115256759.236 6  89810494.40649  21932643.22349
  24117150.242 2 126736319.600 2  98755739.82147  24117163.44947
  23377060.703 4 122847260.165 4  95725161.45848  23377074.03148
  23175065.898 4 121785943.317 4  94898069.29646  23175074.53946
  20155089.531 6 105915706.574 6  82531747.49548  20155098.54748
  23502883.625 5 123508646.438 5  96240428.87947  23502894.15647
  22598207.602 5 118754373.987 5  92535908.93146  22598216.57846
  21036329.133 6 110546608.420 6  86140253.61948  21036340.39548
 22  7  3 16 21 10.0000000  0  9G05G07G08G09G13G14G17G20G30         
  23008337.234 5 120909659.048 5  94215331.98647  23008346.45347
  21935526.984 6 115271958.807 6  89822338.22249  21935535.68449
  24119757.977 2 126750022.238 2  98766417.20247  24119771.24647
  23381010.375 4 122868015.715 4  95741334.60048  23381023.78548
  23173269.117 3 121776503.143 3  94890713.33646  23173278.21546
  20155949.023 6 105920221.854 6  82535265.88848  20155957.40648
  23500755.102 5 123497461.141 5  96231713.06046  23500765.39146
  22600845.852 5 118768238.926 5  92546712.77246  22600854.54746
  21037895.156 6 110554836.524 6  86146665.13348  21037906.24648
 22  7  3 16 21 15.0000000  0  9G05G07G08G09G13G14G17G20G30         
  23008944.125 5 120912847.604 5  94217816.57247  23008953.88347
  21938419.508 6 115287161.316 6  89834184.33649  21938428.52749
  24122368.188 2 126763738.260 2  98777104.99747  24122380.82847
  23384960.695 4 122888778.889 4  95757513.65948  23384975.22348
  23171474.133 3 121767064.786 3  94883358.77046  23171481.94946
  20156810.586 6 105924751.662 6  82538795.60448  20156819.46148
  23498626.578 5 123486276.648 5  96222997.87747  23498636.67247
  22603485.844 5 118782114.104 5  92557524.59946  22603495.06346
  21039461.781 6 110563069.020 6  86153080.05448  21039472.66448
 22  7  3 16 21 20.0000000  0  9G05G07G08G09G13G14G17G20G30         
  23009553.789 5 120916051.120 5  94220312.82546  23009563.30946
  21941312.609 6 115302366.406 6  89846032.44248  21941321.74248
  24124981.078 2 126777467.498 2  98787803.11947  24124993.85247
  23388913.898 4 122909549.427 4  95773698.46748  23388927.53548
  23169677.531 3 121757628.016 3  94876005.44146  23169686.24646
  20157675.094 6 105929295.760 6  82542336.46048  20157684.23848
  23496499.008 5 123475092.692 5  96214283.10746  23496509.04346
  22606128.273 5 118795999.298 5  92568344.21646  22606137.42246
  21041029.234 6 110571305.626 6  86159498.18448  21041040.19548
 22  7  3 16 21 25.0000000  0  9G05G07G08G09G13G14G17G20G30         
  23010166.289 5 120919269.148 5  94222820.37047  23010175.55947
  21944207.008 6 115317573.674 6  89857882.26548  21944215.86348
  24127596.734 2 126791209.392 2  98798511.08647  24127608.78947
  23392867.258 4 122930326.856 4  95789888.64848  23392881.11748
  23167882.055 4 121748192.448 4  94868653.07646  23167891.02746
  20158542.188 7 105933853.686 7  82545888.08148  20158551.75448
  23494370.289 5 123463908.896 5  96205568.48046  23494381.06646
  22608772.344 5 118809894.054 5  92579171.30346  22608781.05546
  21042596.789 6 110579545.877 6  86165919.15348  21042607.96948
 22  7  3 16 21 30.0000000  0  9G05G07G08G09G13G14G17G20G30         
  23010780.625 4 120922502.154 4  94225339.60046  23010791.00446
  21947101.391 6 115332783.685 6  89869734.23148  21947109.96548
  24130213.336 2 126804964.496 2  98809229.34047  24130226.53547
  23396823.078 4 122951111.656 4  95806084.57548  23396836.19548
  23166087.000 4 121738758.515 4  94861301.96846  23166096.02046
  20159412.484 6 105938425.923 6  82549450.86248  20159421.79748
  23492242.828 5 123452725.693 5  96196854.28146  23492252.77746
  22611418.133 5 118823798.811 5  92590006.17146  22611427.13746
  21044165.984 6 110587790.269 6  86172343.35548  21044177.13748
 22  7  3 16 21 35.0000000  0  9G05G07G08G09G13G14G17G20G30         
  23011399.922 4 120925750.365 4  94227870.68547  23011409.00447
  21949995.938 5 115347996.543 5  89881588.41648  21950004.97348
  24132833.320 2 126818733.135 2  98819958.14447  24132845.86347
  23400780.813 4 122971904.069 4  95822286.43748  23400793.11348
  23164292.531 3 121729326.553 3  94853952.38646  23164301.18846
  20160285.820 6 105943012.721 6  82553024.99148  20160294.96548
  23490114.352 5 123441543.354 5  96188140.77546  23490124.75846
  22614066.031 5 118837713.881 5  92600849.06846  22614075.02746
  21045735.297 6 110596039.109 6  86178771.02248  21045746.96948
 22  7  3 16 21 40.0000000  0  9G05G07G08G09G13G14G17G20G30         
  23012021.375 5 120929013.215 5  94230413.16747  23012029.98447
  21952891.555 6 115363211.669 6  89893444.35348  21952899.83648
  24135455.688 3 126832514.355 3  98830696.74747  24135468.44547
  23404738.648 4 122992703.479 4  95838493.74548  23404750.69948
  23162497.258 4 121719895.855 4  94846603.81046  23162507.15246
  20161160.641 7 105947613.451 7  82556609.97148  20161170.40248
  23487987.016 5 123430361.308 5  96179427.49646  23487996.79346
  22616715.602 5 118851638.556 5  92611699.47346  22616724.68846
  21047306.070 6 110604291.713 6  86185201.62648  21047317.23448
 22  7  3 16 21 45.0000000  0  9G05G07G08G09G13G14G17G20G30         
  23012645.070 5 120932291.173 5  94232967.43347  23012653.82047
  21955787.305 6 115378429.536 6  89905302.42148  21955795.87548
  24138080.117 2 126846308.801 2  98841445.65847  24138093.74647
  23408698.289 4 123013510.461 4  95854706.96248  23408710.05948
  23160703.484 4 121710467.000 4  94839256.65146  23160712.64546
  20162038.789 6 105952228.619 6  82560206.20449  20162048.31349
  23485858.930 5 123419180.034 5  96170714.83346  23485868.73846
  22619367.633 5 118865573.354 5  92622557.73646  22619376.50846
  21048877.383 6 110612548.601 6  86191635.56648  21048888.21548
 22  7  3 16 21 50.0000000  0  9G05G07G08G09G13G14G17G20G30         
  23013270.266 5 120935583.930 5  94235533.22947  23013280.28947
  21958683.820 6 115393649.941 6  89917162.46648  21958692.55948
  24140708.047 2 126860116.313 2  98852204.74947  24140721.01647
  23412659.359 4 123034324.556 4  95870925.73048  23412671.02748
  23158909.258 4 121701039.711 4  94831910.73746  23158918.82846
  20162920.133 6 105956857.975 6  82563813.48848  20162929.57848
  23483731.367 4 123407999.252 4  96162002.53646  23483741.86746
  22622021.305 5 118879518.003 5  92633423.70846  22622029.79746
  21050449.289 6 110620809.489 6  86198072.62148  21050460.68448
 22  7  3 16 21 55.0000000  0  9G05G07G08G09G13G14G17G20G30         
  23013900.266 5 120938891.680 5  94238110.68047  23013909.77047
  21961579.672 6 115408872.860 6  89929024.47548  21961588.92248
  24143338.320 2 126873936.761 2  98862973.92347  24143351.09447
  23416621.570 4 123055145.985 4  95887150.19748  23416633.13748
  23157115.727 4 121691613.988 4  94824566.03646  23157125.23446
  20163803.906 6 105961501.455 6  82567431.77848  20163812.95348
  23481604.453 5 123396819.073 5  96153290.72246  23481614.03546
  22624676.930 5 118893472.484 5  92644297.32446  22624685.18846
  21052022.297 6 110629074.407 6  86204512.81348  21052033.57448
 22  7  3 16 22  0.0000000  0  9G05G07G08G09G13G14G17G20G30         
  23014533.016 5 120942214.555 5  94240699.93347  23014541.82447
  21964477.852 6 115424098.539 6  89940888.63948  21964486.75848
  24145971.844 2 126887770.510 2  98873753.45747  24145983.98847
  23420584.695 4 123075974.836 4  95903380.46948  23420596.83648
  23155322.133 4 121682190.147 4  94817222.75346  23155331.94546
  20164690.305 6 105966159.421 6  82571061.36248  20164699.23448
  23479476.906 4 123385639.755 4  96144579.57046  23479486.75446
  22627333.945 5 118907437.111 5  92655178.84046  22627342.57046
  21053595.594 6 110637343.626 6  86210956.36548  21053607.08248
 22  7  3 16 22  5.0000000  0  9G05G07G08G09G13G14G17G20G30         
  23015168.008 5 120945552.698 5  94243301.09247  23015176.76247
  21967375.875 6 115439327.111 6  89952755.05048  21967384.23848
  24148605.898 2 126901617.699 2  98884543.46847  24148618.75847
  23424549.234 4 123096811.234 4  95919616.60148  23424561.75448
  23153529.164 4 121672768.150 4  94809880.95546  23153538.64846
  20165579.188 6 105970831.862 6  82574702.21249  20165588.44149
  23477349.273 4 123374461.343 4  96135869.13846  23477359.46546
  22629993.555 5 118921411.835 5  92666068.20946  22630001.93046
  21055169.727 6 110645617.218 6  86217403.31448  21055181.36348
 22  7  3 16 22 10.0000000  0  9G05G07G08G09G13G14G17G20G30         
  23015805.711 5 120948905.487 5  94245913.65747  23015814.98047
  21970273.563 6 115454557.991 6  89964623.26248  21970282.48848
  24151241.836 2 126915477.663 2  98895343.43847  24151256.43847
  23428515.961 4 123117654.721 4  95935858.26348  23428528.27748
  23151736.672 4 121663347.637 4  94802540.29646  23151746.11746
  20166471.148 6 105975518.287 6  82578353.96849  20166480.21949
  23475222.164 4 123363283.336 4  96127158.99146  23475232.44546
  22632654.086 5 118935396.200 5  92676965.11546  22632662.55546
  21056745.656 6 110653894.602 6  86223853.22248  21056756.48848
 22  7  3 16 22 15.0000000  0  9G05G07G08G09G13G14G17G20G30         
  23016446.813 5 120952273.411 5  94248538.01147  23016455.64547
  21973172.531 6 115469791.624 6  89976493.61648  21973181.50448
  24153883.234 2 126929350.975 2  98906153.78647  24153896.56647
  23432483.516 4 123138505.628 4  95952105.71148  23432495.91448
  23149944.461 4 121653929.035 4  94795201.15246  23149954.05146
  20167365.875 7 105980219.094 7  82582016.93249  20167374.65649
  23473094.859 4 123352106.223 4  96118449.56246  23473105.31346
  22635317.375 5 118949390.601 5  92687869.83846  22635326.14146
  21058320.938 6 110662176.292 6  86230306.48848  21058332.55948
 22  7  3 16 22 20.0000000  0  9G05G07G08G09G13G14G17G20G30         
  23017091.211 5 120955656.257 5  94251173.99147  23017099.91847
  21976071.945 5 115485027.874 5  89988366.01248  21976081.00048
  24156525.188 2 126943237.423 2  98916974.37847  24156539.56647
  23436452.328 4 123159363.839 4  95968358.84247  23436465.10547
  23148152.273 4 121644512.132 4  94787863.31346  23148162.33646
  20168263.234 7 105984934.196 7  82585691.03248  20168272.16448
  23470968.055 5 123340929.869 5  96109740.72946  23470978.55946
  22637982.641 5 118963394.929 5  92698782.30146  22637990.71146
  21059897.766 6 110670462.140 6  86236762.98248  21059909.46948
 22  7  3 16 22 25.0000000  0  9G05G07G08G09G13G14G17G20G30         
  23017736.852 5 120959054.371 5  94253821.87247  23017746.57047
  21978971.945 6 115500266.965 6  90000240.63148  21978980.55148
  24159170.461 2 126957137.104 2  98927805.29447  24159184.24247
  23440422.906 4 123180229.609 4  95984617.85348  23440435.96548
  23146361.109 4 121635097.216 4  94780527.01446  23146370.92246
  20169162.906 6 105989663.754 6  82589376.39848  20169172.02048
  23468842.164 5 123329754.449 5  96101032.61146  23468852.19946
  22640649.172 5 118977409.336 5  92709702.59846  22640657.84846
  21061475.602 6 110678752.323 6  86243222.86548  21061486.76248
 22  7  3 16 22 30.0000000  0  9G05G07G08G09G13G14G17G20G30         
  23018386.375 5 120962467.396 5  94256481.37947  23018395.88747
  21981872.648 5 115515508.665 5  90012117.27148  21981881.39848
  24161818.547 3 126971049.896 3  98938646.41347  24161831.76647
  23444394.945 4 123201102.578 4  96000882.47548  23444407.90248
  23144569.875 4 121625683.974 4  94773192.02246  23144579.68046
  20170065.531 7 105994407.558 7  82593072.87448  20170074.73448
  23466715.172 5 123318579.850 5  96092325.15146  23466725.84446
  22643318.586 5 118991433.569 5  92720630.59046  22643326.35246
  21063054.195 6 110687046.613 6  86249685.93848  21063065.16448
 22  7  3 16 22 35.0000000  0  9G05G07G08G09G13G14G17G20G30         
  23019039.273 5 120965895.754 5  94259152.82247  23019048.43447
  21984772.852 5 115530753.356 5  90023996.24648  21984782.22348
  24164467.875 2 126984976.231 2  98949498.08947  24164481.47747
  23448368.492 3 123221983.251 3  96017153.12148  23448381.57848
  23142778.664 4 121616272.795 4  94765858.65546  23142788.65246
  20170970.883 6 105999165.956 6  82596780.71248  20170980.19148
  23464589.398 4 123307406.354 4  96083618.54446  23464599.37146
  22645988.516 5 119005468.059 5  92731566.54346  22645997.28146
  21064633.141 6 110695345.395 6  86256152.52048  21064644.00448
 22  7  3 16 22 40.0000000  0  9G05G07G08G09G13G14G17G20G30         
  23019694.586 5 120969338.834 5  94261835.75647  23019703.59047
  21987674.508 5 115546000.374 5  90035877.04348  21987683.84848
  24167121.445 2 126998915.337 2  98960359.72047  24167134.28947
  23452344.289 3 123242870.884 3  96033429.19548  23452356.47348
  23140988.063 4 121606863.153 4  94758526.46846  23140997.98446
  20171879.305 6 106003938.332 6  82600499.44148  20171888.55548
  23462462.492 5 123296233.351 5  96074912.30346  23462473.18446
  22648660.797 5 119019512.068 5  92742509.91646  22648669.92246
  21066213.039 6 110703647.991 6  86262622.08248  21066224.19948
 22  7  3 16 22 45.0000000  0  9G05G07G08G09G13G14G17G20G30         
  23020352.336 5 120972796.850 5  94264530.30847  23020361.53147
  21990576.773 5 115561250.007 5  90047759.86448  21990585.98048
  24169776.328 3 127012867.456 3  98971231.50247  24169789.11747
  23456319.328 2 123263765.805 2  96049710.93548  23456332.89148
  23139197.695 5 121597455.275 5  94751195.66746  23139207.86346
  20172790.453 6 106008724.954 6  82604229.27348  20172799.41848
  23460336.195 4 123285061.159 4  96066206.69847  23460347.35247
  22651335.938 5 119033565.943 5  92753460.98847  22651344.23447
  21067793.727 6 110711954.730 6  86269094.86948  21067804.40248
 22  7  3 16 22 50.0000000  0  9G05G07G08G09G13G14G17G20G30         
  23021012.938 5 120976269.643 5  94267236.39147  23021021.99247
  21993478.883 5 115576502.142 5  90059644.63748  21993487.96548
  24172432.797 3 127026832.443 3  98982113.30547  24172446.70747
  23460297.250 3 123284667.838 3  96065998.21747  23460310.37947
  23137407.547 4 121588049.057 4  94743866.15146  23137417.59446
  20173703.828 6 106013525.657 6  82607970.07948  20173713.12148
  23458210.609 4 123273889.627 4  96057501.61846  23458221.84046
  22654012.539 5 119047629.452 5  92764419.55146  22654019.93046
  21069375.227 6 110720265.448 6  86275570.75748  21069386.31348
 22  7  3 16 22 55.0000000  0  9G05G07G08G09G13G14G17G20G30         
  23021676.984 5 120979757.283 5  94269954.02147  23021686.20347
  21996382.211 5 115591756.644 5  90071531.26348  21996391.03148
  24175093.734 3 127040810.369 3  98993005.20147  24175105.91047
  23464276.297 3 123305576.972 3  96082291.03248  23464288.98048
  23135618.617 4 121578644.493 4  94736537.94646  23135628.54346
  20174620.125 6 106018340.411 6  82611721.83048  20174629.59448
  23456084.742 4 123262718.798 4  96048797.09846  23456095.49646
  22656689.977 5 119061702.624 5  92775385.65046  22656698.39546
  21070957.602 6 110728580.122 6  86282049.72248  21070968.61348
 22  7  3 16 23  0.0000000  0  9G05G07G08G09G13G14G17G20G30         
  23022344.055 4 120983259.728 4  94272683.20747  23022352.51647
  21999284.984 5 115607013.685 5  90083419.86648  21999294.16848
  24177755.328 4 127054801.266 4  99003907.19447  24177767.94147
  23468256.648 3 123326493.162 3  96098589.33947  23468269.41447
  23133828.727 4 121569241.571 4  94729211.01446  23133839.05146
  20175538.727 6 106023169.270 6  82615484.57848  20175548.23448
  23453958.883 4 123251548.645 4  96040093.10946  23453969.88346
  22659370.406 5 119075785.435 5  92786359.28546  22659378.34846
  21072540.508 6 110736898.775 6  86288531.78648  21072551.25848
 22  7  3 16 23  5.0000000  0  9G05G07G08G09G13G14G17G20G30         
  23023014.094 4 120986777.192 4  94275424.09547  23023022.25047
  22002188.898 5 115622273.359 5  90095310.51848  22002197.85548
  24180419.414 4 127068805.174 4  99014819.33347  24180432.38347
  23472238.320 4 123347416.698 4  96114893.37848  23472250.77048
  23132039.875 4 121559840.560 4  94721885.55746  23132049.81646
  20176460.375 6 106028012.396 6  82619258.43648  20176469.77748
  23451833.219 4 123240379.466 4  96031389.84446  23451844.29346
  22662052.172 5 119089878.102 5  92797340.56446  22662059.80146
  21074124.398 6 110745221.585 6  86295017.09148  21074135.59048
 22  7  3 16 23 10.0000000  0  9G05G07G08G09G13G14G17G20G30         
  23023685.367 5 120990309.569 5  94278176.59347  23023694.70347
  22005093.344 5 115637535.594 5  90107203.16648  22005102.11748
  24183087.617 4 127082822.071 4  99025741.60447  24183100.00847
  23476221.453 3 123368347.361 3  96131202.96548  23476233.91448
  23130251.305 4 121550441.240 4  94714561.43546  23130261.60546
  20177384.461 6 106032869.635 6  82623043.29748  20177394.14848
  23449707.875 5 123229211.053 5  96022687.20546  23449718.82846
  22664735.836 5 119103980.436 5  92808329.38146  22664743.32846
  21075708.523 6 110753548.440 6  86301505.55448  21075719.69948
 22  7  3 16 23 15.0000000  0  9G05G07G08G09G13G14G17G20G30         
  23024360.961 5 120993857.175 5  94280940.96347  23024369.68847
  22007998.555 5 115652800.675 5  90119098.02848  22008006.77748
  24185758.469 4 127096852.248 4  99036674.20647  24185769.79747
  23480205.133 3 123389285.488 3  96147518.34048  23480218.27048
  23128463.063 4 121541044.015 4  94707238.94346  23128472.93846
  20178312.070 6 106037741.319 6  82626839.40848  20178321.06348
  23447582.711 4 123218043.756 4  96013985.42346  23447594.13346
  22667421.383 5 119118092.772 5  92819326.00946  22667428.96946
  21077294.242 6 110761879.655 6  86307997.40848  21077305.34848
 22  7  3 16 23 20.0000000  0  9G05G07G08G09G13G14G17G20G30         
  23025038.250 5 120997419.870 5  94283717.09047  23025047.18447
  22010903.266 5 115668068.498 5  90130995.03948  22010912.02048
  24188430.320 3 127110895.570 3  99047617.07147  24188442.45347
  23484190.930 3 123410230.969 3  96163839.50047  23484204.55947
  23126675.406 4 121531648.721 4  94699917.93946  23126685.14146
  20179241.773 6 106042627.324 6  82630646.68848  20179250.45348
  23445457.563 4 123206877.535 4  96005284.48946  23445469.05546
  22670107.617 5 119132214.986 5  92830330.32046  22670116.56346
  21078880.258 6 110770215.094 6  86314492.55548  21078891.36748
 22  7  3 16 23 25.0000000  0  9G05G07G08G09G13G14G17G20G30         
  23025718.555 5 121000997.439 5  94286504.81547  23025727.58647
  22013809.102 5 115683338.892 5  90142894.04748  22013817.90648
  24191105.281 4 127124951.943 4  99058570.07547  24191117.37147
  23488178.070 3 123431183.491 3  96180166.11047  23488191.29747
  23124887.531 4 121522255.222 4  94692598.33946  23124897.94146
  20180174.359 6 106047527.484 6  82634464.98848  20180183.02348
  23443332.961 3 123195712.098 3  95996584.13746  23443344.67646
  22672797.477 5 119146346.842 5  92841342.15446  22672805.83246
  21080467.367 6 110778554.534 6  86320990.81648  21080478.45748
 22  7  3 16 23 30.0000000  0  9G05G07G08G09G13G14G17G20G30         
  23026402.031 5 121004589.755 5  94289304.01447  23026411.34447
  22016715.430 5 115698611.764 5  90154794.97448  22016724.07848
  24193782.563 4 127139021.054 4  99069533.02047  24193794.85947
  23492166.430 3 123452143.117 3  96196498.25347  23492179.57047
  23123100.141 4 121512863.368 4  94685280.03146  23123110.55146
  20181109.242 6 106052441.646 6  82638294.20448  20181118.47348
  23441209.047 3 123184547.420 3  95987884.41446  23441219.83246
  22675489.086 5 119160488.243 5  92852361.41446  22675497.06646
  21082055.227 6 110786897.960 6  86327492.18548  21082066.25448
 22  7  3 16 23 35.0000000  0  9G05G07G08G09G13G14G17G20G30         
  23027088.375 5 121008196.579 5  94292114.53447  23027097.76647
  22019622.492 5 115713886.770 5  90166697.56648  22019630.46148
  24196462.367 4 127153102.664 4  99080505.68447  24196474.62547
  23496155.453 3 123473109.506 3  96212835.67547  23496168.98847
  23121313.602 4 121503473.003 4  94677962.85846  23121324.00446
  20182047.086 6 106057369.589 6  82642134.16148  20182056.28148
  23439084.586 3 123173383.283 3  95979185.09146  23439095.75046
  22678180.961 5 119174638.908 5  92863387.91646  22678189.70746
  21083643.344 6 110795245.073 6  86333996.42948  21083654.94948
