     2.11           OBSERVATION DATA    GPS(GPS)            RINEX VERSION / TYPE
cnvtToRINEX 3.14.0  convertToRINEX OPR  20220810 190643 UTC PGM / RUN BY / DATE 
----------------------------------------------------------- COMMENT             
SC-HV-75                                                    MARKER NAME         
SC-HV-75                                                    MARKER NUMBER       
GNSS Observer       Trimble                                 OBSERVER / AGENCY   
4906165579          TRIMBLE 5700II      4.02                REC # / TYPE / VERS 
60266723            TRM39105.00                             ANT # / TYPE        
  3665737.5447 -4234303.2452 -3041640.3406                  APPROX POSITION XYZ 
        1.5600        0.0000        0.0000                  ANTENNA: DELTA H/E/N
     1     1     0                                          WAVELENGTH FACT L1/2
     4    C1    L1    L2    P2                              # / TYPES OF OBSERV 
  2022     7     3    17     9   15.0000000     GPS         TIME OF FIRST OBS   
  2022     7     3    17    58   55.0000000     GPS         TIME OF LAST OBS    
     0                                                      RCV CLOCK OFFS APPL 
    18                                                      LEAP SECONDS        
     9                                                      # OF SATELLITES     
   G05   584   580   580   584                              PRN / # OF OBS      
   G07   584   584   584   584                              PRN / # OF OBS      
   G13   597   597   597   597                              PRN / # OF OBS      
   G14   597   597   597   597                              PRN / # OF OBS      
   G15   476   476   476   476                              PRN / # OF OBS      
   G17   597   597   597   597                              PRN / # OF OBS      
   G19   590   590   590   590                              PRN / # OF OBS      
   G20   170   162   162   170                              PRN / # OF OBS      
   G30   597   597   597   597                              PRN / # OF OBS      
CARRIER PHASE MEASUREMENTS: PHASE SHIFTS REMOVED            COMMENT             
                                                            END OF HEADER       
 22  7  3 17  9 15.0000000  0  7G05G07G13G14G17G20G30               
  23283046.023 4 122353231.77314  95340215.01557  23283054.87947
  23100080.398 5 121391742.06815  94591001.03458  23100089.27348
  21718223.289 6 114130028.18816  88932525.18157  21718231.17647
  20519060.016 6 107828384.87516  84022156.56658  20519069.23448
  21789376.320 6 114503939.10416  89223852.25457  21789385.16847
  23814257.234 1 125144720.56811  97515433.86756  23814265.10546
  21505273.539 6 113010976.69516  88060507.80659  21505284.72349
 22  7  3 17  9 20.0000000  0  7G05G07G13G14G17G20G30               
  23284999.180 4 122363498.008 4  95348214.71946  23285008.69946
  23103079.180 5 121407502.097 5  94603281.56848  23103088.36348
  21716753.266 6 114122307.101 6  88926508.75347  21716761.85547
  20521142.766 6 107839329.361 6  84030684.74048  20521151.68448
  21787624.836 6 114494737.628 6  89216682.27947  21787634.19147
  23817415.125 3 125161317.960 3  97528366.79345  23817424.48845
  21507112.844 6 113020639.746 6  88068037.45349  21507123.94549
 22  7  3 17  9 25.0000000  0  7G05G07G13G14G17G20G30               
  23286957.070 4 122373783.641 4  95356229.45746  23286966.01646
  23106079.750 5 121423272.697 5  94615570.34648  23106089.89548
  21715287.000 6 114114601.542 6  88920504.42747  21715295.78547
  20523229.313 6 107850291.743 6  84039226.84848  20523237.62148
  21785877.141 6 114485553.097 6  89209525.50347  21785886.42647
  23820576.547 3 125177925.559 3  97541307.82445  23820584.62545
  21508953.906 6 113030315.003 6  88075576.61649  21508965.02749
 22  7  3 17  9 30.0000000  0  7G05G07G13G14G17G20G30               
  23288918.852 4 122384090.070 4  95364260.44246  23288927.58646
  23109083.867 5 121439055.137 5  94627868.32748  23109093.12548
  21713823.375 6 114106912.762 6  88914513.17647  21713832.25847
  20525318.547 6 107861273.304 6  84047783.90848  20525327.63748
  21784132.953 6 114476386.804 6  89202382.94047  21784142.49247
  23823737.859 3 125194544.653 3  97554257.72645  23823747.17245
  21510797.477 6 113040003.697 6  88083126.25249  21510808.68449
 22  7  3 17  9 35.0000000  0  7G05G07G13G14G17G20G30               
  23290883.227 4 122394417.734 4  95372307.96446  23290892.87146
  23112088.992 5 121454849.843 5  94640175.88248  23112099.24248
  21712364.117 6 114099241.317 6  88908535.42447  21712372.60947
  20527412.391 6 107872274.512 6  84056356.28748  20527421.00848
  21782392.148 6 114467239.263 6  89195254.99748  21782401.70348
  23826902.836 3 125211175.740 3  97567216.99345  23826911.97345
  21512643.758 6 113049706.373 6  88090686.77649  21512654.98849
 22  7  3 17  9 40.0000000  0  7G05G07G13G14G17G20G30               
  23292853.305 4 122404766.315 4  95380371.76946  23292862.04746
  23115097.164 5 121470656.635 5  94652492.85448  23115107.09848
  21710907.203 6 114091586.987 6  88902571.01747  21710916.17247
  20529509.047 6 107883295.135 6  84064943.78348  20529518.25448
  21780654.852 6 114458110.215 6  89188141.44747  21780664.39147
  23830069.633 3 125227818.487 3  97580185.36646  23830079.40646
  21514493.180 6 113059422.778 6  88098257.99949  21514504.69549
 22  7  3 17  9 45.0000000  0  7G05G07G13G14G17G20G30               
  23294825.461 4 122415135.919 4  95388451.98346  23294835.55146
  23118108.164 5 121486475.570 5  94664819.28448  23118117.64848
  21709454.102 6 114083949.800 6  88896619.95947  21709462.78147
  20531610.305 6 107894335.242 6  84073546.47148  20531618.99248
  21778920.781 6 114448999.863 6  89181042.48147  21778930.75047
  23833239.219 2 125244473.050 2  97593162.94145  23833248.32445
  21516344.805 6 113069153.011 6  88105839.99349  21516356.07849
 22  7  3 17  9 50.0000000  0  8G05G07G13G14G17G19G20G30            
  23296802.727 4 122425526.600 4  95396548.60246  23296812.59846
  23121120.336 5 121502306.680 5  94677155.19748  23121130.09048
  21708004.047 6 114076329.849 6  88890682.34447  21708012.64847
  20533715.234 6 107905394.795 6  84082164.29948  20533723.57848
  21777190.625 6 114439908.149 6  89173958.04047  21777200.44147
  22901055.133 5 120346042.99515  93776027.35556  22901064.14546
  23836409.984 3 125261139.419 3  97606149.69846  23836420.13346
  21518198.648 6 113078897.064 6  88113432.75649  21518210.15649
 22  7  3 17  9 55.0000000  0  8G05G07G13G14G17G19G20G30            
  23298784.563 4 122435937.813 4  95404661.21846  23298793.94546
  23124135.023 5 121518149.490 5  94689500.23248  23124144.85548
  21706557.281 6 114068726.689 6  88884757.80747  21706565.67647
  20535823.414 6 107916473.392 6  84090796.98248  20535832.25048
  21775464.297 6 114430834.662 6  89166887.79447  21775473.93447
  22898905.805 5 120334747.042 5  93767225.32747  22898914.52347
  23839583.898 3 125277817.042 3  97619145.22446  23839594.06346
  21520055.797 6 113088654.471 6  88121035.93449  21520066.55549
 22  7  3 17 10  0.0000000  0  8G05G07G13G14G17G19G20G30            
  23300769.867 4 122446369.113 4  95412789.49646  23300778.75446
  23127151.789 5 121534003.452 5  94701853.98348  23127162.07048
  21705113.906 6 114061139.788 6  88878845.94047  21705122.09447
  20537935.125 6 107927570.436 6  84099444.03048  20537943.83648
  21773740.992 6 114421778.878 6  89159831.34147  21773750.38347
  22896758.156 5 120323463.705 5  93758433.14246  22896767.08246
  23842760.023 3 125294505.397 3  97632149.15346  23842769.44946
  21521915.039 6 113098424.735 6  88128649.12449  21521925.96949
 22  7  3 17 10  5.0000000  0  8G05G07G13G14G17G19G20G30            
  23302758.414 4 122456820.549 4  95420933.45346  23302768.02746
  23130171.500 5 121549868.849 5  94714216.62448  23130181.17248
  21703672.898 6 114053569.346 6  88872946.89747  21703681.51647
  20540050.383 6 107938686.128 6  84108105.61548  20540059.03548
  21772021.742 6 114412741.009 6  89152788.85447  21772030.61347
  22894614.016 5 120312193.182 5  93749650.90846  22894622.53546
  23845938.148 4 125311204.750 4  97645161.57646  23845947.00846
  21523776.148 6 113108207.987 6  88136272.43549  21523787.68449
 22  7  3 17 10 10.0000000  0  8G05G07G13G14G17G19G20G30            
  23304751.469 4 122467291.603 4  95429092.71246  23304760.14846
  23133191.938 5 121565744.962 5  94726587.61548  23133202.17248
  21702234.938 6 114046014.763 6  88867060.21347  21702243.55547
  20542168.531 6 107949819.889 6  84116781.27348  20542177.84448
  21770304.969 6 114403720.400 6  89145759.81247  21770313.91047
  22892472.172 5 120300934.896 5  93740878.23946  22892479.94546
  23849116.844 4 125327914.413 4  97658182.10246  23849126.43846
  21525640.680 6 113118003.711 6  88143905.46649  21525651.57049
 22  7  3 17 10 15.0000000  0  8G05G07G13G14G17G19G20G30            
  23306747.789 4 122477782.683 4  95437267.56346  23306756.46146
  23136215.695 5 121581632.321 5  94738967.37648  23136225.32848
  21700800.578 6 114038476.432 6  88861186.19647  21700809.43847
  20544290.961 6 107960972.097 6  84125471.31248  20544299.70748
  21768592.117 6 114394717.617 6  89138744.66247  21768600.68447
  22890331.891 5 120289689.290 5  93732115.43946  22890339.83246
  23852299.961 4 125344634.807 4  97671210.93946  23852308.84046
  21527507.078 6 113127812.281 6  88151548.51249  21527518.02049
 22  7  3 17 10 20.0000000  0  8G05G07G13G14G17G19G20G30            
  23308746.750 4 122488292.423 4  95445456.96546  23308756.61746
  23139241.102 5 121597529.475 5  94751354.76448  23139250.35248
  21699369.172 6 114030953.063 6  88855323.82747  21699377.54347
  20546416.234 6 107972141.382 6  84134174.65648  20546425.23048
  21766881.820 6 114385731.199 6  89131742.27047  21766890.55147
  22888193.289 5 120278455.006 5  93723361.47647  22888202.36347
  23855482.633 4 125361364.569 4  97684247.11146  23855493.10246
  21529376.250 6 113137632.323 6  88159200.49149  21529386.55549
 22  7  3 17 10 25.0000000  0  8G05G07G13G14G17G19G20G30            
  23310750.531 4 122498820.896 4  95453660.94546  23310760.24246
  23142267.727 5 121613436.501 5  94763749.84148  23142277.02348
  21697940.039 6 114023444.752 6  88849473.20747  21697948.84447
  20548545.039 6 107983327.840 6  84142891.38348  20548553.95348
  21765174.859 6 114376761.252 6  89124752.70548  21765183.45748
  22886057.953 5 120267232.186 5  93714616.43246  22886066.69546
  23858667.914 4 125378103.733 4  97697290.62946  23858678.54346
  21531246.336 6 113147463.982 6  88166861.53149  21531257.72349
 22  7  3 17 10 30.0000000  0  8G05G07G13G14G17G19G20G30            
  23312757.961 4 122509368.311 4  95461879.67746  23312767.46546
  23145297.000 5 121629353.736 5  94776152.87148  23145306.40248
  21696514.789 6 114015951.742 6  88843634.49847  21696522.80147
  20550677.188 6 107994531.665 6  84151621.63948  20550686.04348
  21763470.914 6 114367808.106 6  89117776.21947  21763479.59847
  22883925.180 5 120256021.021 5  93705880.47446  22883933.72346
  23861854.719 4 125394852.562 4  97710341.60546  23861865.23446
  21533119.680 6 113157307.436 6  88174531.75649  21533130.91849
 22  7  3 17 10 35.0000000  0  8G05G07G13G14G17G19G20G30            
  23314768.273 4 122519933.956 4  95470112.63546  23314777.84846
  23148327.852 5 121645280.416 5  94788563.25748  23148336.87148
  21695091.203 6 114008473.323 6  88837807.16947  21695099.28547
  20552812.164 6 108005752.173 6  84160364.88948  20552821.07448
  21761769.703 6 114358870.981 6  89110812.23548  21761778.99248
  22881793.672 5 120244820.833 5  93697153.06646  22881801.85246
  23865043.453 4 125411610.286 4  97723399.57446  23865054.50446
  21534994.906 6 113167162.015 6  88182210.64849  21535005.98049
 22  7  3 17 10 40.0000000  0  8G05G07G13G14G17G19G20G30            
  23316782.922 4 122530517.608 4  95478359.61546  23316791.85546
  23151359.797 5 121661216.271 5  94800980.80848  23151369.62148
  21693670.859 6 114001009.225 6  88831990.98547  21693679.36747
  20554950.828 6 108016989.086 6  84169120.93948  20554959.55148
  21760072.430 6 114349949.681 6  89103860.57547  21760081.55547
  22879663.781 5 120233631.388 5  93688434.05146  22879672.67246
  23868234.859 4 125428376.675 4  97736464.26746  23868245.09846
  21536872.414 6 113177027.483 6  88189898.01949  21536883.23049
 22  7  3 17 10 45.0000000  0  8G05G07G13G14G17G19G20G30            
  23318800.156 5 122541118.965 5  95486620.40146  23318808.88346
  23154394.203 5 121677161.148 5  94813405.37348  23154403.67648
  21692253.141 6 113993559.355 6  88826185.90147  21692261.98447
  20557091.813 6 108028242.220 6  84177889.61848  20557100.67648
  21758377.961 6 114341044.070 6  89096921.13847  21758386.82447
  22877536.406 5 120222452.563 5  93679723.28746  22877545.16846
  23871427.109 4 125445151.592 4  97749535.64446  23871437.27046
  21538752.023 6 113186903.587 6  88197593.69049  21538763.07849
 22  7  3 17 10 50.0000000  0  8G05G07G13G14G17G19G20G30            
  23320820.797 5 122551738.191 5  95494895.09146  23320829.96146
  23157430.258 5 121693115.100 5  94825837.01548  23157439.86748
  21690838.492 6 113986123.687 6  88820391.86847  21690846.84847
  20559236.266 6 108039511.595 6  84186670.95548  20559245.06648
  21756685.625 6 114332154.166 6  89089993.95147  21756694.92247
  22875411.984 5 120211284.321 5  93671020.78247  22875420.19547
  23874620.930 4 125461934.931 4  97762613.54246  23874631.25846
  21540633.289 6 113196790.446 6  88205297.73449  21540644.24649
 22  7  3 17 10 55.0000000  0  8G05G07G13G14G17G19G20G30            
  23322845.102 5 122562374.867 5  95503183.41846  23322854.00446
  23160468.031 5 121709077.740 5  94838275.42748  23160477.43048
  21689426.445 6 113978701.952 6  88814608.71447  21689434.53547
  20561383.914 6 108050796.878 6  84195464.69048  20561392.59848
  21754996.766 6 114323279.634 6  89083078.73947  21755006.34447
  22873288.414 5 120200126.418 5  93662326.31646  22873296.79746
  23877815.430 4 125478726.447 4  97775697.84146  23877826.79346
  21542517.164 6 113206687.701 6  88213009.88549  21542527.93849
 22  7  3 17 11  0.0000000  0  8G05G07G13G14G17G19G20G30            
  23324872.070 4 122573028.797 4  95511485.16046  23324881.01246
  23163506.859 5 121725048.903 5  94850720.48448  23163516.60548
  21688016.430 6 113971293.994 6  88808836.27347  21688025.05947
  20563534.422 6 108062097.888 6  84204270.67448  20563543.45348
  21753311.445 6 114314420.349 6  89076175.40847  21753320.57447
  22871166.734 5 120188978.695 5  93653639.81747  22871175.71147
  23881014.195 4 125495525.916 4  97788788.32046  23881023.50846
  21544401.969 6 113216595.162 6  88220729.97749  21544412.89549
 22  7  3 17 11  5.0000000  0  8G05G07G13G14G17G19G20G30            
  23326902.828 4 122583699.756 4  95519800.17146  23326911.82046
  23166547.992 5 121741028.421 5  94863172.04548  23166557.34448
  21686609.281 6 113963899.572 6  88803074.38247  21686617.51647
  20565687.813 6 108073414.352 6  84213088.69848  20565696.96148
  21751627.789 6 114305576.038 6  89069283.74847  21751637.61747
  22869046.773 5 120177840.909 5  93644961.04547  22869055.85247
  23884211.367 3 125512333.053 3  97801884.79746  23884221.73446
  21546289.523 6 113226512.616 6  88228457.86549  21546300.50049
 22  7  3 17 11 10.0000000  0  8G05G07G13G14G17G19G20G30            
  23328937.148 4 122594388.097 4  95528128.74246  23328945.90246
  23169590.484 5 121757016.599 5  94875630.35448  23169599.83648
  21685205.148 6 113956519.006 6  88797323.30047  21685213.03147
  20567843.945 6 108084746.632 6  84221919.05348  20567853.22748
  21749948.281 6 114296747.130 6  89062404.08248  21749957.28548
  22866930.016 5 120166713.404 5  93636290.27947  22866938.41847
  23887411.352 4 125529148.273 4  97814987.54846  23887421.78146
  21548178.289 6 113236440.389 6  88236193.79149  21548189.28949
 22  7  3 17 11 15.0000000  0  8G05G07G13G14G17G19G20G30            
  23330974.469 4 122605093.563 4  95536470.66546  23330983.32046
  23172634.125 5 121773013.290 5  94888095.30348  23172643.78148
  21683803.000 6 113949152.199 6  88791582.93447  21683811.45747
  20570003.617 6 108096094.589 6  84230761.61848  20570012.39548
  21748271.383 6 114287933.483 6  89055536.32148  21748280.64148
  22864813.805 5 120155596.073 5  93627627.46147  22864822.52047
  23890612.547 4 125545971.398 4  97828096.44446  23890622.85246
  21550069.477 6 113246378.368 6  88243937.66749  21550080.53149
 22  7  3 17 11 20.0000000  0  8G05G07G13G14G17G19G20G30            
  23333014.711 5 122615816.106 5  95544825.86146  23333023.72346
  23175679.617 5 121789018.342 5  94900566.77048  23175689.63748
  21682403.523 6 113941798.979 6  88785853.16247  21682412.02747
  20572166.250 6 108107458.013 6  84239616.23248  20572175.18048
  21746596.563 6 114279134.869 6  89048680.26248  21746606.26248
  22862700.641 5 120144488.777 5  93618972.44147  22862709.08247
  23893816.078 4 125562802.179 4  97841211.34446  23893825.94946
  21551962.781 6 113256326.398 6  88251689.38049  21551973.17249
 22  7  3 17 11 25.0000000  0  8G05G07G13G14G17G19G20G30            
  23335057.469 5 122626555.170 5  95553193.94246  23335067.01646
  23178726.758 5 121805031.253 5  94913044.36248  23178737.08648
  21681006.813 6 113934458.856 6  88780133.58247  21681014.72747
  20574331.633 6 108118836.457 6  84248482.55848  20574340.48448
  21744925.648 6 114270350.934 6  89041835.63748  21744934.65248
  22860588.258 5 120133391.055 5  93610324.89947  22860597.15647
  23897020.117 3 125579640.247 3  97854331.89046  23897029.89846
  21553857.531 6 113266283.958 6  88259448.50849  21553867.96149
 22  7  3 17 11 30.0000000  0  8G05G07G13G14G17G19G20G30            
  23337105.195 5 122637311.363 5  95561575.37246  23337113.52046
  23181776.586 5 121821052.616 5  94925528.54348  23181785.78948
  21679612.414 6 113927132.477 6  88774424.72647  21679621.27747
  20576499.492 6 108130230.436 6  84257360.98348  20576508.87148
  21743256.641 6 114261582.206 6  89035002.86348  21743266.03148
  22858478.336 5 120122303.429 5  93601685.21847  22858487.34847
  23900225.695 4 125596486.081 4  97867458.51246  23900235.98446
  21555754.164 6 113276251.657 6  88267215.54749  21555764.71149
 22  7  3 17 11 35.0000000  0  8G05G07G13G14G17G19G20G30            
  23339154.250 5 122648083.910 5  95569969.54946  23339163.68446
  23184825.492 5 121837081.776 5  94938018.78848  23184835.50848
  21678220.633 6 113919819.130 6  88768726.00747  21678229.17247
  20578670.727 6 108141639.294 6  84266250.99548  20578679.78548
  21741590.703 6 114252827.991 6  89028181.40748  21741600.23448
  22856370.625 5 120111225.218 5  93593052.85647  22856379.75047
  23903432.883 3 125613339.027 3  97880590.64446  23903442.97346
  21557652.805 6 113286228.782 6  88274989.92549  21557663.58649
 22  7  3 17 11 40.0000000  0  8G05G07G13G14G17G19G20G30            
  23341208.234 5 122658872.886 5  95578376.53446  23341216.50846
  23187877.625 5 121853118.615 5  94950515.02648  23187887.25848
  21676831.422 6 113912518.855 6  88763037.48847  21676839.92647
  20580844.375 6 108153062.985 6  84275152.58448  20580853.49248
  21739927.297 6 114244088.318 6  89021371.27448  21739937.12548
  22854264.438 5 120100156.511 5  93584427.92347  22854273.01647
  23906641.625 3 125630199.004 3  97893728.28146  23906651.19546
  21559553.289 6 113296215.355 6  88282771.68049  21559563.97749
 22  7  3 17 11 45.0000000  0  8G05G07G13G14G17G19G20G30            
  23343262.984 4 122669678.194 4  95586796.23746  23343272.57846
  23190931.375 5 121869163.199 5  94963017.28848  23190940.37148
  21675445.555 6 113905231.531 6  88757359.04647  21675453.34047
  20583021.180 6 108164501.466 6  84284065.68548  20583030.23848
  21738267.063 6 114235363.182 6  89014572.47548  21738276.52348
  22852159.875 5 120089097.273 5  93575810.35247  22852168.34447
  23909850.273 3 125647065.927 3  97906871.32346  23909861.16446
  21561455.445 6 113306211.308 6  88290560.72949  21561466.08649
 22  7  3 17 11 50.0000000  0  8G05G07G13G14G17G19G20G30            
  23345323.258 4 122680500.082 4  95595228.88846  23345332.21146
  23193985.461 5 121885215.823 5  94975525.81748  23193995.39148
  21674060.805 6 113897957.518 6  88751690.99347  21674069.35247
  20585200.406 6 108175954.982 6  84292990.50548  20585209.71548
  21736609.352 6 114226652.794 6  89007785.15947  21736619.37147
  22850057.523 5 120078047.720 5  93567200.33847  22850065.67647
  23913062.039 3 125663940.101 3  97920020.01646  23913072.02046
  21563359.336 6 113316216.901 6  88298357.29549  21563370.37949
 22  7  3 17 11 55.0000000  0  8G05G07G13G14G17G19G20G30            
  23347385.547 4 122691338.042 4  95603674.02846  23347394.62946
  23197041.703 5 121901275.846 5  94988040.11348  23197051.46948
  21672678.891 6 113890696.232 6  88746032.84647  21672687.16847
  20587382.461 6 108187423.005 6  84301926.62848  20587391.90648
  21734954.789 6 114217956.719 6  89001008.99948  21734964.59048
  22847955.633 5 120067007.375 5  93558597.48447  22847964.99247
  23916274.461 3 125680820.949 3  97933173.88846  23916284.17246
  21565265.219 6 113326231.631 6  88306160.97949  21565275.82449
 22  7  3 17 12  0.0000000  0  8G05G07G13G14G17G19G20G30            
  23349451.297 4 122702191.699 4  95612131.43546  23349460.41846
  23200100.133 5 121917343.086 5  95000560.02548  23200108.71548
  21671299.906 6 113883447.411 6  88740384.42747  21671307.96147
  20589567.656 6 108198905.221 6  84310873.81448  20589577.02748
  21733302.414 6 114209274.626 6  88994243.72948  21733312.02348
  22845857.289 5 120055975.916 5  93550001.57347  22845865.53547
  23919487.664 3 125697708.213 3  97946332.78646  23919497.82846
  21567172.289 6 113336255.203 6  88313971.55249  21567183.47749
 22  7  3 17 12  5.0000000  0  8G05G07G13G14G17G19G20G30            
  23351519.266 4 122713061.275 4  95620601.20946  23351528.71546
  23203158.617 5 121933417.655 5  95013085.65648  23203167.68848
  21669922.328 6 113876211.302 6  88734745.90347  21669930.82047
  20591755.117 6 108210401.816 6  84319832.20048  20591764.47348
  21731653.250 6 114200606.701 6  88987489.50448  21731662.64148
  22843759.820 5 120044953.621 5  93541412.79147  22843767.68847
  23922702.547 3 125714602.078 3  97959496.82546  23922712.51246
  21569081.883 6 113346287.797 6  88321789.16449  21569092.41849
 22  7  3 17 12 10.0000000  0  8G05G07G13G14G17G19G20G30            
  23353591.461 4 122723946.624 4  95629083.28446  23353600.00846
  23206218.578 5 121949499.433 5  95025616.90148  23206227.91448
  21668547.758 6 113868987.730 6  88729117.14747  21668556.15247
  20593945.539 6 108221912.635 6  84328801.67948  20593955.03148
  21730006.391 6 114191952.876 6  88980746.27147  21730015.91047
  22841663.859 5 120033940.305 5  93532831.00147  22841672.32447
  23925918.492 3 125731502.309 3  97972665.81146  23925928.56346
  21570992.289 6 113356329.251 6  88329613.67849  21571003.24649
 22  7  3 17 12 15.0000000  0  8G05G07G13G14G17G19G20G30            
  23355665.344 4 122734848.296 4  95637578.10446  23355674.72346
  23209281.023 5 121965588.914 5  95038154.15548  23209289.95748
  21667176.242 6 113861777.257 6  88723498.60647  21667184.12547
  20596138.867 6 108233438.206 6  84337782.64648  20596148.28148
  21728362.969 6 114183313.680 6  88974014.42847  21728372.05547
  22839569.680 5 120022936.530 5  93524256.64647  22839578.33247
  23929135.820 4 125748409.461 4  97985840.21246  23929146.05946
  21572905.250 6 113366380.129 6  88337445.53049  21572916.02349
 22  7  3 17 12 20.0000000  0  8G05G07G13G14G17G19G20G30            
  23357743.000 5 122745765.898 5  95646085.32746  23357751.87946
  23212343.953 5 121981685.800 5  95050697.19448  23212353.14548
  21665806.445 6 113854579.635 6  88717890.06947  21665814.86747
  20598334.891 6 108244978.216 6  84346774.86548  20598344.05548
  21726721.398 6 114174688.823 6  88967293.76448  21726730.86748
  22837477.555 5 120011941.991 5  93515689.49047  22837485.68447
  23932353.734 4 125765323.290 4  97999019.79046  23932364.37546
  21574818.875 6 113376440.149 6  88345284.50749  21574830.24249
 22  7  3 17 12 25.0000000  0  8G05G07G13G14G17G19G20G30            
  23359823.117 4 122756699.210 4  95654604.76846  23359832.96546
  23215407.609 5 121997789.918 5  95063245.84848  23215417.57048
  21664439.188 6 113847394.630 6  88712291.36447  21664447.30547
  20600533.789 6 108256532.434 6  84355778.14748  20600543.03148
  21725082.820 6 114166078.094 6  88960584.09948  21725092.00848
  22835387.211 5 120000956.485 5  93507129.37447  22835394.88347
  23935573.594 4 125782243.448 4  98012204.32946  23935584.07446
  21576735.711 6 113386509.043 6  88353130.39549  21576746.30549
 22  7  3 17 12 30.0000000  0  8G05G07G13G14G17G19G20G30            
  23361906.922 4 122767647.915 4  95663136.21746  23361916.54746
  23218473.406 5 122013900.886 5  95075799.83948  23218483.74248
  21663074.297 6 113840221.870 6  88706702.20547  21663082.64147
  20602735.148 6 108268100.487 6  84364792.22648  20602744.33648
  21723447.070 6 114157481.142 6  88953885.18648  21723456.34448
  22833297.813 5 119989979.677 5  93498576.03547  22833306.48447
  23938796.570 4 125799169.626 4  98025393.54046  23938805.05946
  21578652.969 6 113396586.489 6  88360982.95249  21578664.07449
 22  7  3 17 12 35.0000000  0  8G05G07G13G14G17G19G20G30            
  23363992.516 4 122778612.199 4  95671679.79846  23364002.87146
  23221541.109 5 122030018.945 5  95088359.35648  23221550.93448
  21661711.336 6 113833061.569 6  88701122.75047  21661719.83247
  20604939.078 6 108279682.563 6  84373817.21948  20604948.29348
  21721813.648 6 114148898.180 6  88947197.15748  21721822.98048
  22831211.227 5 119979011.812 5  93490029.66447  22831219.45747
  23942017.883 4 125816102.037 4  98038587.59446  23942027.34446
  21580572.594 6 113406672.678 6  88368842.32049  21580583.61749
 22  7  3 17 12 40.0000000  0  8G05G07G13G14G17G19G20G30            
  23366082.367 4 122789592.192 4  95680235.62246  23366092.50446
  23224608.969 5 122046144.214 5  95100924.50848  23224619.41448
  21660351.547 6 113825913.957 6  88695553.18947  21660359.77747
  20607145.430 6 108291278.877 6  84382853.31348  20607154.68048
  21720183.117 6 114140329.421 6  88940520.21548  21720192.46148
  22829125.430 5 119968053.036 5  93481490.37947  22829134.16847
  23945240.633 4 125833040.802 4  98051786.60246  23945250.53146
  21582493.414 6 113416767.790 6  88376708.63949  21582504.43449
 22  7  3 17 12 45.0000000  0  8G05G07G13G14G17G19G20G30            
  23368175.406 4 122800587.530 4  95688803.40546  23368185.02046
  23227678.977 5 122062276.268 5  95113494.94248  23227689.19948
  21658993.492 6 113818778.566 6  88689993.15147  21659002.32847
  20609355.484 6 108302888.863 6  84391900.06248  20609364.07448
  21718555.117 6 114131774.451 6  88933853.99348  21718564.57048
  22827042.117 5 119957102.999 5  93472957.90647  22827050.23447
  23948465.633 4 125849985.439 4  98064990.20346  23948475.13746
  21584416.305 6 113426871.367 6  88384581.56049  21584427.23849
 22  7  3 17 12 50.0000000  0  8G05G07G13G14G17G19G20G30            
  23370270.055 5 122811597.860 5  95697382.86946  23370279.82846
  23230750.664 5 122078414.971 5  95126070.55248  23230760.44548
  21657637.594 6 113811655.196 6  88684442.47747  21657646.30547
  20611567.414 6 108314512.445 6  84400957.40548  20611575.88748
  21716929.023 6 114123233.034 6  88927198.34548  21716938.93848
  22824959.336 5 119946161.425 5  93464432.02247  22824968.15647
  23951691.273 4 125866935.780 4  98078198.22446  23951700.99646
  21586340.172 6 113436983.244 6  88392460.93949  21586351.22749
 22  7  3 17 12 55.0000000  0  8G05G07G13G14G17G19G20G30            
  23372369.242 4 122822623.479 4  95705974.26546  23372378.23846
  23233822.672 5 122094560.347 5  95138651.35848  23233832.96948
  21656284.672 6 113804544.002 6  88678901.29547  21656293.11747
  20613781.320 6 108326149.663 6  84410025.37348  20613790.32448
  21715306.859 6 114114705.358 6  88920553.41248  21715316.27748
  22822879.313 5 119935228.507 5  93455912.88247  22822887.40247
  23954917.000 4 125883891.942 4  98091410.82046  23954927.05946
  21588266.133 6 113447103.540 6  88400346.88349  21588276.93849
 22  7  3 17 13  0.0000000  0  8G05G07G13G14G17G19G20G30            
  23374470.086 4 122833664.356 4  95714577.53346  23374479.12946
  23236896.508 5 122110712.576 5  95151237.50348  23236906.03148
  21654934.336 6 113797445.170 6  88673369.73947  21654942.37547
  20615998.781 6 108337800.649 6  84419104.06348  20616007.44148
  21713686.461 6 114106191.523 6  88913919.25148  21713696.02348
  22820800.945 5 119924304.404 5  93447400.61547  22820808.43847
  23958145.859 4 125900853.998 4  98104627.98946  23958155.23046
  21590193.727 6 113457232.353 6  88408239.46649  21590204.49249
 22  7  3 17 13  5.0000000  0  8G05G07G13G14G17G19G20G30            
  23376573.117 4 122844719.866 4  95723192.21047  23376582.92247
  23239971.438 5 122126870.953 5  95163828.43148  23239981.22748
  21653585.344 6 113790357.944 6  88667847.22947  21653593.93447
  20618218.391 6 108349464.688 6  84428192.93848  20618226.89548
  21712068.945 6 114097690.818 6  88907295.32648  21712078.21148
  22818723.172 5 119913388.375 5  93438894.63246  22818731.01646
  23961374.609 4 125917821.330 4  98117849.24546  23961383.88746
  21592122.672 6 113467369.047 6  88416138.18849  21592133.84449
 22  7  3 17 13 10.0000000  0  8G05G07G13G14G17G19G20G30            
  23378680.578 4 122855790.446 4  95731818.62947  23378689.85947
  23243047.156 5 122143035.993 5  95176424.56348  23243057.50448
  21652238.992 6 113783282.827 6  88662334.15847  21652247.74647
  20620440.500 6 108361142.348 6  84437292.41348  20620449.15648
  21710453.922 6 114089203.844 6  88900682.11047  21710463.58247
  22816647.336 5 119902480.996 5  93430395.39447  22816655.72347
  23964603.523 4 125934794.313 4  98131074.93846  23964614.14546
  21594053.109 6 113477514.122 6  88424043.43749  21594064.24249
 22  7  3 17 13 15.0000000  0  8G05G07G13G14G17G19G20G30            
  23380790.414 4 122866875.932 4  95740456.64846  23380799.37546
  23246124.914 5 122159207.554 5  95189025.77948  23246134.07848
  21650894.875 6 113776219.734 6  88656830.45347  21650903.52347
  20622665.359 6 108372833.418 6  84446402.34348  20622673.95748
  21708841.234 6 114080730.398 6  88894079.42148  21708850.84048
  22814573.078 5 119891582.125 5  93421902.79247  22814581.85547
  23967835.133 4 125951772.832 4  98144304.91146  23967844.65646
  21595985.242 6 113487667.388 6  88431955.07649  21595996.18449
 22  7  3 17 13 20.0000000  0  8G05G07G13G14G17G19G20G30            
  23382902.141 5 122877976.240 5  95749106.22747  23382911.57447
  23249203.602 5 122175385.442 5  95201631.92248  23249213.31648
  21649552.742 6 113769168.502 6  88651335.99347  21649561.74247
  20624892.438 6 108384537.684 6  84455522.56348  20624900.75848
  21707231.758 6 114072270.432 6  88887487.24348  21707240.68048
  22812500.906 5 119880691.545 5  93413416.65747  22812509.77047
  23971066.953 3 125968756.732 3  98157539.14646  23971077.03546
  21597918.578 6 113497828.709 6  88439872.98549  21597929.97349
 22  7  3 17 13 25.0000000  0  8G05G07G13G14G17G19G20G30            
  23385017.859 5 122889091.439 5  95757767.41046  23385026.55546
  23252283.633 5 122191569.818 5  95214243.12548  23252292.79748
  21648213.781 6 113762129.267 6  88645850.87147  21648221.94947
  20627122.500 6 108396255.300 6  84464653.17548  20627131.00048
  21705624.547 6 114063823.997 6  88880905.61048  21705633.52748
  22810429.813 5 119869809.434 5  93404937.11847  22810438.83247
  23974299.828 4 125985746.088 4  98170777.57446  23974309.82446
  21599854.203 6 113507998.192 6  88447797.25449  21599865.06649
 22  7  3 17 13 30.0000000  0  8G05G07G13G14G17G19G20G30            
  23387135.484 5 122900221.721 5  95766440.35447  23387144.91847
  23255364.172 5 122207760.940 5  95226859.57548  23255373.50048
  21646876.125 6 113755102.268 6  88640375.29347  21646884.74247
  20629354.797 6 108407986.506 6  84473794.38248  20629363.18448
  21704019.875 6 114055391.382 6  88874334.74848  21704029.06648
  22808361.156 5 119858936.062 5  93396464.38047  22808369.20747
  23977532.852 3 126002741.109 3  98184020.45246  23977543.97746
  21601790.734 6 113518176.088 6  88455728.08049  21601802.05949
 22  7  3 17 13 35.0000000  0  8G05G07G13G14G17G19G20G30            
  23389256.281 5 122911367.099 5  95775125.04347  23389265.99247
  23258446.258 5 122223958.848 5  95239481.31148  23258456.19948
  21645541.406 6 113748087.587 6  88634909.31647  21645549.93047
  20631589.570 6 108419731.325 6  84482946.19148  20631598.37948
  21702417.906 6 114046972.648 6  88867774.69348  21702426.96548
  22806294.211 5 119848071.481 5  93387998.48547  22806301.86747
  23980768.813 3 126019742.005 3  98197267.86246  23980779.14546
  21603729.586 6 113528362.439 6  88463665.49149  21603740.26249
 22  7  3 17 13 40.0000000  0  8G05G07G13G14G17G19G20G30            
  23391379.844 4 122922527.021 4  95783821.08847  23391389.57047
  23261530.391 5 122240162.960 5  95252107.88248  23261539.60248
  21644209.148 6 113741084.682 6  88629452.51547  21644217.31347
  20633827.180 6 108431489.182 6  84492108.17048  20633835.93848
  21700818.477 6 114038567.237 6  88861225.03048  21700827.54748
  22804227.289 5 119837215.139 5  93379539.02347  22804236.20747
  23984004.641 3 126036747.991 3  98210519.28646  23984015.69146
  21605669.109 6 113538556.700 6  88471609.07649  21605680.27049
 22  7  3 17 13 45.0000000  0  8G05G07G13G14G17G19G20G30            
  23393506.727 5 122933701.700 5  95792528.61747  23393516.10947
  23264614.836 5 122256373.420 5  95264739.40048  23264624.44548
  21642878.656 6 113734093.724 6  88624005.01547  21642886.44947
  20636066.609 6 108443260.256 6  84501280.43248  20636075.35248
  21699221.422 6 114030175.330 6  88854685.87848  21699230.31648
  22802163.656 5 119826367.247 5  93371086.15547  22802172.22347
  23987242.258 3 126053759.280 3  98223774.84046  23987252.25046
  21607610.773 6 113548759.049 6  88479558.95949  21607621.77749
 22  7  3 17 13 50.0000000  0  8G05G07G13G14G17G19G20G30            
  23395636.273 5 122944891.136 5  95801247.63947  23395645.40247
  23267700.891 5 122272590.372 5  95277375.98548  23267710.51648
  21641550.484 6 113727114.814 6  88618566.90347  21641559.01247
  20638309.305 6 108455044.638 6  84510463.07148  20638318.19548
  21697626.313 6 114021797.051 6  88848157.35248  21697636.08248
  22800101.188 5 119815527.872 5  93362639.90947  22800109.93847
  23990480.430 2 126070775.968 2  98237034.52646  23990490.59446
  21609553.305 6 113558969.602 6  88487515.22949  21609564.49649
 22  7  3 17 13 55.0000000  0  8G05G07G13G14G17G19G20G30            
  23397768.875 5 122956095.327 5  95809978.17247  23397777.60947
  23270787.648 5 122288813.771 5  95290017.57748  23270797.68848
  21640224.992 6 113720147.953 6  88613138.19547  21640233.05147
  20640554.547 6 108466842.251 6  84519656.02248  20640563.42648
  21696035.188 6 114013432.397 6  88841639.44048  21696044.25848
  22798040.164 5 119804697.096 5  93354200.37747  22798048.40647
  23993719.328 2 126087798.034 2  98250298.49546  23993729.76246
  21611498.445 6 113569188.294 6  88495477.83849  21611508.94949
 22  7  3 17 14  0.0000000  0  8G05G07G13G14G17G19G20G30            
  23399903.258 5 122967314.097 5  95818720.05647  23399912.29747
  23273876.797 5 122305043.381 5  95302664.02648  23273886.08648
  21638900.820 6 113713192.948 6  88607718.70547  21638909.37547
  20642801.883 6 108478652.896 6  84528859.12148  20642810.80148
  21694446.008 6 114005081.169 6  88835131.99447  21694455.12147
  22795980.750 5 119793874.539 5  93345767.23647  22795989.17247
  23996958.875 1 126104825.225 1  98263566.40346  23996970.44946
  21613444.125 6 113579414.891 6  88503446.62649  21613454.99249
 22  7  3 17 14  5.0000000  0  8G05G07G13G14G17G19G20G30            
  23402040.695 5 122978547.196 5  95827473.09347  23402049.85947
  23276965.406 5 122321279.026 5  95315315.16848  23276976.02348
  21637579.516 6 113706249.549 6  88602308.27447  21637588.29747
  20645051.906 6 108490476.340 6  84538072.19748  20645060.78948
  21692859.258 6 113996743.110 6  88828634.81347  21692868.33647
  22793922.063 5 119783060.134 5  93337340.46847  22793931.60547
  24000200.773 2 126121857.253 2  98276838.13646  24000211.65646
  21615391.211 6 113589649.218 6  88511421.41349  21615402.66049
 22  7  3 17 14 10.0000000  0  8G05G07G13G14G17G19G20G30            
  23404181.070 5 122989794.653 5  95836237.35447  23404190.46147
  23280057.148 5 122337520.733 5  95327971.03548  23280066.74248
  21636261.305 6 113699317.855 6  88596906.96247  21636269.18847
  20647304.102 6 108502312.636 6  84547295.29348  20647313.02348
  21691274.734 6 113988418.334 6  88822147.97347  21691284.31347
  22791865.867 5 119772253.923 5  93328920.05247  22791875.15247
  24003442.820 1 126138894.269 1  98290113.68446  24003453.58646
  21617340.688 6 113599891.322 6  88519402.28249  21617351.74649
 22  7  3 17 14 15.0000000  0  8G05G07G13G14G17G19G20G30            
  23406324.305 5 123001056.658 5  95845012.92247  23406333.71947
  23283148.883 5 122353768.744 5  95340631.81548  23283158.82848
  21634943.891 6 113692398.066 6  88591514.92647  21634952.15247
  20649559.242 6 108514161.993 6  84556528.56048  20649568.10548
  21689693.906 6 113980107.066 6  88815671.66747  21689702.54347
  22789811.203 6 119761456.115 6  93320506.19547  22789820.21947
  24006685.438 1 126155936.394 1  98303393.26046  24006696.29346
  21619291.188 6 113610141.431 6  88527389.37649  21619302.55549
 22  7  3 17 14 20.0000000  0  8G05G07G13G14G17G19G20G30            
  23408469.641 5 123012333.191 5  95853799.81847  23408479.78147
  23286241.695 5 122370022.960 5  95353297.45348  23286252.26248
  21633629.461 6 113685490.163 6  88586132.14447  21633637.78947
  20651816.211 6 108526024.345 6  84565771.95148  20651825.40248
  21688114.773 6 113971809.233 6  88809205.82347  21688123.37147
  22787758.203 6 119750666.706 6  93312098.89747  22787767.27047
  24009929.969 1 126172983.744 1  98316676.88045  24009940.34445
  21621243.016 6 113620399.503 6  88535382.68449  21621254.61349
 22  7  3 17 14 25.0000000  0  8G05G07G13G14G17G19G20G30            
  23410618.297 5 123023624.052 5  95862597.88747  23410628.50447
  23289336.625 5 122386283.268 5  95365967.82648  23289346.18848
  21632317.305 6 113678594.002 6  88580758.52147  21632325.55547
  20654076.273 6 108537899.526 6  84575025.34948  20654085.09448
  21686538.336 6 113963524.766 6  88802750.40247  21686546.98047
  22785706.289 5 119739885.555 5  93303698.03747  22785715.62947
  24013173.961 1 126190035.791 1  98329964.17746  24013184.85246
  21623196.969 6 113630665.339 6  88543382.03349  21623208.21149
 22  7  3 17 14 30.0000000  0  8G05G07G13G14G17G19G20G30            
  23412769.313 5 123034929.173 5  95871407.06147  23412779.78147
  23292431.492 5 122402549.559 5  95378642.85348  23292441.52348
  21631006.742 6 113671709.546 6  88575394.00847  21631015.64547
  20656338.367 6 108549787.455 6  84584288.66448  20656347.43448
  21684963.953 6 113955253.575 6  88796305.32247  21684973.41047
  22783656.391 5 119729112.569 5  93295303.52047  22783665.58647
  24016419.938 2 126207092.772 2  98343255.31946  24016431.02346
  21625151.758 6 113640938.916 6  88551387.41049  21625163.27049
 22  7  3 17 14 35.0000000  0  8G05G07G13G14G17G19G20G30            
  23414923.641 5 123046248.218 5  95880227.06347  23414933.79347
  23295528.344 5 122418821.560 5  95391322.33048  23295537.62548
  21629699.391 6 113664836.441 6  88570038.35247  21629707.29347
  20658603.063 6 108561687.827 6  84593561.68748  20658611.91848
  21683392.648 6 113946995.306 6  88789870.31148  21683401.71948
  22781607.570 5 119718347.505 5  93286915.18747  22781617.00847
  24019667.180 2 126224154.257 2  98356549.94546  24019677.43446
  21627108.344 6 113651219.898 6  88559398.56849  21627119.16049
 22  7  3 17 14 40.0000000  0  8G05G07G13G14G17G19G20G30            
  23417079.625 5 123057581.313 5  95889058.03747  23417089.84447
  23298625.297 5 122435099.461 5  95404006.41248  23298635.39848
  21628393.297 6 113657974.954 6  88564691.74147  21628401.77747
  20660870.117 6 108573600.797 6  84602844.52148  20660878.64548
  21681823.570 6 113938750.241 6  88783445.59248  21681832.29748
  22779560.797 6 119707590.533 6  93278533.15147  22779569.44947
  24022913.977 1 126241220.449 1  98369848.27646  24022924.86346
  21629065.984 6 113661508.494 6  88567415.64849  21629077.64849
 22  7  3 17 14 45.0000000  0  8G05G07G13G14G17G19G20G30            
  23419239.953 5 123068928.667 5  95897900.12847  23419249.19547
  23301724.313 5 122451383.360 5  95416695.16148  23301733.66448
  21627090.070 6 113651125.120 6  88559354.20847  21627098.08247
  20663139.211 6 108585526.441 6  84612137.23548  20663148.25448
  21680257.422 6 113930518.429 6  88777031.19448  21680266.27048
  22777515.398 6 119696841.750 6  93270157.48847  22777524.34047
  24026162.484 1 126258291.406 1  98383150.29646  24026173.33246
  21631025.234 6 113671804.774 6  88575438.72249  21631036.83249
 22  7  3 17 14 50.0000000  0  8G05G07G13G14G17G19G20G30            
  23421401.391 5 123080289.977 5  95906753.07046  23421411.27746
  23304824.094 5 122467673.060 5  95429388.42648  23304833.79748
  21625788.867 6 113644286.790 6  88554025.65147  21625796.81647
  20665411.297 6 108597464.579 6  84621439.67348  20665420.26648
  21678692.961 6 113922299.750 6  88770627.03348  21678702.42248
  22775471.719 6 119686100.991 6  93261788.10247  22775480.76647
  24029412.172 2 126275366.980 2  98396455.93446  24029423.01246
  21632986.094 6 113682108.562 6  88583467.64949  21632997.24249
 22  7  3 17 14 55.0000000  0  8G05G07G13G14G17G19G20G30            
  23423566.391 5 123091665.461 5  95915617.09246  23423575.81346
  23307924.703 6 122483968.657 6  95442086.28448  23307934.97348
  21624489.742 6 113637460.084 6  88548706.14147  21624498.03947
  20667685.141 6 108609415.317 6  84630751.93848  20667694.00048
  21677131.391 6 113914094.312 6  88764233.17748  21677141.12548
  22773429.031 5 119675368.373 5  93253425.04147  22773438.02347
  24032661.664 2 126292447.146 2  98409765.14646  24032672.86346
  21634947.859 6 113692419.966 6  88591502.50849  21634959.39549
 22  7  3 17 15  0.0000000  0  8G05G07G13G14G17G19G20G30            
  23425733.023 4 123103054.400 4  95924491.55846  23425742.92646
  23311026.703 6 122500269.626 6  95454788.33348  23311036.69548
  21623192.805 6 113630644.507 6  88543395.30247  21623201.06647
  20669961.836 6 108621378.095 6  84640073.58348  20669970.56348
  21675572.789 6 113905901.545 6  88757849.20648  21675581.96148
  22771388.086 5 119664643.372 5  93245067.92847  22771397.05547
  24035913.758 2 126309531.491 2  98423077.60945  24035923.77045
  21636911.570 6 113702738.492 6  88599542.90249  21636922.82849
 22  7  3 17 15  5.0000000  0  8G05G07G13G14G17G19G20G30            
  23427903.133 4 123114457.279 4  95933376.92046  23427912.82446
  23314129.852 5 122516576.458 5  95467494.94548  23314139.77348
  21621898.094 6 113623840.472 6  88538093.46247  21621906.30947
  20672240.211 6 108633353.389 6  84649404.98048  20672249.71148
  21674016.234 6 113897722.013 6  88751475.54248  21674025.29748
  22769349.023 5 119653926.517 5  93236717.14647  22769357.76647
  24039165.602 3 126326620.363 3  98436393.52845  24039176.10545
  21638876.781 6 113713064.574 6  88607589.21549  21638888.18449
 22  7  3 17 15 10.0000000  0  8G05G07G13G14G17G19G20G30            
  23430075.133 4 123125874.148 4  95942273.13246  23430085.03146
  23317233.906 5 122532889.021 5  95480206.02848  23317243.92248
  21620605.180 6 113617047.917 6  88532800.55647  21620614.07447
  20674521.719 6 108645341.036 6  84658745.99748  20674530.76648
  21672462.094 6 113889555.526 6  88745112.05448  21672471.46148
  22767311.875 5 119643217.616 5  93228372.56947  22767319.65647
  24042417.680 2 126343713.590 2  98449712.95345  24042428.63345
  21640843.148 6 113723398.033 6  88615641.25549  21640854.41849
 22  7  3 17 15 15.0000000  0  8G05G07G13G14G17G19G20G30            
  23432250.008 4 123137304.558 4  95951179.95246  23432260.57046
  23320339.117 5 122549207.178 5  95492921.46248  23320349.05548
  21619314.586 6 113610266.637 6  88527516.45147  21619322.94547
  20676804.477 6 108657340.844 6  84668096.50648  20676814.48448
  21670910.828 6 113881401.980 6  88738758.64647  21670920.02747
  22765274.820 5 119632516.562 5  93220034.11247  22765283.13747
  24045671.813 2 126360811.033 2  98463035.58045  24045681.84045
  21642810.891 6 113733738.769 6  88623698.97149  21642822.16849
 22  7  3 17 15 20.0000000  0  8G05G07G13G14G17G19G20G30            
  23434428.969 4 123148748.740 4  95960097.48746  23434438.49246
  23323445.906 5 122565530.834 5  95505641.20748  23323455.59448
  21618026.234 6 113603496.739 6  88522241.20347  21618034.90247
  20679091.070 6 108669352.847 6  84677456.50648  20679100.20748
  21669361.328 6 113873261.341 6  88732415.28448  21669371.02748
  22763239.477 5 119621823.367 5  93211701.76847  22763248.57447
  24048926.344 1 126377912.678 1  98476361.54445  24048936.55945
  21644780.359 6 113744086.807 6  88631762.37349  21644791.34049
 22  7  3 17 15 25.0000000  0  8G05G07G13G14G17G19G20G30            
  23436609.438 3 123160206.788 3  95969025.81147  23436618.96947
  23326553.492 5 122581860.196 5  95518365.38748  23326562.94548
  21616740.563 6 113596738.339 6  88516974.92647  21616749.20347
  20681378.555 6 108681377.195 6  84686826.12548  20681388.09448
  21667814.594 6 113865133.812 6  88726082.15547  21667824.17247
  22761206.531 5 119611138.265 5  93203375.72947  22761214.83647
  24052180.938 2 126395018.750 2  98489690.97845  24052191.60945
  21646751.156 6 113754442.267 6  88639831.55849  21646761.66849
 22  7  3 17 15 30.0000000  0  8G05G07G13G14G17G19G20G30            
  23438792.367 4 123171678.262 4  95977964.61346  23438801.68446
  23329661.711 5 122598194.919 5  95531093.73648  23329671.14148
  21615456.555 6 113589991.137 6  88511717.36647  21615465.30947
  20683669.586 6 108693413.555 6  84696205.11048  20683678.57448
  21666270.484 6 113857019.113 6  88719759.02148  21666279.94148
  22759174.984 5 119600460.895 5  93195055.71347  22759183.37547
  24055437.414 1 126412128.838 1  98503023.44345  24055447.82045
  21648722.500 6 113764804.855 6  88647906.30749  21648733.67249
 22  7  3 17 15 35.0000000  0  8G05G07G13G14G17G19G20G30            
  23440976.688 4 123183162.918 4  95986913.68247  23440987.53147
  23332770.594 5 122614534.720 5  95543826.04948  23332780.19948
  21614174.977 6 113583254.813 6  88506468.28647  21614183.35247
  20685961.695 6 108705461.582 6  84705593.18548  20685971.16848
  21664728.734 6 113848916.956 6  88713445.66048  21664738.05148
  22757144.141 5 119589790.954 5  93186741.49747  22757152.71147
  24058692.961 1 126429242.640 1  98516358.87645  24058704.08245
  21650696.148 6 113775174.248 6  88655986.34749  21650706.97349
 22  7  3 17 15 40.0000000  0  8G05G07G13G14G17G19G20G30            
  23443165.133 4 123194661.154 4  95995873.33146  23443174.91846
  23335881.227 5 122630879.956 5  95556562.58748  23335891.02348
  21612894.781 6 113576529.739 6  88501227.98147  21612903.58247
  20688257.273 6 108717521.664 6  84714990.65348  20688266.29748
  21663189.609 6 113840827.693 6  88707142.33748  21663198.89548
  22755115.813 5 119579128.812 5  93178433.35047  22755124.30547
  24061950.797 1 126446360.542 1  98529697.43345  24061961.87945
  21652670.656 6 113785550.783 6  88664071.95049  21652681.51249
 22  7  3 17 15 45.0000000  0  8G05G07G13G14G17G19G20G30            
  23445356.484 3 123206173.170 3  96004843.73147  23445365.99247
  23338992.797 5 122647230.979 5  95569303.63648  23339002.31348
  21611617.211 6 113569816.243 6  88495996.68547  21611626.02047
  20690554.398 6 108729594.055 6  84724397.71248  20690563.53148
  21661652.711 6 113832751.642 6  88700849.31548  21661661.96548
  22753088.414 5 119568474.850 5  93170131.59047  22753096.61347
  24065210.023 1 126463482.695 1  98543039.38945  24065219.77745
  21654646.547 6 113795934.817 6  88672163.40649  21654657.62549
 22  7  3 17 15 50.0000000  0  8G05G07G13G14G17G19G20G30            
  23447549.469 4 123217698.265 4  96013824.29346  23447559.44946
  23342104.727 5 122663587.033 5  95582048.61148  23342114.72748
  21610341.734 6 113563113.686 6  88490773.91147  21610350.26647
  20692853.531 6 108741678.098 6  84733813.84548  20692862.97748
  21660118.125 6 113824688.128 6  88694566.06348  21660127.79348
  22751061.898 5 119557828.303 5  93161835.58947  22751070.40647
  24068468.367 1 126480608.537 1  98556384.20145  24068478.53145
  21656623.555 6 113806325.664 6  88680260.16249  21656634.93849
 22  7  3 17 15 55.0000000  0  8G05G07G13G14G17G19G20G30            
  23449744.891 3 123229236.774 3  96022815.32446  23449754.85946
  23345217.750 5 122679948.525 5  95594797.81848  23345227.86748
  21609068.977 6 113556422.326 6  88485559.87147  21609077.03147
  20695155.914 6 108753774.091 6  84743239.29948  20695164.77348
  21658586.586 6 113816637.483 6  88688292.83948  21658595.85548
  22749037.617 6 119547189.543 6  93153545.66647  22749045.52347
  24071728.523 2 126497738.366 2  98569732.06245  24071738.60545
  21658602.953 6 113816723.607 6  88688362.45849  21658613.94949
 22  7  3 17 16  0.0000000  0  8G05G07G13G14G17G19G20G30            
  23451943.500 4 123240788.678 4  96031816.78246  23451953.04346
  23348332.953 5 122696315.261 5  95607551.09748  23348342.59848
  21607797.789 6 113549742.119 6  88480354.51747  21607806.01647
  20697459.594 6 108765881.887 6  84752673.94648  20697468.83248
  21657056.367 6 113808599.588 6  88682029.54748  21657066.22348
  22747014.398 5 119536558.472 5  93145261.74047  22747022.78947
  24074987.906 1 126514871.989 1  98583082.97545  24074999.03145
  21660582.531 6 113827128.566 6  88696470.21849  21660593.91049
 22  7  3 17 16  5.0000000  0  8G05G07G13G14G17G19G20G30            
  23454143.359 4 123252354.095 4  96040828.79046  23454153.65246
  23351448.414 5 122712687.543 5  95620308.71648  23351457.90248
  21606528.938 6 113543073.351 6  88475158.08347  21606536.89547
  20699766.477 6 108778001.796 6  84762118.02748  20699775.12948
  21655529.680 6 113800574.793 6  88675776.45347  21655539.06647
  22744993.055 5 119525935.417 5  93136984.04347  22745001.10247
  24078249.578 1 126532009.855 1  98596437.12445  24078260.59845
  21662563.680 6 113837540.793 6  88704583.63149  21662575.16449
 22  7  3 17 16 10.0000000  0  8G05G07G13G14G17G19G20G30            
  23456347.344 4 123263932.768 4  96049851.11746  23456356.98046
  23354564.953 5 122729065.018 5  95633070.37748  23354574.73048
  21605261.523 6 113536415.688 6  88469970.28947  21605270.19147
  20702074.727 6 108790133.411 6  84771571.23448  20702083.71548
  21654005.258 6 113792562.706 6  88669533.27848  21654014.22748
  22742973.547 5 119515320.021 5  93128712.32647  22742980.78947
  24081511.922 1 126549151.327 1  98609794.06345  24081522.27745
  21664546.258 6 113847959.954 6  88712702.45749  21664557.75849
 22  7  3 17 16 15.0000000  0  8G05G07G13G14G17G19G20G30            
  23458553.070 4 123275525.256 4  96058884.21046  23458562.66446
  23357682.789 5 122745448.260 5  95645836.53548  23357692.84848
  21603997.203 6 113529769.696 6  88464791.60247  21604005.53147
  20704385.680 6 108802277.313 6  84781034.01648  20704394.68848
  21652482.672 6 113784563.961 6  88663300.48948  21652492.03548
  22740954.367 5 119504712.810 5  93120446.99947  22740962.38747
  24084774.242 1 126566297.172 1  98623154.47245  24084785.42245
  21666530.813 6 113858386.604 6  88720827.11949  21666542.09849
 22  7  3 17 16 20.0000000  0  8G05G07G13G14G17G19G20G30            
  23460762.242 4 123287131.067 4  96067927.68646  23460770.91846
  23360801.953 5 122761836.843 5  95658606.85348  23360811.23048
  21602734.625 6 113523135.011 6  88459621.72747  21602743.14847
  20706698.453 6 108814433.074 6  84790506.04348  20706707.29748
  21650962.867 6 113776578.115 6  88657077.75848  21650972.29348
  22738937.063 5 119494113.425 5  93112187.75747  22738945.79747
  24088037.516 2 126583446.787 2  98636517.81245  24088048.21545
  21668515.742 6 113868820.353 6  88728957.31449  21668527.62549
 22  7  3 17 16 25.0000000  0  8G05G07G13G14G17G19G20G30            
  23462972.930 4 123298749.913 4  96076981.31546  23462982.09046
  23363921.281 5 122778230.488 5  95671381.12048  23363930.77748
  21601474.156 6 113516511.269 6  88454460.37147  21601482.58247
  20709014.203 6 108826600.362 6  84799987.04848  20709023.34048
  21649445.719 6 113768604.895 6  88650864.86748  21649455.13748
  22736921.992 6 119483521.557 6  93103934.37647  22736930.26247
  24091301.555 2 126600599.968 2  98649883.89445  24091312.81645
  21670503.273 6 113879260.874 6  88737092.78649  21670514.28949
 22  7  3 17 16 30.0000000  0  8G05G07G13G14G17G19G20G30            
  23465186.875 4 123310382.027 4  96086045.27546  23465195.63346
  23367042.063 5 122794629.511 5  95684159.57448  23367051.91848
  21600215.430 6 113509898.771 6  88449307.76747  21600224.40647
  20711331.133 6 108838779.497 6  84809477.28448  20711340.69548
  21647931.078 6 113760644.616 6  88644662.05048  21647940.79748
  22734907.203 5 119472937.585 5  93095687.16247  22734916.05947
  24094566.641 1 126617756.930 1  98663252.91145  24094577.69945
  21672491.188 6 113889708.453 6  88745233.75749  21672502.40249
 22  7  3 17 16 35.0000000  0  8G05G07G13G14G17G19G20G30            
  23467402.344 4 123322027.435 4  96095119.61147  23467412.04347
  23370163.148 5 122811033.755 5  95696942.09748  23370173.61748
  21598959.203 6 113503297.369 6  88444163.82047  21598967.75047
  20713651.250 6 108850970.358 6  84818976.65548  20713660.20748
  21646419.016 6 113752697.164 6  88638469.23648  21646428.17648
  22732894.953 5 119462361.338 5  93087445.94847  22732903.46547
  24097832.977 2 126634917.655 2  98676624.94845  24097843.62945
  21674480.273 6 113900163.036 6  88753380.18849  21674491.94949
 22  7  3 17 16 40.0000000  0  8G05G07G13G14G17G19G20G30            
  23469621.383 4 123333685.851 4  96104204.09946  23469630.59046
  23373286.242 5 122827443.077 5  95709728.57548  23373296.26248
  21597705.188 6 113496707.054 6  88439028.51847  21597713.50447
  20715973.633 6 108863172.784 6  84828485.04148  20715982.58248
  21644909.047 6 113744762.485 6  88632286.37848  21644917.90648
  22730883.148 5 119451792.728 5  93079210.69247  22730891.98047
  24101097.688 2 126652081.851 2  98689999.56345  24101109.34845
  21676470.781 6 113910624.500 6  88761531.97749  21676482.50849
 22  7  3 17 16 45.0000000  0  8G05G07G13G14G17G19G20G30            
  23471841.984 4 123345357.077 4  96113298.55446  23471851.55946
  23376409.234 5 122843857.271 5  95722518.85448  23376419.86748
  21596453.336 6 113490127.602 6  88433901.67147  21596461.73447
  20718297.961 6 108875386.563 6  84838002.27148  20718306.76648
  21643401.047 6 113736840.393 6  88626113.32048  21643410.51248
  22728874.055 5 119441231.513 5  93070981.19047  22728882.40647
  24104366.094 1 126669249.421 1  98703376.91345  24104376.50445
  21678463.266 6 113921092.553 6  88769688.89849  21678474.19149
 22  7  3 17 16 50.0000000  0  8G05G07G13G14G17G19G20G30            
  23474066.102 4 123357041.167 4  96122403.03446  23474074.93846
  23379533.602 5 122860276.560 5  95735313.08948  23379543.88748
  21595203.398 6 113483559.176 6  88428783.42247  21595211.89147
  20720624.164 6 108887611.847 6  84847528.46448  20720633.10548
  21641896.414 6 113728930.936 6  88619950.11248  21641905.11748
  22726865.539 5 119430677.912 5  93062757.63947  22726873.82447
  24107632.383 2 126686420.518 2  98716756.97745  24107643.53945
  21680457.000 6 113931567.400 6  88777851.11749  21680467.76249
 22  7  3 17 16 55.0000000  0  8G05G07G13G14G17G19G20G30            
  23476291.641 4 123368738.490 4  96131517.81346  23476300.96146
  23382659.242 5 122876701.070 5  95748111.40648  23382669.35548
  21593955.555 6 113477002.002 6  88423673.93547  21593963.89147
  20722952.719 6 108899848.791 6  84857063.73948  20722961.61748
  21640393.414 6 113721034.333 6  88613796.92448  21640402.72748
  22724858.641 5 119420132.150 5  93054540.18047  22724867.27047
  24110901.469 1 126703595.205 1  98730139.81945  24110912.46545
  21682451.594 6 113942049.259 6  88786018.79249  21682462.34449
 22  7  3 17 17  0.0000000  0  8G05G07G13G14G17G19G20G30            
  23478519.992 4 123380449.156 4  96140642.99046  23478529.34046
  23385785.594 5 122893131.097 5  95760914.01948  23385795.84848
  21592710.102 6 113470456.314 6  88418573.40347  21592718.48047
  20725283.438 6 108912097.662 6  84866608.31348  20725292.51248
  21638893.398 6 113713150.885 6  88607653.98748  21638902.39148
  22722853.719 5 119409594.439 5  93046329.01447  22722861.85247
  24114170.398 2 126720773.841 2  98743525.75445  24114181.25445
  21684446.922 6 113952538.329 6  88794192.09049  21684458.35949
 22  7  3 17 17  5.0000000  0  8G05G07G13G14G17G19G20G30            
  23480751.055 3 123392172.790 3  96149778.29046  23480760.61346
  23388913.500 5 122909566.217 5  95773720.60348  23388923.43848
  21591466.250 6 113463921.753 6  88413481.54647  21591475.03147
  20727616.789 6 108924358.046 6  84876161.85648  20727625.53548
  21637395.938 6 113705280.202 6  88601520.98548  21637404.48448
  22720850.023 5 119399064.456 5  93038123.86147  22720858.00047
  24117439.383 2 126737955.879 2  98756914.30945  24117451.02745
  21686444.781 6 113963034.261 6  88802370.73749  21686456.13749
 22  7  3 17 17 10.0000000  0  8G05G07G13G14G17G19G20G30            
  23482984.531 4 123403909.556 4  96158923.79746  23482993.78146
  23392041.836 5 122926006.553 5  95786531.24448  23392051.64548
  21590225.055 6 113457398.471 6  88408398.46347  21590233.70747
  20729952.289 6 108936630.081 6  84885724.49048  20729960.84048
  21635900.500 6 113697422.416 6  88595398.03248  21635909.50848
  22718847.906 5 119388542.282 5  93029924.78047  22718855.78547
  24120710.672 2 126755141.570 2  98770305.81345  24120721.56645
  21688443.438 6 113973537.137 6  88810554.79349  21688454.08649
 22  7  3 17 17 15.0000000  0  8G05G07G13G14G17G19G20G30            
  23485220.102 5 123415658.962 5  96168079.15746  23485229.74646
  23395171.219 5 122942451.663 5  95799345.61748  23395180.79348
  21588986.203 6 113450886.016 6  88403323.82347  21588994.32447
  20732288.711 6 108948913.278 6  84895295.80448  20732298.17248
  21634407.523 6 113689577.138 6  88589284.83148  21634416.70348
  22716846.289 5 119378027.542 5  93021731.50347  22716854.87947
  24123981.172 2 126772330.413 2  98783699.62245  24123991.73045
  21690443.094 6 113984046.556 6  88818743.95449  21690454.18849
 22  7  3 17 17 20.0000000  0  8G05G07G13G14G17G19G20G30            
  23487458.477 5 123427421.134 5  96177244.47946  23487468.30146
  23398302.281 5 122958901.732 5  95812163.85748  23398310.97348
  21587748.828 6 113444384.558 6  88398257.75347  21587757.32047
  20734628.688 6 108961207.800 6  84904875.94648  20734637.70748
  21632917.594 6 113681744.512 6  88583181.49648  21632926.30548
  22714846.477 5 119367520.361 5  93013544.10946  22714854.87546
  24127253.227 2 126789522.503 2  98797096.05245  24127263.65645
  21692444.000 6 113994562.671 6  88826938.32949  21692455.21549
 22  7  3 17 17 25.0000000  0  8G05G07G13G14G17G19G20G30            
  23489699.500 5 123439196.178 5  96186419.83046  23489708.26246
  23401432.969 5 122975356.798 5  95824985.97948  23401442.62148
  21586513.547 6 113437894.169 6  88393200.31447  21586521.89847
  20736970.742 6 108973513.684 6  84914464.94848  20736979.65248
  21631429.242 6 113673924.636 6  88577088.09348  21631438.02748
  22712849.203 5 119357020.875 5  93005362.71147  22712856.91047
  24130524.609 2 126806717.948 2  98810495.09345  24130535.57045
  21694446.789 6 114005085.552 6  88835137.96649  21694458.05549
 22  7  3 17 17 30.0000000  0  8G05G07G13G14G17G19G20G30            
  23491942.258 5 123450984.452 5  96195605.49546  23491951.91046
  23404566.500 5 122991817.356 5  95837812.39448  23404574.59048
  21585280.422 6 113431415.344 6  88388151.87947  21585288.88347
  20739314.914 6 108985831.421 6  84924063.18848  20739323.96948
  21629943.563 6 113666117.988 6  88571004.99248  21629952.28948
  22710851.859 5 119346529.589 5  92997187.69547  22710860.34847
  24133797.836 3 126823917.155 3  98823897.06245  24133809.10945
  21696450.766 6 114015615.651 6  88843343.24049  21696461.60949
 22  7  3 17 17 35.0000000  0  8G05G07G13G14G17G19G20G30            
  23494187.766 5 123462784.860 5  96204800.60146  23494197.51246
  23407699.141 5 123008282.189 5  95850642.13848  23407708.37548
  21584049.211 6 113424946.845 6  88383111.48747  21584058.14847
  20741660.531 6 108998159.835 6  84933669.75048  20741669.57048
  21628459.969 6 113658323.412 6  88564931.30348  21628469.27048
  22708857.453 5 119336045.178 5  92989018.03246  22708865.03546
  24137071.547 3 126841119.018 3  98837301.07045  24137081.84445
  21698455.852 6 114026151.789 6  88851553.21349  21698466.79349
 22  7  3 17 17 40.0000000  0  8G05G07G13G14G17G19G20G30            
  23496436.539 5 123474598.073 5  96214005.69746  23496445.43846
  23410832.547 5 123024752.010 5  95863475.76348  23410842.35548
  21582820.789 6 113418489.426 6  88378079.74047  21582829.14547
  20744008.922 6 109010499.560 6  84943285.11948  20744017.74648
  21626978.852 6 113650541.577 6  88558867.54547  21626988.26247
  22706864.141 5 119325568.495 5  92980854.39646  22706871.54346
  24140345.938 3 126858324.126 3  98850707.65345  24140356.03945
  21700461.758 6 114036694.684 6  88859768.45949  21700472.89149
 22  7  3 17 17 45.0000000  0  8G05G07G13G14G17G19G20G30            
  23498686.367 4 123486423.468 4  96223220.27546  23498695.30946
  23413967.172 5 123041226.257 5  95876312.83548  23413977.43848
  21581593.781 6 113412042.528 6  88373056.18347  21581602.04347
  20746359.336 6 109022849.997 6  84952908.83248  20746368.25848
  21625500.844 6 113642771.894 6  88552813.24847  21625509.78547
  22704872.008 5 119315098.945 5  92972696.31846  22704878.82846
  24143619.688 2 126875531.908 2  98864116.27945  24143630.30145
  21702468.797 6 114047243.716 6  88867988.47949  21702480.45349
 22  7  3 17 17 50.0000000  0  8G05G07G13G14G17G19G20G30            
  23500939.109 4 123498261.701 4  96232444.87046  23500947.92646
  23417103.805 5 123057705.543 5  95889153.83648  23417113.36348
  21580369.898 6 113405606.769 6  88368041.31647  21580377.70347
  20748711.859 6 109035211.805 6  84962541.41248  20748720.39148
  21624024.586 6 113635015.077 6  88546768.98247  21624033.50047
  22702881.000 5 119304637.139 5  92964544.27846  22702888.54346
  24146895.461 2 126892742.986 2  98877527.55545  24146905.20345
  21704477.805 6 114057799.538 6  88876213.79949  21704489.08649
 22  7  3 17 17 55.0000000  0  8G05G07G13G14G17G19G20G30            
  23503194.000 4 123510112.409 4  96241679.18846  23503202.79346
  23420240.156 5 123074189.628 5  95901998.56748  23420250.44548
  21579146.609 6 113399181.872 6  88363034.91047  21579154.79747
  20751066.023 6 109047584.685 6  84972182.61148  20751074.95348
  21622550.477 6 113627270.837 6  88540734.52047  21622559.76247
  22700891.219 5 119294182.785 5  92956398.03446  22700898.47746
  24150170.797 2 126909957.004 2  98890941.02945  24150181.51645
  21706487.992 6 114068361.875 6  88884444.18949  21706498.91049
 22  7  3 17 18  0.0000000  0  8G05G07G13G14G17G19G20G30            
  23505452.398 4 123521975.778 4  96250923.35846  23505460.89546
  23423378.305 5 123090678.582 5  95914847.08348  23423387.99648
  21577926.258 6 113392767.979 6  88358037.07847  21577934.63347
  20753422.492 6 109059968.725 6  84981832.51448  20753431.56648
  21621079.992 6 113619539.307 6  88534709.94948  21621088.60248
  22698902.578 5 119283736.111 5  92948257.78046  22698910.50846
  24153448.469 1 126927174.157 1  98904356.92145  24153458.07445
  21708499.578 6 114078930.876 6  88892679.77449  21708510.53949
 22  7  3 17 18  5.0000000  0  8G05G07G13G14G17G19G20G30            
  23507711.344 4 123533851.811 4  96260177.40946  23507720.25046
  23426516.383 5 123107172.404 5  95927699.40648  23426526.50848
  21576707.555 6 113386365.144 6  88353047.85247  21576716.03547
  20755781.813 6 109072363.963 6  84991491.14148  20755790.62548
  21619610.953 6 113611820.481 6  88528695.28448  21619619.92248
  22696916.828 5 119273297.073 5  92940123.47947  22696924.03947
  24156725.789 1 126944394.470 1  98917775.32245  24156734.66445
  21710511.398 6 114089506.515 6  88900920.53149  21710523.05149
 22  7  3 17 18 10.0000000  0  8G05G07G13G14G17G19G20G30            
  23509974.031 4 123545740.493 4  96269441.30746  23509982.98846
  23429656.188 5 123123671.204 5  95940555.61448  23429666.14848
  21575491.344 6 113379973.416 6  88348067.28147  21575499.88347
  20758142.047 6 109084770.496 6  85001158.56648  20758151.24248
  21618144.344 6 113604114.516 6  88522690.64648  21618153.14148
  22694931.445 5 119262865.872 5  92931995.27947  22694939.21147
  24160002.242 1 126961617.917 1  98931196.29445  24160012.51645
  21712525.219 6 114100088.908 6  88909166.54649  21712536.24249
 22  7  3 17 18 15.0000000  0  8G05G07G13G14G17G19G20G30            
  23512238.875 5 123557641.552 5  96278714.85446  23512247.43046
  23432796.531 5 123140174.754 5  95953415.52248  23432806.53948
  21574277.047 6 113373592.612 6  88343095.23547  21574285.59847
  20760505.133 6 109097188.012 6  85010834.55448  20760514.08248
  21616680.656 6 113596421.119 6  88516695.78548  21616689.70748
  22692948.172 5 119252442.150 5  92923872.90447  22692955.95347
  24163279.367 1 126978844.283 1  98944619.37945  24163290.71945
  21714540.602 6 114110677.797 6  88917417.62349  21714551.26249
 22  7  3 17 18 20.0000000  0  8G05G07G13G14G17G19G20G30            
  23514505.766 5 123569555.265 5  96287998.26146  23514514.84446
  23435938.578 5 123156683.224 5  95966279.26348  23435947.69948
  21573065.125 6 113367222.909 6  88338131.83247  21573073.28947
  20762870.359 6 109109616.688 6  85020519.22848  20762879.68048
  21615219.195 6 113588740.500 6  88510710.89148  21615227.96948
  22690966.375 5 119242026.138 5  92915756.54047  22690974.07447
  24166558.141 2 126996073.719 2  98958044.85245  24166569.14845
  21716556.281 6 114121273.366 6  88925673.91349  21716567.79349
 22  7  3 17 18 25.0000000  0  8G05G07G13G14G17G19G20G30            
  23516775.930 5 123581480.987 5  96297291.01846  23516783.72346
  23439081.508 5 123173196.005 5  95979146.37148  23439090.03948
  21571855.289 6 113360863.696 6  88333176.60347  21571862.71547
  20765237.695 6 109122055.944 6  85030212.15648  20765246.69948
  21613759.164 6 113581072.102 6  88504735.51348  21613768.59448
  22688985.438 5 119231617.245 5  92907645.73847  22688993.55147
  24169838.070 1 127013305.665 1  98971472.36145  24169849.01645
  21718574.047 6 114131874.993 6  88933934.91349  21718585.21149
 22  7  3 17 18 30.0000000  0  8G05G07G13G14G17G19G20G30            
  23519047.289 5 123593418.729 5  96306593.14346  23519055.66046
  23442224.000 5 123189713.106 5  95992016.85248  23442232.98048
  21570646.805 6 113354515.004 6  88328229.57647  21570655.14847
  20767606.703 6 109134505.788 6  85039913.33348  20767615.74248
  21612302.117 6 113573415.979 6  88498769.71547  21612311.82847
  22687005.820 5 119221215.538 5  92899540.52047  22687014.35947
  24173117.867 2 127030540.089 2  98984901.76845  24173128.53945
  21720592.844 6 114142482.771 6  88942200.71649  21720603.58649
 22  7  3 17 18 35.0000000  0  8G05G07G13G14G17G19G20G30            
  23521320.844 5 123605368.998 5  96315905.02847  23521329.82847
  23445367.617 5 123206235.086 5  96004891.12448  23445377.17648
  21569440.945 6 113348177.392 6  88323291.17847  21569449.00447
  20769977.906 6 109146966.726 6  85049623.14648  20769986.81648
  21610848.563 6 113565772.634 6  88492813.86248  21610857.50848
  22685027.406 5 119210821.490 5  92891441.29247  22685036.34847
  24176397.766 3 127047777.510 3  98998333.44445  24176408.64845
  21722612.328 6 114153097.133 6  88950471.64749  21722623.66049
 22  7  3 17 18 40.0000000  0  8G05G07G13G14G17G19G20G30            
  23523597.531 5 123617331.129 5  96325226.17246  23523606.34446
  23448512.344 5 123222761.311 5  96017768.68948  23448522.01648
  21568236.750 6 113341850.254 6  88318360.93147  21568244.64547
  20772351.227 6 109159438.057 6  85059341.06448  20772360.22348
  21609395.555 6 113558141.450 6  88486867.48248  21609405.12548
  22683051.094 5 119200434.503 5  92883347.54247  22683059.77347
  24179678.609 3 127065017.180 3  99011767.03345  24179689.00845
  21724633.430 6 114163717.488 6  88958747.24849  21724644.45749
 22  7  3 17 18 45.0000000  0  8G05G07G13G14G17G19G20G30            
  23226084.172 4 122053887.416 4  95106958.33546  23226092.65246
  23151866.438 5 121663874.975 5  94803052.05148  23151875.36348
  21267242.094 6 111760112.232 6  87085837.80547  21267249.99647
  20474934.781 6 107596502.257 6  83841469.02148  20474943.40648
  21308152.711 6 111975100.828 6  87253329.35448  21308162.96948
  22381283.289 5 117614632.432 5  91647657.63547  22381291.70347
  23883167.938 2 125506842.728 2  97797605.04345  23883178.18045
  21426864.133 6 112598925.888 6  87739429.12049  21426874.81349
 22  7  3 17 18 50.0000000  0  8G05G07G13G14G17G19G20G30            
  23228364.813 4 122065873.681 4  95116298.27047  23228373.93047
  23155012.883 5 121680410.042 5  94815936.51248  23155022.71548
  21266042.359 6 111753806.390 6  87080924.16647  21266050.51647
  20477311.945 6 107608994.854 6  83851203.51848  20477320.72348
  21306705.430 6 111967494.397 6  87247402.27148  21306715.32448
  22379309.070 5 117604260.053 5  91639575.27847  22379318.01647
  23886449.063 2 125524087.545 2  97811042.54945  23886459.65645
  21428887.109 6 112609558.621 6  87747714.37149  21428898.03149
 22  7  3 17 18 55.0000000  0  8G05G07G13G14G17G19G20G30            
  23230648.922 4 122077871.605 4  95125647.31347  23230657.12147
  23158159.875 5 121696949.158 5  94828824.12548  23158169.28948
  21264843.711 6 111747510.912 6  87076018.60447  21264852.49647
  20479690.633 6 107621497.673 6  83860945.96548  20479699.94148
  21305261.000 6 111959899.983 6  87241484.55348  21305270.14848
  22377336.734 5 117593894.626 5  91631498.33847  22377345.32047
  23889732.039 3 125541334.488 3  97824481.70745  23889742.21145
  21430911.508 6 112620197.152 6  87756004.13949  21430922.64149
 22  7  3 17 19  0.0000000  0  8G05G07G13G14G17G19G20G30            
  23232934.047 4 122089881.509 4  95135005.66247  23232943.37147
  23161307.930 5 121713492.652 5  94841715.14348  23161317.60248
  21263648.203 6 111741226.059 6  87071121.32747  21263656.30947
  20482071.891 6 107634011.064 6  83870696.66148  20482081.21148
  21303817.813 6 111952317.953 6  87235576.48548  21303827.51648
  22375365.805 5 117583536.497 5  91623427.08647  22375374.84847
  23893013.180 2 125558583.892 2  97837922.80445  23893024.46145
  21432937.242 6 112630841.865 6  87764298.71749  21432948.19549
 22  7  3 17 19  5.0000000  0  8G05G07G13G14G17G19G20G30            
  23235221.477 5 122101903.769 5  95144373.65347  23235231.14147
  23164457.125 5 121730040.867 5  94854609.84548  23164466.63748
  21262454.336 6 111734952.195 6  87066232.61047  21262462.33247
  20484455.141 6 107646535.327 6  83880455.82748  20484464.28548
  21302377.633 6 111944748.650 6  87229678.33548  21302387.33648
  22373396.055 5 117573185.939 5  91615361.74447  22373405.57847
  23896296.750 2 125575836.001 2  97851365.96145  23896307.26245
  21434963.750 6 112641493.048 6  87772598.34249  21434974.93449
 22  7  3 17 19 10.0000000  0  8G05G07G13G14G17G19G20G30            
  23237511.391 5 122113937.940 5  95153750.91947  23237520.82047
  23167606.945 5 121746593.376 5  94867507.89648  23167617.12148
  21261262.047 6 111728689.008 6  87061352.20847  21261270.53547
  20486840.516 6 107659070.071 6  83890223.15948  20486849.92248
  21300939.734 6 111937191.706 6  87223789.81048  21300948.95348
  22371427.969 5 117562842.723 5  91607302.11947  22371437.19947
  23899580.422 2 125593090.396 2  97864810.94745  23899590.82845
  21436991.805 6 112652150.346 6  87780902.72049  21437002.81649
 22  7  3 17 19 15.0000000  0  8G05G07G13G14G17G19G20G30            
  23239803.695 5 122125984.115 5  95163137.52947  23239813.02747
  23170758.219 5 121763150.415 5  94880409.48848  23170767.78948
  21260073.156 6 111722436.602 6  87056480.21147  21260080.84847
  20489227.688 6 107671615.456 6  83899998.77648  20489236.67648
  21299503.781 6 111929647.337 6  87217911.08048  21299512.85548
  22369461.063 5 117552506.882 5  91599248.22947  22369470.34447
  23902864.805 2 125610347.399 2  97878257.94845  23902874.85945
  21439021.336 6 112662813.919 6  87789212.00049  21439032.21149
 22  7  3 17 19 20.0000000  0  9G05G07G13G14G15G17G19G20G30         
  23242098.422 5 122138042.397 5  95172533.59347  23242107.86747
  23173909.883 5 121779711.996 5  94893314.60848  23173919.29348
  21258884.805 6 111716195.088 6  87051616.69147  21258892.88347
  20491616.867 6 107684171.531 6  83909782.73048  20491626.12548
  24378898.539 5 128112065.68215  99827549.54957  24378908.25847
  21298070.805 6 111922115.524 6  87212042.14448  21298079.85548
  22367495.375 5 117542178.659 5  91591200.29047  22367504.75447
  23906147.352 2 125627606.913 2  97891706.85345  23906159.05545
  21441050.984 6 112673483.831 6  87797526.21349  21441062.18049
 22  7  3 17 19 25.0000000  0  9G05G07G13G14G15G17G19G20G30         
  23244395.422 5 122150112.697 5  95181939.01847  23244404.49247
  23177061.633 5 121796278.046 5  94906223.22648  23177071.56648
  21257698.953 6 111709964.317 6  87046761.54047  21257707.66447
  20494008.773 6 107696738.188 6  83919574.92648  20494017.57048
  24376910.648 5 128101616.322 5  99819407.21247  24376919.84847
  21296639.539 6 111914596.229 6  87206182.95048  21296649.31648
  22365531.648 5 117531857.829 5  91583158.09747  22365540.75047
  23909432.570 2 125644868.965 2  97905157.88245  23909443.74245
  21443083.344 6 112684159.978 6  87805845.28849  21443093.96149
 22  7  3 17 19 30.0000000  0  9G05G07G13G14G15G17G19G20G30         
  23246695.375 5 122162194.915 5  95191353.73147  23246703.73847
  23180215.094 5 121812848.459 5  94919135.25248  23180224.79348
  21256515.602 6 111703744.308 6  87041914.77847  21256523.66047
  20496401.914 6 107709315.408 6  83929375.36148  20496410.88348
  24374922.352 5 128091172.636 5  99811269.27447  24374932.11747
  21295210.867 6 111907089.419 6  87200333.49448  21295220.47348
  22363569.297 5 117521544.438 5  91575121.70847  22363577.53547
  23912718.828 2 125662133.361 2  97918610.55345  23912729.31345
  21445115.633 6 112694842.333 6  87814169.20249  21445126.68449
 22  7  3 17 19 35.0000000  0  9G05G07G13G14G15G17G19G20G30         
  23248995.461 5 122174288.855 5  95200777.57447  23249005.29347
  23183369.148 5 121829423.090 5  94932050.55448  23183378.84048
  21255334.000 6 111697534.758 6  87037076.18247  21255342.32047
  20498797.398 6 107721902.844 6  83939183.74648  20498806.27048
  24372936.820 5 128080734.292 5  99803135.50847  24372946.17647
  21293785.211 6 111899594.805 6  87194493.54648  21293794.04348
  22361607.898 5 117511238.179 5  91567090.86047  22361616.61347
  23916004.266 2 125679399.960 2  97932065.05245  23916014.89845
  21447149.789 6 112705530.597 6  87822497.71349  21447160.56349
 22  7  3 17 19 40.0000000  0  9G05G07G13G14G15G17G19G20G30         
  23251299.758 5 122186394.547 5  95210210.54547  23251309.26247
  23186523.438 5 121846001.990 5  94944969.17248  23186533.54748
  21254154.453 6 111691335.816 6  87032245.84147  21254163.32047
  20501194.586 6 107734500.657 6  83949000.22948  20501203.45348
  24370951.680 5 128070301.522 5  99795006.08447  24370960.96147
  21292361.039 6 111892112.577 6  87188663.23348  21292370.08648
  22359648.742 5 117500939.226 5  91559065.70947  22359656.61747
  23919290.664 2 125696668.632 2  97945521.15545  23919300.90245
  21449185.125 6 112716224.933 6  87830830.96149  21449195.34849
 22  7  3 17 19 45.0000000  0  9G05G07G13G14G15G17G19G20G30         
  23253606.188 5 122198512.106 5  95219652.79947  23253614.98447
  23189679.945 5 121862585.296 5  94957891.23648  23189689.53548
  21252976.703 6 111685147.678 6  87027423.91047  21252985.43447
  20503593.820 6 107747108.954 6  83958824.86448  20503602.79748
  24368967.078 5 128059874.464 5  99786881.11247  24368976.67647
  21290939.961 6 111884642.842 6  87182842.66548  21290948.64148
  22357689.844 5 117490647.720 5  91551046.36547  22357698.19547
  23922576.695 2 125713939.736 2  97958979.14345  23922587.48845
  21451220.945 6 112726925.423 6  87839169.00949  21451231.57449
 22  7  3 17 19 50.0000000  0  9G05G07G13G14G15G17G19G20G30         
  23255913.414 5 122210641.813 5  95229104.49247  23255922.66847
  23192835.945 5 121879173.350 5  94970816.98148  23192846.21148
  21251801.500 6 111678970.606 6  87022610.61047  21251809.65647
  20505995.156 6 107759728.003 6  83968657.88848  20506004.52048
  24366984.070 5 128049453.366 5  99778760.77147  24366993.98847
  21289521.141 6 111877185.936 6  87177032.10247  21289530.12547
  22355732.766 5 117480363.972 5  91543033.05947  22355741.29347
  23925864.883 2 125731213.384 2  97972439.10445  23925874.83245
  21453258.172 6 112737632.423 6  87847512.13549  21453269.32049
 22  7  3 17 19 55.0000000  0  9G05G07G13G14G15G17G19G20G30         
  23258224.367 5 122222782.882 5  95238565.05247  23258233.27747
  23195993.125 5 121895765.357 5  94983745.81248  23196003.55548
  21250628.234 6 111672803.874 6  87017805.37647  21250635.91047
  20508398.250 6 107772357.102 6  83978498.74248  20508407.35248
  24365001.961 5 128039037.568 5  99770644.58047  24365011.75447
  21288104.164 6 111869741.108 6  87171230.94148  21288113.23848
  22353777.492 5 117470087.218 5  91535025.20647  22353785.85247
  23929151.367 2 125748488.924 2  97985900.55245  23929162.33645
  21455297.234 6 112748345.169 6  87855859.72749  21455307.92649
 22  7  3 17 20  0.0000000  0  9G05G07G13G14G15G17G19G20G30         
  23260536.781 5 122234935.578 5  95248034.66847  23260545.44947
  23199151.352 5 121912361.474 5  94996677.83048  23199161.55548
  21249456.414 6 111666647.670 6  87013008.33247  21249464.49647
  20510804.156 6 107784996.348 6  83988347.50248  20510812.60248
  24363021.641 5 128028627.173 5  99762532.57547  24363030.88347
  21286690.008 6 111862308.566 6  87165439.35548  21286698.96548
  22351823.258 5 117459817.665 5  91527022.97147  22351830.96947
  23932439.445 1 125765766.438 1  97999363.53145  23932450.20345
  21457336.789 6 112759063.799 6  87864211.89849  21457347.78949
 22  7  3 17 20  5.0000000  0  9G05G07G13G14G15G17G19G20G30         
  23262851.344 5 122247100.644 5  95257513.91947  23262860.60947
  23202310.656 5 121928962.474 5  95009613.67148  23202320.41048
  21248287.477 6 111660502.738 6  87008220.07947  21248295.45347
  20513210.477 6 107797646.502 6  83998204.76348  20513219.81348
  24361041.086 5 128018222.971 5  99754425.41447  24361051.02747
  21285277.617 6 111854889.048 6  87159657.92448  21285286.87148
  22349870.609 5 117449556.035 5  91519026.89547  22349878.03147
  23935728.555 1 125783046.709 1  98012828.66345  23935738.03945
  21459377.672 6 112769789.063 6  87872569.24449  21459388.39149
 22  7  3 17 20 10.0000000  0  9G05G07G13G14G15G17G19G20G30         
  23265169.039 5 122259277.054 5  95267002.01947  23265177.87147
  23205470.172 5 121945567.363 5  95022552.54448  23205480.45348
  21247119.500 6 111654368.148 6  87003439.88047  21247127.67647
  20515619.984 6 107810306.604 6  84008069.77148  20515628.92248
  24359062.375 5 128007824.002 5  99746322.33547  24359071.80947
  21283867.813 6 111847481.636 6  87153885.91848  21283877.68448
  22347919.055 5 117439301.451 5  91511036.30747  22347926.45347
  23939016.727 1 125800328.799 1  98026295.24145  23939027.12145
  21461419.594 6 112780520.077 6  87880931.07149  21461430.63749
 22  7  3 17 20 15.0000000  0  9G05G07G13G14G15G17G19G20G30         
  23267487.953 5 122271465.199 5  95276499.26147  23267497.64147
  23208630.898 5 121962176.569 5  95035494.78548  23208641.41048
  21245954.922 6 111648244.332 6  86998668.07847  21245962.68047
  20518030.719 6 107822977.038 6  84017942.84348  20518040.24648
  24357084.453 5 127997430.636 5  99738223.60747  24357094.40247
  21282460.891 6 111840086.714 6  87148123.64448  21282470.34448
  22345969.398 5 117429054.350 5  91503051.55647  22345976.32847
  23942306.016 1 125817613.071 1  98039763.45445  23942316.17245
  21463462.766 6 112791257.207 6  87889297.66849  21463473.98449
 22  7  3 17 20 20.0000000  0  9G05G07G13G14G15G17G19G20G30         
  23269809.109 5 122283664.927 5  95286005.53047  23269819.16847
  23211792.703 5 121978789.968 5  95048440.28948  23211802.78148
  21244791.430 6 111642131.169 6  86993904.57647  21244799.39847
  20520443.680 6 107835657.672 6  84027823.84848  20520453.27048
  24355107.742 5 127987042.901 5  99730129.27647  24355117.52747
  21281055.906 6 111832704.179 6  87142371.03048  21281065.49248
  22344020.242 5 117418814.559 5  91495072.50647  22344027.99247
  23945594.852 1 125834899.258 1  98053233.19045  23945605.64545
  21465506.828 6 112802000.278 6  87897668.88649  21465518.31649
 22  7  3 17 20 25.0000000  0  9G05G07G13G14G15G17G19G20G30         
  23272133.586 5 122295876.206 5  95295520.80047  23272142.79747
  23214954.781 5 121995407.585 5  95061389.09048  23214964.60548
  21243629.750 6 111636028.654 6  86989149.37447  21243638.27047
  20522859.039 6 107848348.499 6  84037712.80448  20522868.20348
  24353132.320 5 127976660.641 5  99722039.20447  24353141.88747
  21279653.711 6 111825334.045 6  87136628.07548  21279663.02048
  22342073.852 5 117408582.113 5  91487099.17747  22342081.18847
  23948885.047 1 125852187.531 1  98066704.55245  23948895.78945
  21467552.875 6 112812749.353 6  87906044.78849  21467564.02049
 22  7  3 17 20 30.0000000  0  9G05G07G13G14G15G17G19G20G30         
  23274458.750 5 122308098.938 5  95305044.99547  23274468.89847
  23218117.617 5 122012029.234 5  95074341.02148  23218127.87948
  21242470.070 6 111629936.666 6  86984402.37547  21242478.96147
  20525276.125 6 107861049.369 6  84047609.58248  20525285.02348
  24351157.703 5 127966283.814 5  99713953.37347  24351167.04747
  21278253.422 6 111817976.194 6  87130894.69248  21278262.71948
  22340128.219 5 117398356.918 5  91479131.50147  22340135.34847
  23952176.219 1 125869477.696 1  98080177.32845  23952186.11345
  21469599.664 6 112823504.282 6  87914425.25149  21469610.64549
 22  7  3 17 20 35.0000000  0  9G05G07G13G14G15G17G19G20G30         
  23276786.883 5 122320333.224 5  95314578.19747  23276796.83247
  23221281.219 5 122028655.010 5  95087296.17548  23221291.31348
  21241313.063 6 111623855.273 6  86979663.63247  21241321.66847
  20527694.961 6 107873760.335 6  84057514.22848  20527703.64848
  24349184.438 6 127955912.469 6  99705871.81347  24349193.61747
  21276855.266 6 111810630.713 6  87125170.94448  21276864.86748
  22338183.273 6 117388138.945 6  91471169.45647  22338191.16847
  23955465.602 1 125886769.673 1  98093651.59945  23955476.26245
  21471646.711 6 112834265.101 6  87922810.30449  21471658.13749
 22  7  3 17 20 40.0000000  0  9G05G07G13G14G15G17G19G20G30         
  23279117.016 4 122332578.875 4  95324120.25747  23279127.59447
  23224445.734 5 122045284.826 5  95100254.48348  23224455.92248
  21240157.938 6 111617784.417 6  86974933.09947  21240166.51647
  20530115.219 6 107886481.300 6  84067426.66848  20530124.48448
  24347211.680 6 127945546.534 6  99697794.45647  24347221.13347
  21275460.422 6 111803297.511 6  87119456.76448  21275469.24648
  22336240.508 5 117377928.221 5  91463213.05747  22336248.19947
  23958756.688 1 125904063.598 1  98107127.44545  23958767.34845
  21473695.711 6 112845031.796 6  87931199.93149  21473707.13749
 22  7  3 17 20 45.0000000  0  9G05G07G13G14G15G17G19G20G30         
  23281449.070 4 122344836.188 4  95333671.39647  23281459.42247
  23227611.320 5 122061918.955 5  95113216.13448  23227621.47748
  21239004.953 6 111611724.310 6  86970210.93347  21239013.13747
  20532537.883 6 107899212.531 6  84077347.10248  20532546.89848
  24345239.938 6 127935186.235 6  99689721.49447  24345250.02747
  21274066.914 6 111795976.884 6  87113752.39448  21274076.22348
  22334298.539 5 117367724.938 5  91455262.45447  22334306.36747
  23962048.031 1 125921359.49711  98120604.67855  23962058.76245
  21475745.703 6 112855804.548 6  87939594.28949  21475757.25849
 22  7  3 17 20 50.0000000  0  9G05G07G13G14G15G17G19G20G30         
  23283783.789 3 122357104.959 3  95343231.46546  23283794.14146
  23230777.359 5 122078557.229 5  95126181.00848  23230787.66448
  21237853.914 6 111605674.835 6  86965497.05147  21237862.20347
  20534962.695 6 107911953.806 6  84087275.36648  20534971.75448
  24343270.078 6 127924831.552 6  99681652.92447  24343279.48447
  21272676.422 6 111788668.641 6  87108057.65748  21272685.20748
  22332358.516 5 117357528.966 5  91447317.55947  22332366.45347
  23965338.359 1 125938657.389 1  98134083.55245  23965350.49645
  21477796.695 6 112866583.230 6  87947993.26649  21477808.30949
 22  7  3 17 20 55.0000000  0  9G05G07G13G14G15G17G19G20G30         
  23286121.344 3 122369385.399 3  95352800.62147  23286131.44547
  23233944.578 5 122095199.826 5  95139149.26348  23233954.51648
  21236704.313 6 111599636.298 6  86960791.70947  21236712.48847
  20537389.391 6 107924705.384 6  84097211.65448  20537398.46148
  24341300.539 6 127914482.591 6  99673588.78947  24341310.16447
  21271288.398 6 111781373.047 6  87102372.78647  21271297.03947
  22330418.977 5 117347340.598 5  91439378.59247  22330427.84047
  23968629.594 1                                  23968641.87145
  21479849.516 6 112877368.074 6  87956397.04049  21479860.81649
 22  7  3 17 21  0.0000000  0  9G05G07G13G14G15G17G19G20G30         
  23288459.961 4 122381677.611 4  95362378.97147  23288470.23447
  23237112.156 5 122111846.911 5  95152121.00848  23237122.61748
  21235557.836 6 111593608.751 6  86956094.91247  21235565.40247
  20539817.852 6 107937467.379 6  84107156.07248  20539826.74648
  24339332.227 6 127904139.515 6  99665529.25547  24339341.87147
  21269902.586 6 111774090.262 6  87096697.89148  21269911.34848
  22328482.617 6 117337159.968 6  91431445.64247  22328490.38747
  23971921.992 1                                  23971935.34845
  21481903.047 6 112888159.188 6  87964805.70549  21481914.22749
 22  7  3 17 21  5.0000000  0  9G05G07G13G14G15G17G19G20G30         
  23290801.297 4 122393981.381 4  95371966.31947  23290812.40247
  23240280.680 5 122128498.304 5  95165096.10348  23240290.98848
  21234413.156 6 111587592.021 6  86951406.54847  21234421.03147
  20542248.391 6 107950239.559 6  84117108.41748  20542257.44948
  24337364.984 6 127893802.203 6  99657474.21147  24337374.73447
  21268518.828 6 111766820.046 6  87091032.79348  21268527.50048
  22326545.258 5 117326986.846 5  91423518.56147  22326554.09047
  23975215.297 1 125990563.62211  98174529.85455  23975227.97745
  21483957.781 6 112898956.385 6  87973219.10649  21483968.90649
 22  7  3 17 21 10.0000000  0  9G05G07G13G14G15G17G19G20G30         
  23293145.031 5 122406296.873 5  95381562.80147  23293155.85247
  23243450.711 5 122145154.109 5  95178074.64848  23243460.46548
  21233269.883 6 111581586.297 6  86946726.76947  21233277.80147
  20544680.883 6 107963022.095 6  84127068.83048  20544689.82448
  24335398.898 6 127883470.736 6  99649423.71947  24335408.75447
  21267137.938 6 111759562.646 6  87085377.68048  21267146.62948
  22324611.922 5 117316821.458 5  91415597.49047  22324620.02747
  23978508.156 1 126007870.022 1  98188015.40545  23978521.37545
  21486014.031 6 112909759.826 6  87981637.37349  21486024.68849
 22  7  3 17 21 15.0000000  0  9G05G07G13G14G15G17G19G20G30         
  23295490.289 4 122418623.900 4  95391168.25647  23295501.38747
  23246620.742 5 122161814.147 5  95191056.49448  23246630.57048
  21232129.406 6 111575591.368 6  86942055.40047  21232137.72347
  20547115.523 6 107975814.778 6  84137037.14948  20547124.34848
  24333433.469 6 127873144.983 6  99641377.67947  24333443.50847
  21265759.211 6 111752317.814 6  87079732.36348  21265768.18848
  22322678.875 6 117306663.580 6  91407682.28547  22322687.30947
  23981802.719 1 126025178.252 1  98201502.24145  23981814.59045
  21488070.133 6 112920569.325 6  87990060.35649  21488081.21549
 22  7  3 17 21 20.0000000  0  9G05G07G13G14G15G17G19G20G30         
  23297838.805 4 122430962.228 4  95400782.52446  23297848.62946
  23249792.219 5 122178478.258 5  95204041.51948  23249801.26248
  21230990.195 6 111569607.086 6  86937392.32547  21230998.93447
  20549551.406 6 107988617.371 6  84147013.20248  20549560.51648
  24331469.703 6 127862824.771 6  99633335.96047  24331479.81647
  21264382.758 6 111745085.389 6  87074096.70448  21264391.68448
  22320747.195 6 117296513.076 6  91399772.82247  22320755.28547
  23985095.680 1 126042488.346 1  98214990.61345  23985108.84045
  21490127.859 6 112931384.679 6  87998487.90649  21490139.56349
 22  7  3 17 21 25.0000000  0  9G05G07G13G14G15G17G19G20G30         
  23300189.289 3 122443312.137 3  95410405.82746  23300199.06346
  23252964.180 5 122195146.670 5  95217029.87948  23252973.54348
  21229853.430 6 111563633.734 6  86932737.75947  21229861.92247
  20551989.383 6 108001430.156 6  84156997.18948  20551998.85248
  24329507.234 6 127852510.348 6  99625298.74947  24329517.28947
  21263009.008 6 111737865.672 6  87068470.96048  21263018.25448
  22318816.750 5 117286370.191 5  91391869.28747  22318825.19147
  23988390.211 1 126059800.306 1  98228480.53245  23988403.25445
  21492187.750 6 112942206.131 6  88006920.20549  21492198.98449
 22  7  3 17 21 30.0000000  0  9G05G07G13G14G15G17G19G20G30         
  23302541.305 4 122455673.270 4  95420037.87647  23302551.40247
  23256136.031 5 122211819.086 5  95230021.37848  23256146.30148
  21228718.523 6 111557670.924 6  86928091.42347  21228727.39847
  20554429.914 6 108014252.776 6  84166988.83648  20554438.86748
  24327545.234 6 127842201.336 6  99617265.75547  24327555.37147
  21261637.117 6 111730658.331 6  87062854.85148  21261646.99248
  22316888.305 5 117276234.626 5  91383971.45747  22316896.51247
  23991686.125 1 126077113.863 1  98241971.53745  23991697.58645
  21494248.117 6 112953033.413 6  88015357.04649  21494259.21549
 22  7  3 17 21 35.0000000  0  9G05G07G13G14G15G17G19G20G30         
  23304895.297 4 122468045.854 4  95429678.86746  23304905.49646
  23259310.938 5 122228495.617 5  95243016.06148  23259319.61348
  21227586.289 6 111551718.874 6  86923453.46547  21227594.59447
  20556871.336 6 108027085.395 6  84176988.28348  20556880.78148
  24325585.109 6 127831897.973 6  99609237.15947  24325594.50847
  21260268.305 6 111723463.529 6  87057248.52248  21260277.65648
  22314960.844 6 117266106.537 6  91376079.46147  22314969.23047
  23994981.070 1 126094429.159 1  98255463.94145  23994993.41045
  21496309.453 6 112963866.627 6  88023798.50649  21496320.53149
 22  7  3 17 21 40.0000000  0  9G05G07G13G14G15G17G19G20G30         
  23307251.430 3 122480429.904 3  95439328.74946  23307262.07046
  23262484.383 5 122245176.339 5  95256014.02448  23262493.91448
  21226456.156 6 111545777.619 6  86918823.90947  21226464.23447
  20559315.680 6 108039928.004 6  84186995.50948  20559324.60248
  24323625.188 6 127821600.247 6  99601212.96547  24323635.10547
  21258901.945 6 111716281.269 6  87051651.95648  21258910.89148
  22313035.000 5 117255985.927 5  91368193.28147  22313043.48847
  23998275.539 1 126111746.357 1  98268957.86045  23998288.40645
  21498372.211 6 112974705.787 6  88032244.60849  21498383.00849
 22  7  3 17 21 45.0000000  0  9G05G07G13G14G15G17G19G20G30         
  23309611.984 4 122492825.414 4  95448987.59146  23309620.59846
  23265658.992 5 122261861.351 5  95269015.32148  23265669.00048
  21225327.508 6 111539847.353 6  86914202.92947  21225335.40647
  20561761.289 6 108052780.762 6  84197010.64648  20561770.60248
  24321666.258 6 127811308.360 6  99593193.31047  24321676.35247
  21257537.359 6 111709111.770 6  87046065.34348  21257546.46948
  22311110.445 6 117245873.006 6  91360313.10947  22311118.63747
  24001570.922 1 126129065.419 1  98282453.18645  24001584.19945
  21500435.820 6 112985551.086 6  88040695.48649  21500446.64849
 22  7  3 17 21 50.0000000  0  9G05G07G13G14G15G17G19G20G30         
  23311972.273 4 122505232.180 4  95458655.17046  23311981.53946
  23268835.094 5 122278550.476 5  95282019.81248  23268844.82848
  21224201.359 6 111533927.758 6  86909590.24947  21224208.88347
  20564208.422 6 108065643.392 6  84207033.46748  20564218.25448
  24319709.023 6 127801022.054 6  99585178.01147  24319718.96147
  21256175.453 6 111701954.771 6  87040488.46748  21256184.87948
  22309186.977 5 117235767.526 5  91352438.71147  22309195.55947
  24004867.836 1                                  24004880.34045
  21502500.617 6 112996402.246 6  88049150.93849  21502511.75849
 22  7  3 17 21 55.0000000  0  9G05G07G13G14G15G17G19G20G30         
  23314335.656 5 122517650.438 5  95468331.73146  23314344.66446
  23272012.281 5 122295244.000 5  95295027.74448  23272021.85548
  21223076.273 6 111528019.218 6  86904986.19647  21223084.23447
  20566658.453 6 108078516.236 6  84217064.25148  20566667.45748
  24317752.547 6 127790741.681 6  99577167.33947  24317762.90647
  21254815.914 6 111694810.606 6  87034921.59248  21254824.82448
  22307265.836 5 117225669.821 5  91344570.38047  22307274.16047
  24008163.070 1 126163708.71511  98309447.87855  24008177.10945
  21504567.023 6 113007259.646 6  88057611.24849  21504577.71149
 22  7  3 17 22  0.0000000  0  9G05G07G13G14G15G17G19G20G30         
  23316700.344 5 122530079.682 5  95478016.83746  23316709.64546
  23275188.867 5 122311941.395 5  95308038.70448  23275199.41448
  21221953.992 6 111522121.266 6  86900390.39347  21221962.26247
  20569109.766 6 108091398.803 6  84227102.62048  20569119.17648
  24315797.859 5 127780466.810 5  99569160.94847  24315807.50447
  21253458.773 6 111687678.799 6  87029364.34148  21253467.95348
  22305345.117 5 117215579.453 5  91336707.75947  22305353.84847
  24011459.328 1                                  24011473.71945
  21506633.773 6 113018122.744 6  88066075.99249  21506645.20749
 22  7  3 17 22  5.0000000  0  9G05G07G13G14G15G17G19G20G30         
  23319067.570 5 122542520.093 5  95487710.65547  23319077.19547
  23278367.023 5 122328642.813 5  95321052.79548  23278377.15648
  21220833.672 6 111516233.939 6  86895802.85947  21220841.77047
  20571563.445 6 108104291.123 6  84237148.58148  20571572.93048
  24313842.938 6 127770197.441 6  99561158.85047  24313853.17247
  21252103.641 6 111680559.414 6  87023816.77748  21252113.43048
  22303427.070 6 117205496.444 6  91328850.88347  22303434.89547
  24014757.469 1 126198358.48611  98336447.72155  24014771.15645
  21508702.188 6 113028991.662 6  88074545.27549  21508713.53149
 22  7  3 17 22 10.0000000  0  9G05G07G13G14G15G17G19G20G30         
  23321437.891 5 122554971.421 5  95497412.97147  23321446.55147
  23281546.250 5 122345348.062 5  95334069.87648  23281556.50448
  21219715.461 6 111510357.125 6  86891223.52847  21219723.77047
  20574018.484 6 108117193.055 6  84247202.03048  20574028.00848
  24311890.492 6 127759933.489 6  99553160.96347  24311899.91447
  21250751.883 6 111673452.352 6  87018278.80248  21250760.27048
  22301509.852 5 117195420.704 5  91320999.65047  22301517.41447
  24018054.727 1 126215685.600 1  98349949.36845  24018068.29745
  21510771.477 6 113039866.205 6  88083018.94349  21510782.76249
 22  7  3 17 22 15.0000000  0  9G05G07G13G14G15G17G19G20G30         
  23323809.344 5 122567433.745 5  95507123.86946  23323818.12546
  23284726.000 5 122362057.194 5  95347089.97048  23284735.91448
  21218599.281 6 111504490.911 6  86886652.45247  21218607.72347
  20576475.352 6 108130104.642 6  84257263.01248  20576484.66448
  24309938.016 6 127749674.962 6  99545167.31147  24309948.17247
  21249401.219 6 111666357.701 6  87012750.51248  21249410.70748
  22299593.891 5 117185352.246 5  91313154.10047  22299601.15647
  24021351.523 1 126233014.026 1  98363451.98045  24021366.20745
  21512842.195 6 113050746.469 6  88091497.06849  21512853.39149
 22  7  3 17 22 20.0000000  0  9G05G07G13G14G15G17G19G20G30         
  23326182.875 5 122579907.313 5  95516843.51246  23326191.82446
  23287906.438 5 122378770.453 5  95360113.29348  23287916.56648
  21217484.719 6 111498635.488 6  86882089.79647  21217493.31347
  20578934.461 6 108143026.101 6  84267331.68248  20578943.91448
  24307987.063 6 127739422.147 6  99537178.09747  24307997.31647
  21248053.313 6 111659275.686 6  87007232.06348  21248062.60548
  22297679.406 6 117175291.369 6  91305314.46047  22297686.69947
  24024650.922 1 126250344.15011  98376955.96055  24024663.73045
  21514913.922 6 113061632.662 6  88099979.81249  21514924.95749
 22  7  3 17 22 25.0000000  0  9G05G07G13G14G15G17G19G20G30         
  23328558.563 5 122592391.795 5  95526571.65847  23328567.48447
  23291087.523 5 122395487.547 5  95373139.59848  23291097.69548
  21216372.664 6 111492790.643 6  86877535.37147  21216380.72347
  20581395.078 6 108155957.126 6  84277407.80348  20581404.28948
  24306036.992 6 127729174.719 6  99529193.09547  24306046.90647
  21246708.633 6 111652206.041 6  87001723.25048  21246717.80948
  22295766.469 5 117165237.811 5  91297480.52247  22295773.80147
  24027947.891 1 126267675.555 1  98390460.90145  24027961.98845
  21516986.430 6 113072524.470 6  88108466.93849  21516997.91049
 22  7  3 17 22 30.0000000  0  9G05G07G13G14G15G17G19G20G30         
  23330936.125 5 122604887.295 5  95536308.41147  23330945.53147
  23294269.539 5 122412208.608 5  95386168.98748  23294279.53948
  21215262.008 6 111486956.491 6  86872989.27847  21215270.56647
  20583857.781 6 108168897.875 6  84287491.50148  20583867.12148
  24304088.078 5 127718932.864 5  99521212.42647  24304098.42247
  21245365.516 6 111645148.897 6  86996224.17548  21245374.85248
  22293854.500 6 117155191.763 6  91289652.43247  22293861.95347
  24031246.125 1 126285008.417 1  98403967.00245  24031260.22345
  21519059.969 6 113083422.123 6  88116958.61549  21519071.48049
 22  7  3 17 22 35.0000000  0  9G05G07G13G14G15G17G19G20G30         
  23333316.109 5 122617393.792 5  95546053.72846  23333325.44546
  23297452.352 5 122428933.568 5  95399201.42248  23297462.09448
  21214153.836 6 111481132.970 6  86868451.46947  21214162.50847
  20586321.406 6 108181848.243 6  84297582.70248  20586330.89548
  24302140.273 5 127708696.540 5  99513236.07747  24302150.52047
  21244024.594 6 111638104.239 6  86990734.83648  21244034.25048
  22291944.391 5 117145153.071 5  91281830.08447  22291951.95747
  24034544.477 1                                  24034559.27745
  21521134.867 6 113094325.476 6  88125454.73349  21521146.07449
 22  7  3 17 22 40.0000000  0  9G05G07G13G14G15G17G19G20G30         
  23335697.781 5 122629911.253 5  95555807.57146  23335707.22746
  23300635.969 5 122445662.389 5  95412236.87248  23300645.98048
  21213048.078 6 111475320.073 6  86863921.94447  21213056.48447
  20588788.406 6 108194808.191 6  84307681.36148  20588797.18848
  24300193.414 5 127698465.729 5  99505264.00547  24300203.19147
  21242686.625 6 111631072.010 6  86985255.18448  21242696.21148
  22290035.367 6 117135121.763 6  91274013.47147  22290042.57047
  24037843.703 1                                  24037857.68445
  21523211.195 6 113105234.546 6  88133955.30749  21523222.21149
 22  7  3 17 22 45.0000000  0  9G05G07G13G14G15G17G19G20G30         
  23338081.531 5 122642439.592 5  95565569.90946  23338091.41446
  23303819.547 5 122462395.118 5  95425275.37548  23303830.08248
  21211943.625 6 111469517.817 6  86859400.70747  21211952.17647
  20591255.664 6 108207777.736 6  84317787.50048  20591265.66048
  24298248.063 5 127688240.400 5  99497296.23347  24298257.44147
  21241350.852 6 111624052.225 6  86979785.22648  21241360.22348
  22288127.523 5 117125097.863 5  91266202.64347  22288135.30547
  24041142.969 1                                  24041157.00845
  21525288.109 6 113116149.313 6  88142460.32149  21525299.01649
 22  7  3 17 22 50.0000000  0  9G05G07G13G14G15G17G19G20G30         
  23340468.703 5 122654978.663 5  95575340.60646  23340477.84446
  23307004.586 5 122479131.548 5  95438316.73748  23307014.20748
  21210842.094 6 111463726.037 6  86854887.63447  21210849.70747
  20593726.117 6 108220756.640 6  84327900.93448  20593735.43848
  24296302.414 5 127678020.400 5  99489332.59647  24296312.97347
  21240017.195 6 111617044.680 6  86974324.80348  21240026.82848
  22286220.813 5 117115081.187 5  91258397.45947  22286229.79347
  24044442.766 1                                  24044456.62945
  21527365.805 6 113127069.595 6  88150969.62749  21527377.47749
 22  7  3 17 22 55.0000000  0  9G05G07G13G14G15G17G19G20G30         
  23342856.609 5 122667528.574 5  95585119.74846  23342865.87946
  23310189.742 5 122495871.746 5  95451361.05548  23310200.30148
  21209741.414 6 111457944.850 6  86850382.82347  21209750.07447
  20596197.672 6 108233745.012 6  84338021.75148  20596206.37148
  24294358.781 5 127667805.748 5  99481373.12847  24294368.41047
  21238686.039 6 111610049.717 6  86968874.18548  21238695.62948
  22284316.953 5 117105071.873 5  91250597.99147  22284325.02747
  24047742.563 1 126371692.12611  98471512.63955  24047756.25045
  21529445.047 6 113137995.488 6  88159483.30749  21529456.34449
 22  7  3 17 23  0.0000000  0  9G05G07G13G14G15G17G19G20G30         
  23345247.539 5 122680089.386 5  95594907.39946  23345256.28946
  23313376.828 5 122512615.908 5  95464408.43048  23313386.01248
  21208643.109 6 111452174.355 6  86845886.32847  21208652.08247
  20598670.867 6 108246742.981 6  84348150.04148  20598680.15248
  24292415.875 5 127657596.720 5  99473418.05147  24292425.98047
  21237357.406 6 111603067.198 6  86963433.26848  21237366.92248
  22282413.992 5 117095070.004 5  91242804.33547  22282421.96147
  24051041.578 1 126389032.600 1  98485024.64545  24051055.50045
  21531525.680 6 113148927.094 6  88168001.44049  21531536.99649
 22  7  3 17 23  5.0000000  0  9G05G07G13G14G15G17G19G20G30         
  23347638.742 5 122692660.949 5  95604703.39146  23347648.96546
  23316562.852 5 122529363.822 5  95477458.76048  23316572.94548
  21207547.508 6 111446414.410 6  86841398.07247  21207555.95347
  20601146.281 6 108259750.323 6  84358285.63248  20601155.04348
  24290474.797 5 127647393.144 5  99465467.20147  24290484.30947
  21236031.773 6 111596097.024 6  86958001.97748  21236040.08248
  22280512.063 5 117085075.446 5  91235016.36947  22280520.74247
  24054341.977 1 126406374.144 1  98498537.48645  24054355.66445
  21533606.172 6 113159864.288 6  88176523.92649  21533618.08249
 22  7  3 17 23 10.0000000  0  9G05G07G13G14G15G17G19G20G30         
  23350033.453 5 122705242.966 5  95614507.56747  23350042.99247
  23319751.273 5 122546115.134 5  95490511.73048  23319760.91448
  21206453.313 6 111440664.770 6  86836917.82847  21206461.49647
  20603622.875 6 108272766.821 6  84368428.35448  20603631.98048
  24288533.938 6 127637194.742 6  99457520.39647  24288543.78547
  21234707.633 6 111589138.922 6  86952580.08248  21234716.04348
  22278611.453 5 117075087.954 5  91227233.91647  22278619.54747
  24057642.844 1 126423716.621 1  98512051.10045  24057655.88745
  21535688.906 6 113170806.816 6  88185050.56349  21535700.17249
 22  7  3 17 23 15.0000000  0  9G05G07G13G14G15G17G19G20G30         
  23352429.461 5 122717836.116 5  95624320.39746  23352439.42246
  23322939.695 5 122562870.669 5  95503567.99048  23322949.34048
  21205361.289 6 111434926.097 6  86832446.13647  21205369.44547
  20606102.172 6 108285793.110 6  84378578.71248  20606110.98848
  24286594.203 5 127627002.208 5  99449578.16747  24286604.12147
  21233385.352 6 111582193.634 6  86947168.17048  21233394.87948
  22276712.578 5 117065108.220 5  91219457.51647  22276720.66447
  24060942.242 1 126441060.513 1  98525565.80845  24060956.39845
  21537772.047 6 113181755.299 6  88193581.84749  21537783.44149
 22  7  3 17 23 20.0000000  0  9G05G07G13G14G15G17G19G20G30         
  23354827.750 4 122730440.108 4  95634141.68446  23354837.78146
  23326128.836 5 122579630.131 5  95516627.30248  23326138.10548
  21204270.930 6 111429198.131 6  86827982.78847  21204279.72747
  20608582.914 6 108298828.921 6  84388736.48448  20608591.78948
  24284655.469 5 127616815.267 5  99441640.30147  24284665.50847
  21232066.227 6 111575260.967 6  86941766.09448  21232075.68448
  22274814.461 5 117055136.003 5  91211686.96247  22274823.21947
  24064244.148 1 126458405.704 1  98539081.52245  24064256.98045
  21539856.422 6 113192709.553 6  88202117.62349  21539867.56349
 22  7  3 17 23 25.0000000  0  8G05G07G13G14G15G17G19G30            
  23357229.477 3 122743055.000 3  95643971.47546  23357237.93046
  23329319.242 5 122596393.493 5  95529689.65748  23329328.09848
  21203183.055 6 111423480.988 6  86823527.87447  21203191.84047
  20611064.922 6 108311874.291 6  84398901.70748  20611074.01648
  24282718.516 5 127606634.003 5  99433706.84747  24282728.28947
  21230749.078 6 111568340.897 6  86936373.83748  21230758.97748
  22272918.023 5 117045171.349 5  91203922.31147  22272926.98047
  21541942.148 6 113203669.562 6  88210657.88649  21541953.76649
 22  7  3 17 23 30.0000000  0  8G05G07G13G14G15G17G19G30            
  23359631.781 4 122755680.144 4  95653809.23346  23359640.61746
  23332509.641 5 122613160.282 5  95542754.69348  23332518.64148
  21202097.203 6 111417774.137 6  86819080.97847  21202105.88347
  20613549.430 6 108324928.683 6  84409073.95548  20613558.55948
  24280781.859 5 127596457.878 5  99425777.41647  24280792.00447
  21229434.477 6 111561432.931 6  86930991.00648  21229444.06348
  22271023.281 5 117035213.754 5  91196163.16047  22271032.13747
  21544028.953 6 113214634.794 6  88219202.21849  21544040.00449
 22  7  3 17 23 35.0000000  0  8G05G07G13G14G15G17G19G30            
  23362035.305 4 122768315.900 4  95663655.28346  23362044.97746
  23335700.898 5 122629930.604 5  95555822.48048  23335709.58248
  21201013.102 6 111412077.656 6  86814642.16447  21201021.52047
  20616035.227 6 108337992.209 6  84419253.33348  20616044.01648
  24278846.211 5 127586287.034 5  99417852.08647  24278856.48847
  21228122.336 6 111554537.285 6  86925617.78448  21228132.24648
  22269129.656 5 117025263.403 5  91188409.64147  22269138.73447
  21546116.984 6 113225605.434 6  88227750.76649  21546127.87549
 22  7  3 17 23 40.0000000  0  8G05G07G13G14G15G17G19G30            
  23364442.039 3 122780962.032 3  95673509.39946  23364450.90246
  23338892.273 5 122646704.479 5  95568893.03048  23338902.04348
  21199931.320 6 111406391.659 6  86810211.52547  21199939.87547
  20618522.758 6 108351064.885 6  84429439.83448  20618531.70348
  24276912.398 5 127576121.496 5  99409930.89947  24276921.98047
  21226812.469 6 111547653.882 6  86920254.09348  21226822.31648
  22267237.586 5 117015320.271 5  91180661.76747  22267246.82447
  21548205.563 6 113236581.482 6  88236303.53049  21548216.75049
 22  7  3 17 23 45.0000000  0  8G05G07G13G14G15G17G19G30            
  23366850.313 3 122793618.427 3  95683371.51546  23366859.24646
  23342085.234 5 122663481.715 5  95581966.18848  23342093.88748
  21198851.820 6 111400715.928 6  86805788.88047  21198859.75447
  20621012.453 6 108364146.502 6  84439633.30248  20621021.23848
  24274978.680 5 127565961.016 5  99402013.64647  24274988.53547
  21225504.727 6 111540782.511 6  86914899.79048  21225515.16048
  22265346.430 5 117005384.103 5  91172919.29647  22265355.69147
  21550294.578 6 113247562.710 6  88244860.32649  21550305.96149
 22  7  3 17 23 50.0000000  0  8G05G07G13G14G15G17G19G30            
  23369260.617 4 122806285.410 4  95693241.88346  23369269.84046
  23345278.352 5 122680262.641 5  95595042.23348  23345287.69148
  21197772.750 6 111395050.837 6  86801374.52148  21197781.62148
  20623503.438 6 108377237.372 6  84449833.97448  20623512.08648
  24273045.680 5 127555805.986 5  99394100.65447  24273056.30947
  21224199.797 6 111533923.642 6  86909555.21748  21224209.46148
  22263457.297 5 116995455.397 5  91165182.65447  22263466.57047
  21552385.750 6 113258549.509 6  88253421.46449  21552396.96149
 22  7  3 17 23 55.0000000  0  8G05G07G13G14G15G17G19G30            
  23371673.109 4 122818962.831 4  95703120.39646  23371682.53146
  23348472.406 5 122697047.156 5  95608121.06948  23348481.78948
  21196697.172 6 111389396.325 6  86796968.40748  21196705.55148
  20625995.992 6 108390337.466 6  84460041.84448  20626004.37148
  24271114.641 5 127545656.444 5  99386191.92147  24271125.05547
  21222896.648 6 111527077.186 6  86904220.32848  21222906.64548
  22261569.414 5 116985534.022 5  91157451.72147  22261578.65247
  21554477.250 6 113269541.766 6  88261986.86049  21554488.87949
 22  7  3 17 24  0.0000000  0  8G05G07G13G14G15G17G19G30            
  23374087.453 5 122831650.731 5  95713007.06546  23374096.92646
  23351666.969 5 122713835.284 5  95621202.73248  23351676.33648
  21195622.922 6 111383752.372 6  86792570.52147  21195631.62147
  20628491.039 6 108403446.687 6  84470256.82048  20628499.28148
  24269183.914 5 127535512.260 5  99378287.38747  24269194.40647
  21221596.930 6 111520243.068 6  86898895.04548  21221606.44148
  22259682.867 5 116975619.979 5  91149726.50047  22259691.87947
  21556570.094 6 113280539.487 6  88270556.51549  21556581.85249
 22  7  3 17 24  5.0000000  0  8G05G07G13G14G15G17G19G30            
  23376504.227 5 122844349.217 5  95722901.98146  23376513.53946
  23354862.164 5 122730627.089 5  95634287.25248  23354871.95348
  21194551.344 6 111378119.063 6  86788180.92647  21194559.65247
  20630987.141 6 108416565.153 6  84480479.01048  20630996.23048
  24267254.922 5 127525373.569 5  99370387.09547  24267265.22347
  21220298.766 6 111513421.459 6  86893579.51648  21220307.66848
  22257797.828 5 116965713.390 5  91142007.09047  22257806.49647
  21558664.141 6 113291542.753 6  88279130.48449  21558675.60949
 22  7  3 17 24 10.0000000  0  8G05G07G13G14G15G17G19G30            
  23378922.500 5 122857058.094 5  95732804.99346  23378931.62946
  23358058.680 5 122747422.511 5  95647374.58648  23358067.87548
  21193481.375 6 111372496.270 6  86783799.53447  21193489.50447
  20633485.391 6 108429692.718 6  84490708.27748  20633494.35248
  24265326.453 5 127515240.181 5  99362490.96947  24265336.71947
  21219002.328 6 111506612.211 6  86888273.61048  21219011.66448
  22255913.891 5 116955814.100 5  91134293.35647  22255922.84447
  21560759.078 6 113302551.407 6  88287708.66349  21560770.79749
 22  7  3 17 24 15.0000000  0  8G05G07G13G14G15G17G19G30            
  23381342.742 4 122869777.360 4  95742716.11846  23381352.57446
  23361255.773 5 122764221.585 5  95660464.77248  23361264.79348
  21192413.352 6 111366884.071 6  86779426.39347  21192421.41047
  20635985.133 6 108442829.439 6  84500944.68348  20635993.48048
  24263399.492 5 127505112.269 5  99354599.09347  24263409.84047
  21217709.281 6 111499815.443 6  86882977.43648  21217718.60248
  22254031.648 5 116945922.200 5  91126585.38847  22254039.87947
  21562854.766 6 113313565.565 6  88296291.11949  21562866.90249
 22  7  3 17 24 20.0000000  0  8G05G07G13G14G15G17G19G30            
  23383764.961 5 122882506.974 5  95752635.26146  23383774.84046
  23364452.625 5 122781024.182 5  95673557.70148  23364462.18048
  21191347.805 6 111361282.369 6  86775061.43747  21191356.05547
  20638486.563 6 108455975.123 6  84511188.06848  20638495.32448
  24261473.609 5 127494989.700 5  99346711.37946  24261482.99646
  21216418.555 6 111493031.028 6  86877690.88048  21216427.79748
  22252150.578 5 116936037.603 5  91118883.10747  22252158.90247
  21564951.672 6 113324585.066 6  88304877.74649  21564963.73049
 22  7  3 17 24 25.0000000  0  8G05G07G13G14G15G17G19G30            
  23386190.477 5 122895246.803 5  95762562.40846  23386199.07846
  23367650.797 5 122797830.269 5  95686653.37048  23367660.37948
  21190283.008 6 111355691.008 6  86770704.53547  21190292.26647
  20640989.828 6 108469129.732 6  84521438.41448  20640998.68848
  24259547.336 5 127484872.358 5  99338827.74746  24259557.63346
  21215129.359 6 111486258.929 6  86872413.92248  21215138.90248
  22250270.773 5 116926160.231 5  91111186.45647  22250279.28547
  21567049.938 6 113335609.833 6  88313468.47049  21567061.63749
 22  7  3 17 24 30.0000000  0  8G05G07G13G14G15G17G19G30            
  23388615.547 5 122907997.098 5  95772497.68146  23388625.77746
  23370849.523 5 122814640.000 5  95699751.85648  23370859.70748
  21189221.648 6 111350110.251 6  86766355.89647  21189230.15247
  20643494.828 6 108482293.439 6  84531695.84548  20643503.51648
  24257623.727 5 127474760.517 5  99330948.39546  24257633.64146
  21213842.992 6 111479499.265 6  86867146.65648  21213852.68448
  22248392.414 5 116916290.326 5  91103495.60547  22248400.29347
  21569148.617 6 113346640.079 6  88322063.46649  21569160.40649
 22  7  3 17 24 35.0000000  0  8G05G07G13G14G15G17G19G30            
  23391044.227 5 122920757.197 5  95782440.60947  23391053.33247
  23374048.891 5 122831452.760 5  95712852.70548  23374058.98048
  21188160.977 6 111344539.596 6  86762015.12047  21188169.69147
  20646001.445 6 108495465.633 6  84541959.88448  20646010.05148
  24255699.461 4 127464653.559 4  99323072.85446  24255710.28546
  21212558.594 6 111472751.462 6  86861888.63748  21212568.34848
  22246515.898 5 116906427.289 5  91095810.12847  22246523.80947
  21571248.781 6 113357675.167 6  88330662.23049  21571260.38349
 22  7  3 17 24 40.0000000  0  8G05G07G13G14G15G17G19G30            
  23393474.094 5 122933527.843 5  95792391.75146  23393483.39146
  23377249.344 5 122848269.273 5  95725956.48448  23377258.54348
  21187103.328 6 111338979.743 6  86757682.77447  21187111.77047
  20648510.078 6 108508647.124 6  84552231.16548  20648518.32448
  24253778.195 5 127454552.252 5  99315201.71446  24253788.14546
  21211277.656 6 111466016.384 6  86856640.52548  21211287.31648
  22244640.602 5 116896571.928 5  91088130.62247  22244648.22747
  21573349.453 6 113368715.938 6  88339265.42949  21573361.17249
 22  7  3 17 24 45.0000000  0  8G05G07G13G14G15G17G19G30            
  23395906.586 5 122946308.249 5  95802350.49346  23395915.85946
  23380449.641 5 122865088.848 5  95739062.65348  23380459.72348
  21186047.063 6 111333429.935 6  86753358.24747  21186055.36747
  20651019.859 6 108521837.102 6  84562509.06948  20651028.62948
  24251856.680 5 127444455.830 5  99307334.36746  24251866.45746
  21209997.766 6 111459293.185 6  86851401.67748  21210007.58248
  22242766.469 5 116886723.516 5  91080456.53247  22242774.03147
  21575452.133 6 113379761.650 6  88347872.47249  21575463.08249
 22  7  3 17 24 50.0000000  0  8G05G07G13G14G15G17G19G30            
  23398340.258 5 122959098.612 5  95812317.01346  23398350.02346
  23383651.266 5 122881911.628 5  95752171.30248  23383661.01648
  21184993.242 6 111327890.408 6  86749041.73547  21185001.43447
  20653531.641 6 108535035.767 6  84572793.74748  20653540.03948
  24249936.477 5 127434364.547 5  99299471.05046  24249946.24646
  21208721.133 6 111452582.119 6  86846172.27448  21208730.56648
  22240893.945 5 116876882.180 5  91072787.95247  22240901.46147
  21577554.922 6 113390812.423 6  88356483.46349  21577566.28149
 22  7  3 17 24 55.0000000  0  8G05G07G13G14G15G17G19G30            
  23400776.422 5 122971899.229 5  95822291.48646  23400785.62546
  23386852.922 5 122898737.941 5  95765282.71648  23386862.91848
  21183941.195 6 111322361.477 6  86744733.48647  21183949.32447
  20656044.609 6 108548243.388 6  84583085.39748  20656053.62148
  24248017.250 5 127424278.681 5  99291611.95246  24248026.84046
  21207446.539 6 111445883.482 6  86840952.56548  21207456.05148
  22239022.484 5 116867048.257 5  91065125.16247  22239030.63347
  21579658.484 6 113401868.581 6  88365098.64849  21579669.68449
 22  7  3 17 25  0.0000000  0  8G05G07G13G14G15G17G19G30            
  23403214.297 5 122984709.447 5  95832273.47146  23403223.53946
  23390055.273 5 122915567.177 5  95778396.39348  23390065.89848
  21182890.453 6 111316842.513 6  86740432.98547  21182899.12547
  20658560.047 6 108561459.315 6  84593383.52348  20658568.36748
  24246098.586 4 127414197.571 4  99283756.55447  24246108.34847
  21206174.242 6 111439196.654 6  86835742.05148  21206183.40248
  22237152.406 5 116857221.087 5  91057467.63547  22237160.19947
  21581763.766 6 113412929.527 6  88373717.56549  21581774.46549
 22  7  3 17 25  5.0000000  0  8G05G07G13G14G15G17G19G30            
  23405653.539 5 122997529.636 5  95842263.20346  23405663.19946
  23393258.680 5 122932399.636 5  95791512.57848  23393268.77048
  21181842.133 6 111311333.833 6  86736140.51947  21181850.48047
  20661076.148 6 108574683.849 6  84603688.36248  20661085.07448
  24244181.617 4 127404121.613 4  99275905.13946  24244191.32846
  21204903.836 6 111432521.987 6  86830541.02148  21204913.37148
  22235283.117 5 116847400.983 5  91049815.60847  22235291.62947
  21583868.969 6 113423995.521 6  88382340.41249  21583880.50449
 22  7  3 17 25 10.0000000  0  8G05G07G13G14G15G17G19G30            
  23408094.211 5 123010359.708 5  95852260.65146  23408104.92646
  23396461.813 5 122949235.310 5  95804631.27348  23396471.91848
  21180796.070 6 111305835.538 6  86731856.14147  21180804.23447
  20663594.109 6 108587917.084 6  84613999.96648  20663603.12148
  24242264.734 5 127394050.835 5  99268057.80246  24242274.64546
  21203636.273 6 111425859.523 6  86825349.49848  21203645.54348
  22233415.609 5 116837588.086 5  91042169.20847  22233424.35947
  21585975.898 6 113435066.669 6  88390967.27249  21585987.19149
 22  7  3 17 25 15.0000000  0  8G05G07G13G14G15G17G19G30            
  23410538.305 5 123023199.900 5  95862265.96446  23410548.40646
  23399666.961 5 122966074.504 5  95817752.71948  23399676.73848
  21179751.992 6 111300347.771 6  86727579.96048  21179760.40648
  20666113.820 6 108601159.164 6  84624318.47648  20666122.64548
  24240349.766 5 127383985.474 5  99260214.65646  24240359.18046
  21202370.398 6 111419209.509 6  86820167.66848  21202380.00848
  22231549.758 5 116827782.601 5  91034528.58147  22231558.35947
  21588083.672 6 113446143.132 6  88399598.27749  21588095.51249
 22  7  3 17 25 20.0000000  0  8G05G07G13G14G15G17G19G30            
  23412983.531 4 123036049.940 4  95872278.98646  23412993.73446
  23402872.156 5 122982916.883 5  95830876.64548  23402881.81348
  21178709.531 6 111294870.322 6  86723311.82447  21178717.86747
  20668635.484 6 108614409.797 6  84634643.64048  20668644.40248
  24238434.953 5 127373925.282 5  99252375.54946  24238444.83646
  21201107.430 6 111412571.692 6  86814995.35348  21201116.68448
  22229685.477 5 116817984.210 5  91026893.48347  22229694.44147
  21590192.633 6 113457224.644 6  88408233.22249  21590203.51649
 22  7  3 17 25 25.0000000  0  8G05G07G13G14G15G17G19G30            
  23415430.609 4 123048909.929 4  95882299.74246  23415440.70746
  23406076.906 5 122999762.585 5  95844003.16048  23406087.71948
  21177669.070 6 111289403.351 6  86719051.84948  21177677.62548
  20671158.617 6 108627669.139 6  84644975.59948  20671167.67648
  24236521.297 5 127363870.340 5  99244540.54246  24236531.28546
  21199846.633 6 111405946.205 6  86809832.63448  21199855.81648
  22227821.422 5 116808193.136 5  91019264.07347  22227830.92647
  21592301.891 6 113468311.342 6  88416872.19849  21592313.91449
 22  7  3 17 25 30.0000000  0  8G05G07G13G14G15G17G19G30            
  23417880.680 4 123061779.947 4  95892328.31846  23417890.30546
  23409283.820 5 123016611.737 5  95857132.36948  23409294.19948
  21176630.813 6 111283946.957 6  86714800.10548  21176639.28548
  20673683.383 6 108640937.272 6  84655314.39648  20673692.90248
  24234609.531 5 127353820.808 5  99236709.75046  24234619.42646
  21198588.586 6 111399333.160 6  86804679.62148  21198597.76248
  22225960.156 5 116798409.458 5  91011640.44947  22225969.37547
  21594412.875 6 113479403.358 6  88425515.33049  21594424.16849
 22  7  3 17 25 35.0000000  0  8G05G07G13G14G15G17G19G30            
  23420330.578 4 123074659.743 4  95902364.50546  23420340.78146
  23412490.664 5 123033464.074 5  95870264.05248  23412501.33248
  21175594.180 6 111278500.868 6  86710556.40147  21175602.80547
  20676209.969 6 108654213.915 6  84665659.83348  20676219.14548
  24232697.953 5 127343776.416 5  99228882.94746  24232707.56346
  21197332.484 6 111392732.268 6  86799536.07248  21197341.64548
  22224100.148 5 116788632.917 5  91004022.37247  22224108.98847
  21596524.516 6 113490500.396 6  88434162.37349  21596536.10549
 22  7  3 17 25 40.0000000  0  8G05G07G13G14G15G17G19G30            
  23422784.453 4 123087549.703 4  95912408.63846  23422793.82446
  23415697.891 5 123050320.002 5  95883398.55148  23415708.70748
  21174560.031 6 111273065.500 6  86706321.04848  21174568.73848
  20678737.508 6 108667499.462 6  84676012.21448  20678747.16048
  24230787.273 4 127333737.586 4  99221060.49546  24230797.11746
  21196078.367 6 111386144.005 6  86794402.35848  21196087.16448
  22222241.063 5 116778863.997 5  90996410.24447  22222249.94147
  21598637.133 6 113501602.881 6  88442813.65749  21598648.43049
 22  7  3 17 25 45.0000000  0  8G05G07G13G14G15G17G19G30            
  23425238.906 4 123100449.451 4  95922460.36146  23425248.41846
  23418906.555 5 123067179.029 5  95896535.46348  23418916.59048
  21173528.164 6 111267640.370 6  86702093.67648  21173536.17648
  20681267.922 6 108680793.472 6  84686371.17348  20681277.14148
  24228877.328 4 127323703.854 4  99213241.99846  24228887.27746
  21194826.977 6 111379567.863 6  86789278.09248  21194836.02748
  22220383.648 5 116769102.172 5  90988803.63647  22220392.12547
  21600751.414 6 113512710.367 6  88451468.83149  21600762.54349
 22  7  3 17 25 50.0000000  0  8G05G07G13G14G15G17G19G30            
  23427695.242 3 123113359.051 3  95932519.78746  23427705.43046
  23422114.547 5 123084041.313 5  95909674.90448  23422125.61748
  21172497.938 6 111262225.671 6  86697874.43847  21172505.77047
  20683799.289 6 108694096.094 6  84696736.85448  20683808.55148
  24226969.539 4 127313675.451 4  99205427.66046  24226979.65646
  21193578.117 6 111373004.039 6  86784163.42348  21193587.44148
  22218527.008 5 116759347.712 5  90981202.76447  22218536.20347
  21602865.695 6 113523823.001 6  88460128.02849  21602876.53549
 22  7  3 17 25 55.0000000  0  8G05G07G13G14G15G17G19G30            
  23430153.859 3 123126278.142 3  95942586.60046  23430163.64146
  23425323.742 5 123100906.581 5  95922816.68048  23425334.58248
  21171468.852 6 111256821.157 6  86693663.13147  21171477.39147
  20686332.672 6 108707406.979 6  84707108.97148  20686341.29748
  24225061.578 4 127303652.045 4  99197617.20546  24225071.96146
  21192331.258 6 111366452.335 6  86779058.20648  21192340.35548
  22216672.359 5 116749600.259 5  90973607.36747  22216681.10547
  21604981.289 6 113534940.491 6  88468791.00249  21604992.65649
 22  7  3 17 26  0.0000000  0  8G05G07G13G14G15G17G19G30            
  23432614.031 3 123139207.189 3  95952661.16446  23432623.65246
  23428534.188 5 123117775.301 5  95935961.12448  23428544.82048
  21170442.211 6 111251427.236 6  86689460.07547  21170450.99647
  20688867.695 6 108720726.560 6  84717487.86048  20688876.05148
  24223156.000 4 127293634.040 4  99189810.99246  24223165.78146
  21191087.094 6 111359913.104 6  86773962.69948  21191095.62948
  22214818.789 5 116739860.225 5  90966017.73647  22214827.70347
  21607097.727 6 113546063.278 6  88477458.10349  21607108.66449
 22  7  3 17 26  5.0000000  0  8G05G07G13G14G15G17G19G30            
  23435076.758 3 123152146.114 3  95962743.43746  23435086.09846
  23431744.398 5 123134647.379 5  95949108.19548  23431755.04348
  21169417.922 6 111246043.935 6  86685265.29348  21169426.15648
  20691403.719 6 108734054.835 6  84727873.52948  20691412.60548
  24221250.531 5 127283621.466 5  99182008.97746  24221260.28546
  21189844.961 6 111353386.396 6  86768876.95948  21189854.02748
  22212966.992 5 116730127.664 5  90958433.92747  22212975.32447
  21609215.672 6 113557191.335 6  88486129.31849  21609226.62949
 22  7  3 17 26 10.0000000  0  8G05G07G13G14G15G17G19G30            
  23437540.563 4 123165095.503 4  95972833.84146  23437550.23046
  23434956.039 5 123151523.416 5  95962258.34048  23434966.05948
  21168395.781 6 111240671.755 6  86681079.18848  21168404.25048
  20693941.820 6 108747392.274 6  84738266.33748  20693950.47348
  24219346.031 4 127273614.849 4  99174211.63446  24219356.37546
  21188605.336 6 111346872.684 6  86763801.33748  21188614.28148
  22211116.063 5 116720403.073 5  90950856.33847  22211125.02747
  21611333.922 6 113568325.188 6  88494805.04749  21611345.92249
 22  7  3 17 26 15.0000000  0  8G05G07G13G14G15G17G19G30            
  23440005.898 4 123178054.458 4  95982931.72346  23440016.40246
  23438168.602 5 123168402.526 5  95975410.87748  23438177.87948
  21167375.789 6 111235309.850 6  86676901.08548  21167383.81648
  20696481.008 6 108760738.028 6  84748665.63448  20696490.16848
  24217443.688 4 127263613.322 4  99166418.24246  24217453.21146
  21187367.523 6 111340371.049 6  86758735.14148  21187377.71148
  22209267.172 6 116710685.600 6  90943284.28447  22209275.65647
  21613453.766 6 113579463.920 6  88503484.57449  21613465.19149
 22  7  3 17 26 20.0000000  0  8G05G07G13G14G15G17G19G30            
  23442474.242 4 123191023.674 4  95993037.58746  23442484.47746
  23441381.383 5 123185285.242 5  95988566.22248  23441390.39848
  21166357.156 6 111229958.794 6  86672731.43348  21166365.77348
  20699022.609 6 108774092.634 6  84759071.82248  20699031.39548
  24215541.281 4 127253617.490 4  99158629.30146  24215551.27046
  21186133.391 6 111333882.257 6  86753678.93548  21186142.66848
  22207419.453 5 116700975.843 5  90935718.24247  22207428.12947
  21615574.680 6 113590608.195 6  88512168.41949  21615586.04749
 22  7  3 17 26 25.0000000  0  8G05G07G13G14G15G17G19G30            
  23444943.578 4 123204002.726 4  96003151.12246  23444954.07446
  23444594.953 5 123202171.310 5  96001724.18748  23444603.90648
  21165341.352 6 111224618.405 6  86668570.09448  21165349.39148
  20701565.219 6 108787455.896 6  84769484.75448  20701574.10248
  24213639.656 4 127243627.141 4  99150844.60746  24213649.89546
  21184901.203 6 111327405.967 6  86748632.48848  21184910.28948
  22205573.609 5 116691273.636 5  90928158.08647  22205581.62947
  21617695.719 6 113601757.738 6  88520856.37349  21617707.54749
 22  7  3 17 26 30.0000000  0  8G05G07G13G14G15G17G19G30            
  23447416.375 4 123216991.621 4  96013272.31646  23447425.77046
  23447808.742 5 123219060.884 5  96014884.91148  23447817.40648
  21164326.383 6 111219288.747 6  86664417.11648  21164335.07048
  20704109.867 6 108800827.840 6  84779904.45048  20704118.98048
  24211739.094 4 127233642.294 4  99143064.24446  24211749.58646
  21183670.664 6 111320942.293 6  86743595.86348  21183679.98848
  22203728.500 5 116681579.030 5  90920603.84947  22203736.73047
  21619818.813 6 113612912.631 6  88529548.49449  21619830.32849
 22  7  3 17 26 35.0000000  0  8G05G07G13G14G15G17G19G30            
  23449889.570 4 123229990.404 4  96023401.22946  23449899.28546
  23451023.789 5 123235953.737 5  96028048.16148  23451031.82448
  21163314.469 6 111213969.744 6  86660272.43848  21163322.93448
  20706656.234 6 108814208.410 6  84790330.87548  20706665.35948
  24209840.383 4 127223662.979 4  99135288.15746  24209850.47746
  21182443.039 6 111314491.157 6  86738569.00648  21182452.59848
  22201884.727 5 116671892.000 5  90913055.51147  22201892.92647
  21621942.227 6 113624072.800 6  88538244.72849  21621954.19949
 22  7  3 17 26 40.0000000  0  8G05G07G13G14G15G17G19G30            
  23452365.352 4 123242998.941 4  96033537.74546  23452374.64146
  23454239.203 5 123252849.991 5  96041214.06848  23454247.43448
  21162304.500 6 111208661.394 6  86656136.06547  21162312.63347
  20709203.813 6 108827597.557 6  84800763.98248  20709213.09848
  24207942.453 4 127213689.093 4  99127516.31846  24207952.59846
  21181218.305 6 111308052.576 6  86733551.93148  21181227.35248
  22200042.805 5 116662212.426 5  90905512.99847  22200050.94547
  21624067.008 6 113635238.212 6  88546945.05149  21624078.54749
 22  7  3 17 26 45.0000000  0  8G05G07G13G14G15G17G19G30            
  23454841.609 4 123256017.390 4  96043681.97946  23454852.16846
  23457454.531 5 123269749.732 5  96054382.69048  23457463.34848
  21161296.164 6 111203363.779 6  86652008.05447  21161304.28547
  20711753.125 6 108840995.353 6  84811203.81748  20711762.37148
  24206045.719 3 127203720.802 3  99119748.84846  24206055.67246
  21179994.969 6 111301626.632 6  86728544.71348  21180004.28948
  22198202.539 5 116652540.515 5  90897976.43947  22198210.68047
  21626192.984 6 113646408.990 6  88555649.54749  21626203.85249
 22  7  3 17 26 50.0000000  0  8G05G07G13G14G15G17G19G30            
  23457321.367 5 123269045.896 5  96053834.04846  23457331.15246
  23460671.086 5 123286653.121 5  96067554.15548  23460679.91448
  21160290.469 6 111198077.104 6  86647888.57348  21160298.54348
  20714304.805 6 108854402.000 6  84821650.56048  20714313.71948
  24204149.742 3 127193758.294 3  99111985.84846  24204159.67246
  21178774.398 6 111295213.605 6  86723547.54548  21178783.73448
  22196363.859 5 116642876.508 5  90890446.03747  22196371.57047
  21628319.805 6 113657585.310 6  88564358.37149  21628331.14849
 22  7  3 17 26 55.0000000  0  8G05G07G13G14G15G17G19G30            
  23459802.906 4 123282084.259 4  96063993.80746  23459812.25446
  23463888.039 5 123303559.974 5  96080728.32748  23463897.44148
  21159285.953 6 111192801.217 6  86643777.48947  21159294.62547
  20716857.266 6 108867817.238 6  84832103.99248  20716866.76248
  24202255.438 3 127183801.392 3  99104227.23246  24202265.01246
  21177556.602 6 111288813.237 6  86718560.24948  21177565.59048
  22194526.023 5 116633220.126 5  90882921.59747  22194533.72747
  21630447.414 6 113668766.944 6  88573071.33249  21630458.80949
 22  7  3 17 27  0.0000000  0  8G05G07G13G14G15G17G19G30            
  23462285.008 4 123295132.106 4  96074160.94046  23462295.40646
  23467105.891 5 123320469.948 5  96093904.93348  23467115.35248
  21158284.414 6 111187535.782 6  86639674.55648  21158292.75048
  20719412.063 6 108881240.813 6  84842563.92248  20719421.64848
  24200361.992 3 127173849.750 3  99096472.71846  24200371.12146
  21176341.438 6 111282425.187 6  86713582.55148  21176350.04748
  22192689.383 5 116623571.119 5  90875402.88847  22192697.58647
  21632576.727 6 113679953.589 6  88581788.20149  21632587.49249
 22  7  3 17 27  5.0000000  0  8G05G07G13G14G15G17G19G30            
  23464770.695 4 123308190.063 4  96084335.97446  23464780.92646
  23470324.430 5 123337383.674 5  96107084.44848  23470334.19948
  21157284.781 6 111182281.434 6  86635580.26648  21157293.09848
  20721967.664 6 108894673.300 6  84853030.79648  20721976.88748
  24198468.930 4 127163904.041 4  99088722.82746  24198478.89146
  21175127.734 6 111276050.181 6  86708615.01448  21175137.29748
  22190855.258 5 116613930.070 5  90867890.39047  22190863.25447
  21634705.953 6 113691145.899 6  88590509.47849  21634717.16849
 22  7  3 17 27 10.0000000  0  8G05G07G13G14G15G17G19G30            
  23467256.672 5 123321257.938 5  96094518.71646  23467267.53946
  23473544.445 5 123354301.010 5  96120266.77548  23473553.45348
  21156286.945 6 111177038.023 6  86631494.49147  21156295.27047
  20724525.859 6 108908114.495 6  84863504.45648  20724535.21548
  24196577.641 4 127153964.040 4  99080977.37446  24196587.31646
  21173917.484 6 111269687.982 6  86703657.46248  21173926.15248
  22189021.969 5 116604296.841 5  90860383.97847  22189029.96147
  21636837.078 6 113702343.684 6  88599235.02649  21636848.08649
 22  7  3 17 27 15.0000000  0  8G05G07G13G14G15G17G19G30            
  23469745.875 4 123334335.922 4  96104709.35646  23469755.75446
  23476764.320 5 123371222.142 5  96133452.06448  23476773.50448
  21155291.117 6 111171805.759 6  86627417.40448  21155299.31348
  20727085.594 6 108921564.625 6  84873985.07648  20727094.68448
  24194686.938 4 127144030.028 4  99073236.58946  24194697.13346
  21172709.133 6 111263338.868 6  86698710.10248  21172718.57048
  22187190.766 5 116594671.657 5  90852883.84547  22187198.81647
  21638968.836 6 113713547.170 6  88607965.00449  21638980.19149
 22  7  3 17 27 20.0000000  0  8G05G07G13G14G15G17G19G30            
  23472235.914 4 123347423.918 4  96114907.77246  23472246.26246
  23479985.195 5 123388146.761 5  96146640.08148  23479994.02748
  21154297.273 6 111166584.402 6  86623348.81847  21154305.92247
  20729646.492 6 108935023.411 6  84884472.44648  20729655.53148
  24192797.813 4 127134101.754 4  99065500.28046  24192807.55946
  21171503.063 6 111257002.583 6  86693772.74048  21171512.50048
  22185360.570 5 116585054.238 5  90845389.75347  22185368.81347
  21641101.875 6 113724756.072 6  88616699.20649  21641113.23449
 22  7  3 17 27 25.0000000  0  8G05G07G13G14G15G17G19G30            
  23474729.500 4 123360521.572 4  96125113.72846  23474738.66046
  23483206.195 5 123405074.836 5  96159830.78648  23483215.25048
  21153306.055 6 111161373.818 6  86619288.63048  21153314.60548
  20732208.859 6 108948490.706 6  84894966.43948  20732218.34848
  24190909.555 4 127124179.091 4  99057768.35846  24190919.26246
  21170299.906 6 111250678.994 6  86688845.28048  21170309.54348
  22183532.492 5 116575444.511 5  90837901.67247  22183540.18847
  21643236.195 6 113735970.271 6  88625437.54149  21643247.09449
 22  7  3 17 27 30.0000000  0  8G05G07G13G14G15G17G19G30            
  23477223.141 4 123373628.898 4  96135327.22746  23477233.59846
  23486427.766 5 123422006.242 5  96173024.08948  23486436.96948
  21152316.867 6 111156173.994 6  86615236.81547  21152325.03547
  20734773.609 6 108961966.443 6  84905467.02048  20734782.58248
  24189022.820 3 127114261.922 3  99050040.67846  24189032.29746
  21169098.813 6 111244368.079 6  86683927.67948  21169108.41048
  22181704.750 5 116565842.419 5  90830419.52747  22181713.01647
  21645371.023 6 113747189.754 6  88634179.99249  21645381.91049
 22  7  3 17 27 35.0000000  0  8G05G07G13G14G15G17G19G30            
  23479719.023 4 123386745.511 4  96145547.94146  23479729.59046
  23489650.477 5 123438940.658 5  96186219.73348  23489659.54348
  21151329.086 6 111150984.540 6  86611193.09947  21151337.27347
  20737339.742 6 108975450.294 6  84915973.91048  20737348.87948
  24187136.914 4 127104349.982 4  99042317.10646  24187146.12546
  21167900.242 6 111238069.486 6  86679019.69448  21167909.63748
  22179878.961 6 116556247.625 6  90822943.07847  22179886.93847
  21647506.930 6 113758414.093 6  88642926.23249  21647518.48049
 22  7  3 17 27 40.0000000  0  8G05G07G13G14G15G17G19G30            
  23482216.133 4 123399871.899 4  96155776.29746  23482227.49646
  23492873.977 5 123455878.584 5  96199418.12148  23492882.56648
  21150343.727 6 111145805.956 6  86607157.84748  21150352.21948
  20739907.133 6 108988942.667 6  84926487.44648  20739915.94148
  24185251.313 4 127094443.752 4  99034597.95546  24185260.46546
  21166704.563 6 111231783.701 6  86674121.68848  21166713.46948
  22178054.461 5 116546660.664 5  90815472.72647  22178063.29347
  21649643.695 6 113769643.797 6  88651676.64749  21649654.68849
 22  7  3 17 27 45.0000000  0  8G05G07G13G14G15G17G19G30            
  23484716.164 4 123413008.364 4  96166012.48346  23484727.37146
  23496097.836 5 123472820.364 5  96212619.51148  23496106.66448
  21149359.859 6 111140638.669 6  86603131.38748  21149368.68848
  20742476.391 6 109002443.989 6  84937007.96448  20742485.48048
  24183367.320 4 127084543.570 4  99026883.53346  24183376.82446
  21165511.117 6 111225511.097 6  86669233.94648  21165519.95348
  22176232.055 5 116537081.879 5  90808008.74547  22176240.27047
  21651781.641 6 113780879.304 6  88660431.58949  21651792.91849
 22  7  3 17 27 50.0000000  0  8G05G07G13G14G15G17G19G30            
  23487218.266 4 123426153.934 4  96176255.76346  23487228.48846
  23499322.063 5 123489764.958 5  96225823.08748  23499331.17648
  21148378.555 6 111135481.626 6  86599112.91347  21148387.83247
  20745046.914 6 109015953.216 6  84947534.62848  20745056.34048
  24181485.047 4 127074648.477 4  99019173.07146  24181493.41046
  21164319.141 6 111219250.711 6  86664355.72848  21164328.50448
  22174409.648 5 116527510.271 5  90800550.35847  22174419.07847
  21653921.195 6 113792119.513 6  88669190.18449  21653932.27349
 22  7  3 17 27 55.0000000  0  8G05G07G13G14G15G17G19G30            
  23489721.156 4 123439309.096 4  96186506.51846  23489731.82846
  23502547.484 5 123506712.875 5  96239029.24548  23502556.70748
  21147399.766 6 111130335.356 6  86595102.83748  21147407.91048
  20747619.617 6 109029470.780 6  84958067.79048  20747627.85948
  24179602.484 5 127064758.936 5  99011466.93146  24179612.12146
  21163130.328 6 111213002.978 6  86659487.36748  21163139.25448
  22172591.156 5 116517946.338 5  90793097.95247  22172599.04747
  21656060.875 6 113803364.939 6  88677952.86249  21656071.65649
 22  7  3 17 28  0.0000000  0  8G05G07G13G14G15G17G19G30            
  23492226.563 4 123452474.029 4  96196764.88846  23492237.00846
  23505772.570 5 123523664.368 5  96252238.18348  23505782.35548
  21146421.969 6 111125200.083 6  86591101.33648  21146431.03148
  20750192.758 6 109042996.928 6  84968607.64848  20750202.14148
  24177722.016 5 127054875.166 5  99003765.29846  24177730.72346
  21161944.344 6 111206768.190 6  86654629.09248  21161953.34048
  22170772.133 5 116508390.335 5  90785651.72747  22170780.46547
  21658201.484 6 113814615.810 6  88686719.76549  21658212.64849
 22  7  3 17 28  5.0000000  0  8G05G07G13G14G15G17G19G30            
  23494733.359 4 123465648.272 4  96207030.52646  23494744.19946
  23508998.820 5 123540618.900 5  96265449.50048  23509008.67248
  21145447.133 6 111120075.346 6  86587108.04648  21145455.85248
  20752769.133 6 109056531.188 6  84979153.81848  20752777.37548
  24175842.109 5 127044996.771 5  98996067.85046  24175851.02746
  21160760.008 6 111200545.870 6  86649780.53448  21160769.43448
  22168954.805 6 116498841.826 6  90778211.33347  22168963.39847
  21660343.836 6 113825871.688 6  88695490.57749  21660354.84849
 22  7  3 17 28 10.0000000  0  8G05G07G13G14G15G17G19G30            
  23497242.398 4 123478832.230 4  96217303.73446  23497253.24246
  23512226.430 5 123557577.047 5  96278663.62748  23512235.85548
  21144473.578 6 111114961.582 6  86583123.30147  21144482.55147
  20755345.828 6 109070073.980 6  84989706.65748  20755354.65248
  24173963.016 5 127035124.203 5  98988374.94346  24173972.57046
  21159578.180 6 111194336.394 6  86644941.98348  21159587.65648
  22167139.641 6 116489301.200 6  90770777.08647  22167147.62547
  21662486.820 6 113837132.945 6  88704265.57949  21662498.21549
 22  7  3 17 28 15.0000000  0  8G05G07G13G14G15G17G19G30            
  23499753.766 4 123492025.736 4  96227584.38946  23499763.89146
  23515453.633 5 123574538.512 5  96291880.36148  23515463.55548
  21143503.078 6 111109858.675 6  86579147.01448  21143511.38748
  20757924.445 6 109083625.125 6  85000265.98448  20757933.38348
  24172085.609 5 127025257.277 5  98980686.42046  24172094.44546
  21158399.656 6 111188139.720 6  86640113.40848  21158408.46548
  22165325.430 5 116479768.351 5  90763348.89547  22165333.26247
  21664630.813 6 113848399.497 6  88713044.71249  21664641.93049
 22  7  3 17 28 20.0000000  0  8G05G07G13G14G15G17G19G30            
  23502266.313 4 123505228.694 4  96237872.37546  23502275.96546
  23518682.117 5 123591503.065 5  96305099.48748  23518691.60948
  21142533.734 6 111104766.399 6  86575179.01847  21142542.67647
  20760505.094 6 109097184.427 6  85010831.66748  20760513.63348
  24170208.531 5 127015395.789 5  98973002.14646  24170218.24646
  21157222.492 6 111181955.612 6  86635294.63048  21157231.66848
  22163512.500 5 116470243.020 5  90755926.55947  22163520.54347
  21666775.641 6 113859671.097 6  88721827.77449  21666787.03549
 22  7  3 17 28 25.0000000  0  8G05G07G13G14G15G17G19G30            
  23504780.625 4 123518441.416 4  96248168.00146  23504789.85946
  23521910.297 5 123608471.312 5  96318321.49348  23521920.41848
  21141567.008 6 111099685.308 6  86571219.73247  21141575.33247
  20763086.977 6 109110752.364 6  85021404.09348  20763095.61748
  24168333.422 5 127005540.259 5  98965322.51946  24168342.50046
  21156048.234 6 111175784.582 6  86630486.03748  21156057.27048
  22161702.148 5 116460725.792 5  90748510.54747  22161709.52747
  21668921.430 6 113870948.252 6  88730615.16449  21668932.79349
 22  7  3 17 28 30.0000000  0  8G05G07G13G14G15G17G19G30            
  23507296.195 4 123531663.540 4  96258470.92646  23507306.24246
  23525139.453 5 123625442.868 5  96331546.08448  23525150.12548
  21140601.922 6 111094615.078 6  86567268.91047  21140610.40247
  20765669.813 6 109124328.587 6  85031982.97148  20765679.30548
  24166459.492 5 126995690.425 5  98957647.33646  24166468.45746
  21154876.617 6 111169626.336 6  86625687.40648  21154885.78548
  22159892.031 5 116451216.337 5  90741100.58047  22159899.76247
  21671068.453 6 113882230.662 6  88739406.65449  21671080.11749
 22  7  3 17 28 35.0000000  0  8G05G07G13G14G15G17G19G30            
  23509813.695 4 123544894.620 4  96268780.86146  23509824.23446
  23528370.641 5 123642417.130 5  96344772.77948  23528380.10948
  21139639.438 6 111089555.123 6  86563326.09047  21139647.68847
  20768255.438 6 109137912.535 6  85042567.86148  20768264.13748
  24164585.531 5 126985845.645 5  98949976.07146  24164595.23446
  21153706.680 6 111163480.310 6  86620898.30448  21153716.02048
  22158083.992 5 116441714.113 5  90733696.24947  22158091.12947
  21673216.250 6 113893517.722 6  88748201.76549  21673227.85249
 22  7  3 17 28 40.0000000  0  8G05G07G13G14G15G17G19G30            
  23512334.180 4 123558135.400 4  96279098.34146  23512343.30946
  23531601.352 5 123659395.043 5  96358002.31748  23531610.85248
  21138678.055 6 111084506.256 6  86559391.92147  21138686.62547
  20770841.461 6 109151504.993 6  85053159.38348  20770850.39848
  24162713.484 5 126976006.750 5  98942309.41446  24162722.89146
  21152539.789 6 111157347.365 6  86616119.39448  21152549.02748
  22156276.734 5 116432219.939 5  90726298.19647  22156284.62147
  21675365.000 6 113904810.256 6  88757001.13649  21675376.47749
 22  7  3 17 28 45.0000000  0  8G05G07G13G14G15G17G19G30            
  23514855.672 5 123571385.922 5  96289423.40446  23514865.32846
  23534832.953 5 123676376.603 5  96371234.69048  23534842.29748
  21137719.570 6 111079468.688 6  86555466.54947  21137728.11747
  20773430.148 6 109165106.107 6  85063757.66248  20773438.97348
  24160842.328 5 126966173.937 5  98934647.49746  24160851.95746
  21151375.141 6 111151227.595 6  86611350.75148  21151384.62948
  22154472.250 5 116422733.946 5  90718906.50447  22154479.41047
  21677514.820 6 113916108.453 6  88765804.92649  21677526.52049
 22  7  3 17 28 50.0000000  0  8G05G07G13G14G15G17G19G30            
  23517378.281 4 123584645.783 4  96299755.76746  23517388.06346
  23538065.719 5 123693361.455 5  96384469.63848  23538074.21548
  21136762.633 6 111074441.912 6  86551549.58347  21136771.60247
  20776019.813 6 109178715.411 6  85074362.31248  20776028.68448
  24158972.797 5 126956346.767 5  98926989.96546  24158981.77746
  21150213.180 6 111145120.609 6  86606592.06948  21150222.43848
  22152668.477 5 116413255.700 5  90711520.85447  22152675.84847
  21679666.281 6 113927411.775 6  88774612.70849  21679677.59449
 22  7  3 17 28 55.0000000  0  8G05G07G13G14G15G17G19G30            
  23519903.555 4 123597914.529 4  96310095.05046  23519912.99646
  23541297.922 5 123710349.124 5  96397706.76848  23541306.66848
  21135807.883 6 111069425.521 6  86547640.70848  21135816.85948
  20778611.180 6 109192332.410 6  85084972.95948  20778620.15248
  24157103.234 5 126946524.809 5  98919336.49946  24157112.19546
  21149053.430 6 111139025.962 6  86601842.99948  21149062.49248
  22150865.898 5 116403784.771 5  90704140.91047  22150873.65647
  21681818.281 6 113938719.838 6  88783424.18749  21681829.21549
 22  7  3 17 29  0.0000000  0  8G05G07G13G14G15G17G19G30            
  23522430.555 4 123611192.666 4  96320441.60846  23522439.87946
  23544530.852 5 123727340.074 5  96410946.45748  23544540.44548
  21134855.750 6 111064420.053 6  86543740.35047  21134864.65247
  20781203.859 6 109205957.680 6  85095590.05148  20781212.99248
  24155235.188 5 126936708.527 5  98911687.46446  24155244.08246
  21147895.875 6 111132944.122 6  86597103.91248  21147904.97748
  22149065.133 5 116394321.761 5  90696767.14247  22149072.44147
  21683971.188 6 113950033.129 6  88792239.74049  21683981.80549
 22  7  3 17 29  5.0000000  0  8G05G07G13G14G15G17G19G30            
  23524958.781 4 123624479.965 4  96330795.33146  23524968.46546
  23547764.930 5 123744334.122 5  96424188.56148  23547774.33248
  21133905.430 6 111059425.275 6  86539848.31947  21133913.92647
  20783798.352 6 109219590.944 6  85106213.37148  20783807.18448
  24153368.422 5 126926897.785 5  98904042.71946  24153377.66446
  21146741.102 6 111126874.955 6  86592374.69048  21146749.84848
  22147266.391 5 116384866.339 5  90689399.27347  22147273.27047
  21686124.727 6 113961351.438 6  88801059.20149  21686135.85549
 22  7  3 17 29 10.0000000  0  8G05G07G13G14G15G17G19G30            
  23527489.398 4 123637776.482 4  96341156.23946  23527499.10246
  23550999.398 5 123761331.376 5  96437433.16748  23551009.16848
  21132957.039 6 111054441.316 6  86535964.72448  21132965.42648
  20786394.148 6 109233232.270 6  85116842.97948  20786403.14148
  24151502.023 5 126917092.637 5  98896402.35047  24151511.32447
  21145589.484 6 111120818.544 6  86587655.42348  21145597.77748
  22145468.125 5 116375418.778 5  90682037.54347  22145475.25847
  21688279.602 6 113972674.869 6  88809882.65949  21688290.44949
 22  7  3 17 29 15.0000000  0  8G05G07G13G14G15G17G19G30            
  23530020.547 5 123651082.418 5  96351524.50546  23530030.73846
  23554234.016 5 123778331.945 5  96450680.36248  23554244.14848
  21132011.109 6 111049468.324 6  86532089.66748  21132019.55548
  20788991.477 6 109246881.857 6  85127479.01948  20789000.38348
  24149637.484 5 126907293.211 5  98888766.43446  24149647.23446
  21144438.227 6 111114775.023 6  86582946.18448  21144447.48848
  22143672.055 5 116365979.182 5  90674682.01947  22143679.41447
  21690435.281 6 113984003.604 6  88818710.24549  21690446.09849
 22  7  3 17 29 20.0000000  0  8G05G07G13G14G15G17G19G30            
  23532554.570 5 123664397.558 5  96361899.91646  23532564.52046
  23557469.578 5 123795335.700 5  96463930.04448  23557480.16848
  21131066.172 6 111044506.121 6  86528223.02148  21131075.12948
  20791590.813 6 109260539.493 6  85138121.33148  20791599.43848
  24147774.336 5 126897499.428 5  98881134.92546  24147783.33246
  21143291.445 6 111108744.287 6  86578246.91348  21143300.05948
  22141877.078 5 116356547.317 5  90667332.51347  22141884.68847
  21692592.414 6 113995337.430 6  88827541.79549  21692603.06349
 22  7  3 17 29 25.0000000  0  8G05G07G13G14G15G17G19G30            
  23535089.883 4 123677721.889 4  96372282.52146  23535099.85246
  23560706.031 5 123812342.658 5  96477182.20548  23560716.77348
  21130124.500 6 111039554.788 6  86524364.84147  21130132.67247
  20794190.531 6 109274205.204 6  85148769.93148  20794199.87148
  24145911.336 5 126887711.273 5  98873507.79546  24145920.89146
  21142146.008 6 111102726.328 6  86573557.60448  21142154.80948
  22140084.094 5 116347123.246 5  90659989.10047  22140091.88747
  21694749.281 6 114006676.396 6  88836377.35449  21694760.54349
 22  7  3 17 29 30.0000000  0  8G05G07G13G14G15G17G19G30            
  23537627.641 5 123691055.392 5  96382672.23346  23537637.33646
  23563943.313 5 123829352.791 5  96490436.84848  23563953.27348
  21129183.758 6 111034614.214 6  86520515.04948  21129192.52748
  20796793.000 6 109287878.895 6  85159424.76048  20796802.10248
  24144049.742 5 126877928.705 5  98865885.01546  24144059.54746
  21141003.047 6 111096721.125 6  86568878.22748  21141011.85948
  22138292.406 5 116337706.916 5  90652651.68847  22138300.03547
  21696908.109 6 114018020.406 6  88845216.83949  21696919.25049
 22  7  3 17 29 35.0000000  0  8G05G07G13G14G15G17G19G30            
  23540166.578 5 123704398.245 5  96393069.24746  23540176.58246
  23567181.250 5 123846366.229 5  96503694.06848  23567191.05548
  21128246.297 6 111029684.622 6  86516673.81748  21128254.26648
  20799396.219 6 109301560.736 6  85170085.93748  20799405.15648
  24142189.219 5 126868151.909 5  98858266.74246  24142199.14846
  21139862.969 6 111090728.871 6  86564208.94448  21139871.85548
  22136501.961 5 116328298.483 5  90645320.45747  22136509.87947
  21699067.531 6 114029369.708 6  88854060.45949  21699079.05549
 22  7  3 17 29 40.0000000  0  8G05G07G13G14G15G17G19G30            
  23542707.391 5 123717750.266 5  96403473.40946  23542717.08646
  23570419.297 5 123863382.876 5  96516953.79248  23570428.75848
  21127309.578 6 111024765.968 6  86512841.10248  21127318.62148
  20802001.328 6 109315250.677 6  85180753.42448  20802010.32848
  24140329.797 5 126858380.818 5  98850652.91047  24140339.54747
  21138725.195 6 111084749.483 6  86559549.69048  21138733.82448
  22134712.656 5 116318898.001 5  90637995.41147  22134721.02047
  21701228.531 6 114040724.187 6  88862908.10449  21701239.51249
 22  7  3 17 29 45.0000000  0  8G05G07G13G14G15G17G19G30            
  23545250.250 4 123731111.589 4  96413884.82546  23545259.76246
  23573658.039 5 123880402.939 5  96530216.16548  23573667.63748
  21126376.422 6 111019858.341 6  86509016.98548  21126384.92648
  20804608.039 6 109328948.769 6  85191427.26048  20804617.03548
  24138471.797 5 126848615.607 5  98843043.66147  24138481.07447
  21137589.609 6 111078783.113 6  86554900.57848  21137599.07848
  22132925.578 5 116309505.508 5  90630676.59647  22132933.71947
  21703390.352 6 114052083.928 6  88871759.84849  21703401.34849
 22  7  3 17 29 50.0000000  0  8G05G07G13G14G15G17G19G30            
  23547794.102 4 123744482.005 4  96424303.32346  23547804.14846
  23576898.047 5 123897426.104 5  96543480.96348  23576906.57448
  21125443.852 6 111014961.568 6  86505201.31648  21125452.73848
  20807216.227 6 109342654.832 6  85202107.30948  20807224.86348
  24136614.852 5 126838856.049 5  98835438.81947  24136623.91447
  21136456.625 6 111072829.521 6  86550261.42748  21136465.78148
  22131139.664 5 116300120.872 5  90623363.90347  22131147.77047
  21705552.953 6 114063448.770 6  88880615.56649  21705564.03949
 22  7  3 17 29 55.0000000  0  8G05G07G13G14G15G17G19G30            
  23550340.430 4 123757861.545 4  96434728.93746  23550349.98446
  23580137.094 5 123914452.430 5  96556748.23448  23580146.56348
  21124514.242 6 111010075.637 6  86501394.10548  21124523.19548
  20809825.859 6 109356368.815 6  85212793.53448  20809834.85248
  24134758.305 5 126829102.096 5  98827838.33547  24134768.22747
  21135326.273 6 111066888.742 6  86545632.25148  21135335.14548
  22129354.914 5 116290744.023 5  90616057.26947  22129363.84047
  21707716.594 6 114074818.678 6  88889475.24349  21707727.60249
 22  7  3 17 30  0.0000000  0  8G05G07G13G14G15G17G19G30            
  23552887.766 4 123771250.011 4  96445161.46446  23552897.30946
  23583378.602 5 123931481.811 5  96570017.88348  23583387.67248
  21123586.938 6 111005200.531 6  86497595.32748  21123595.50848
  20812437.125 6 109370090.675 6  85223485.89248  20812445.73048
  24132903.547 6 126819353.727 6  98820242.21347  24132912.76247
  21134197.750 6 111060960.697 6  86541013.00748  21134207.34048
  22127572.164 5 116281374.997 5  90608756.74347  22127580.94547
  21709881.656 6 114086193.622 6  88898338.83749  21709892.28949
 22  7  3 17 30  5.0000000  0  8G05G07G13G14G15G17G19G30            
  23555437.438 4 123784647.506 4  96455601.08046  23555447.19546
  23586618.938 5 123948514.317 5  96583289.95948  23586628.46148
  21122661.031 6 111000336.229 6  86493804.96148  21122669.46548
  20815049.617 6 109383820.431 6  85234184.40348  20815058.49248
  24131050.000 5 126809611.016 5  98812650.48347  24131058.82847
  21133072.656 6 111055045.498 6  86536403.76348  21133081.55148
  22125790.031 5 116272013.762 5  90601462.28047  22125799.56347
  21712047.000 6 114097573.590 6  88907206.35249  21712057.78549
 22  7  3 17 30 10.0000000  0  8G05G07G13G14G15G17G19G30            
  23557989.414 3 123798054.355 3  96466047.96846  23557998.77346
  23589860.984 5 123965550.259 5  96596564.72248  23589870.51648
  21121737.703 6 110995483.131 6  86490023.34147  21121746.27747
  20817664.156 6 109397558.360 6  85244889.28548  20817672.82848
  24129197.414 5 126799874.267 5  98805063.41547  24129206.32047
  21131949.289 6 111049143.381 6  86531804.71748  21131958.64148
  22124010.164 5 116262660.697 5  90594174.19747  22124019.54747
  21714213.984 6 114108958.938 6  88916078.04849  21714224.43049
 22  7  3 17 30 15.0000000  0  8G05G07G13G14G15G17G19G30            
  23560542.195 3 123811469.997 3  96476501.71146  23560551.54346
  23593102.781 5 123982589.161 5  96609841.78748  23593113.41048
  21120816.313 6 110990640.682 6  86486250.00748  21120824.64848
  20820280.320 6 109411303.994 6  85255600.16548  20820288.91048
  24127344.922 5 126790142.992 5  98797480.60447  24127354.53147
  21130828.539 6 111043253.974 6  86527215.56548  21130837.42248
  22122232.883 5 116253315.334 5  90586892.10447  22122241.24247
  21716380.820 6 114120349.142 6  88924953.53349  21716392.35949
 22  7  3 17 30 20.0000000  0  8G05G07G13G14G15G17G19G30            
  23563096.539 3 123824894.612 3  96486962.42746  23563106.27346
  23596346.852 5 123999631.187 5  96623121.27748  23596356.44548
  21119896.906 6 110985809.109 6  86482485.14548  21119905.08248
  20822896.398 6 109425057.480 6  85266317.16948  20822905.59048
  24125494.742 5 126780417.378 5  98789902.20747  24125503.25847
  21129710.578 6 111037377.376 6  86522636.39948  21129719.46948
  22120455.438 5 116243977.821 5  90579616.11847  22120464.20747
  21718549.609 6 114131744.411 6  88933832.96949  21718560.62549
 22  7  3 17 30 25.0000000  0  8G05G07G13G14G15G17G19G30            
  23565653.305 3 123838327.915 3  96497429.92746  23565662.15246
  23599589.336 5 124016676.027 5  96636402.96248  23599599.56648
  21118979.102 6 110980988.110 6  86478728.52148  21118987.83248
  20825515.266 6 109438818.492 6  85277040.03648  20825524.49248
  24123644.500 5 126770697.124 5  98782327.98747  24123653.39847
  21128593.984 6 111031513.316 6  86518067.02148  21128603.39148
  22118680.281 5 116234647.900 5  90572346.06347  22118688.10547
  21720718.969 6 114143144.436 6  88942716.11349  21720730.05149
 22  7  3 17 30 30.0000000  0  8G05G07G13G14G15G17G19G30            
  23568210.570 3 123851769.875 3  96507904.18546  23568220.39846
  23602833.703 5 124033723.691 5  96649686.83348  23602843.95348
  21118064.164 6 110976177.706 6  86474980.16348  21118072.68048
  20828135.406 6 109452587.065 6  85287768.79848  20828144.21948
  24121795.992 5 126760982.246 5  98774757.96147  24121805.23847
  21127480.914 6 111025661.849 6  86513507.44248  21127490.07848
  22116906.492 5 116225325.578 5  90565081.92247  22116914.66447
  21722889.063 6 114154549.250 6  88951602.98449  21722900.47349
 22  7  3 17 30 35.0000000  0  8G05G07G13G14G15G17G19G30            
  23570770.406 3 123865221.171 3  96518385.66546  23570779.90246
  23606078.945 5 124050774.836 5  96662973.42048  23606088.53148
  21117151.070 6 110971378.596 6  86471240.60248  21117159.12548
  20830757.367 6 109466363.843 6  85298503.95148  20830766.30148
  24119948.313 5 126751273.470 5  98767192.68147  24119957.40647
  21126369.773 6 111019823.644 6  86508958.20448  21126378.93048
  22115134.102 5 116216011.531 5  90557824.22447  22115141.84447
  21725060.422 6 114165959.503 6  88960494.08749  21725071.19949
 22  7  3 17 30 40.0000000  0  8G05G07G13G14G15G17G19G30            
  23573331.078 3 123878681.855 3  96528874.51246  23573341.21546
  23609324.000 5 124067829.538 5  96676262.79448  23609333.91448
  21116239.711 6 110966590.862 6  86467509.90748  21116248.09448
  20833380.063 6 109480148.927 6  85309245.57948  20833389.22748
  24118102.141 5 126741570.840 5  98759632.19547  24118111.39547
  21125261.258 6 111013998.752 6  86504419.33148  21125270.62148
  22113363.531 5 116206705.841 5  90550573.03447  22113370.93047
  21727233.086 6 114177375.263 6  88969389.48849  21727243.64149
 22  7  3 17 30 45.0000000  0  8G05G07G13G14G15G17G19G30            
  23575894.945 3 123892151.621 3  96539370.42046  23575904.84046
  23612569.852 5 124084887.618 5  96689554.80148  23612579.69948
  21115331.203 6 110961814.297 6  86463787.91448  21115338.97348
  20836005.211 6 109493942.059 6  85319993.47448  20836014.01248
  24116256.133 5 126731874.148 5  98752076.32947  24116266.40647
  21124155.320 6 111008187.085 6  86499890.76848  21124164.37148
  22111593.883 5 116197408.364 5  90543328.24847  22111601.89147
  21729406.180 6 114188796.372 6  88978289.05649  21729417.64549
 22  7  3 17 30 50.0000000  0  8G05G07G13G14G15G17G19G30            
  23578460.414 3 123905630.410 3  96549873.34846  23578469.91446
  23615816.477 5 124101948.937 5  96702849.31548  23615826.59048
  21114424.086 6 110957048.783 6  86460074.52148  21114432.23848
  20838631.148 6 109507743.102 6  85330747.53648  20838640.06648
  24114411.875 5 126722183.308 5  98744525.03347  24114422.06347
  21123051.617 6 111002388.427 6  86495372.34548  21123061.14848
  22109825.984 5 116188118.897 5  90536089.68547  22109833.92647
  21731580.430 6 114200222.607 6  88987192.61549  21731591.72349
 22  7  3 17 30 55.0000000  0  8G05G07G13G14G15G17G19G30            
  23581027.063 3 123919118.065 3  96560383.19746  23581036.26246
  23619063.859 5 124119013.357 5  96716146.25948  23619073.80548
  21113519.047 6 110952294.197 6  86456369.65048  21113527.66848
  20841258.875 6 109521551.931 6  85341507.66448  20841267.93448
  24112569.484 5 126712498.232 5  98736978.22147  24112578.89547
  21121950.867 6 110996602.688 6  86490863.98048  21121960.32448
  22108060.258 6 116178837.401 6  90528857.35447  22108067.22747
  21733755.938 6 114211653.962 6  88996100.16349  21733766.68449
 22  7  3 17 31  0.0000000  0  8G05G07G13G14G15G17G19G30            
  23583595.250 3 123932614.522 3  96570899.92346  23583604.62146
  23622311.422 5 124136080.721 5  96729445.49748  23622321.57048
  21112616.453 6 110947550.430 6  86452673.22148  21112625.17648
  20843888.305 6 109535368.397 6  85352273.74548  20843897.06348
  24110727.023 5 126702818.729 5  98729435.77647  24110736.89847
  21120852.086 6 110990829.712 6  86486365.56348  21120861.35548
  22106295.906 5 116169563.742 5  90521631.11947  22106302.73447
  21735932.109 6 114223090.203 6  89005011.52249  21735943.02349
 22  7  3 17 31  5.0000000  0  8G05G07G13G14G15G17G19G30            
  23586164.813 3 123946119.775 3  96581423.48446  23586174.39846
  23625559.352 5 124153151.162 5  96742747.13448  23625570.11348
  21111715.914 6 110942817.556 6  86448985.27048  21111724.20748
  20846518.586 6 109549192.529 6  85363045.80248  20846527.50048
  24108886.828 5 126693144.970 5  98721897.78447  24108896.24647
  21119756.148 6 110985069.566 6  86481877.15148  21119765.44148
  22104532.211 5 116160298.009 5  90514411.07847  22104539.90247
  21738109.063 6 114234531.443 6  89013926.77349  21738120.26649
 22  7  3 17 31 10.0000000  0  8G05G07G13G14G15G17G19G30            
  23588737.383 3 123959633.652 3  96591953.75646  23588746.26246
  23628808.703 5 124170224.535 5  96756051.05548  23628819.35248
  21110816.906 6 110938095.456 6  86445305.71048  21110825.46548
  20849151.141 6 109563024.240 6  85373823.75948  20849159.88748
  24107047.063 5 126683476.796 5  98714364.15947  24107056.32047
  21118662.758 6 110979322.251 6  86477398.73148  21118671.36348
  22102770.180 6 116151040.069 6  90507197.08447  22102777.93447
  21740286.906 6 114245977.593 6  89022845.85449  21740298.30949
 22  7  3 17 31 15.0000000  0  8G05G07G13G14G15G17G19G30            
  23591310.586 2 123973156.512 2  96602491.03846  23591319.56646
  23632058.570 5 124187301.179 5  96769357.51648  23632068.95348
  21109920.453 6 110933384.516 6  86441634.84448  21109929.14848
  20851784.969 6 109576863.848 6  85384607.87048  20851793.53548
  24105208.555 5 126673814.481 5  98706835.08147  24105217.90647
  21117570.984 6 110973588.091 6  86472930.56348  21117580.34048
  22101010.328 5 116141790.294 5  90499989.46947  22101018.30147
  21742466.227 6 114257428.953 6  89031768.98749  21742477.79349
 22  7  3 17 31 20.0000000  0  8G05G07G13G14G15G17G19G30            
  23593884.523 2 123986688.080 2  96613035.10446  23593894.58646
  23635308.414 5 124204380.940 5  96782666.41448  23635319.57448
  21109026.320 6 110928684.544 6  86437972.53048  21109034.74248
  20854419.430 6 109590711.166 6  85395397.99348  20854428.89148
  24103370.070 5 126664157.956 5  98699310.52747  24103379.52047
  21116482.398 6 110967866.875 6  86468472.48248  21116491.50448
  22099251.234 5 116132548.489 5  90492788.06947  22099259.62147
  21744646.289 6 114268885.348 6  89040696.04749  21744657.41449
 22  7  3 17 31 25.0000000  0  8G05G07G13G14G15G17G19G30            
  23596460.820 2 124000228.630 2  96623586.18146  23596471.56346
  23638560.094 5 124221464.073 5  96795977.92748  23638570.21148
  21108133.977 6 110923995.807 6  86434318.96448  21108142.08648
  20857056.461 6 109604566.435 6  85406194.31048  20857065.15648
  24101534.500 5 126654507.473 5  98691790.68047  24101543.75847
  21115396.328 6 110962158.928 6  86464024.73648  21115405.41048
  22097494.461 5 116123315.040 5  90485593.17747  22097502.67247
  21746828.000 6 114280347.062 6  89049627.26249  21746838.44149
 22  7  3 17 31 30.0000000  0  8G05G07G13G14G15G17G19G30            
  23599040.219 2 124013777.927 2  96634144.05646  23599049.41446
  23641811.398 4 124238550.221 4  96809291.79448  23641821.97748
  21107244.078 6 110919317.984 6  86430673.91448  21107252.22748
  20859694.422 5 109618429.318 5  85416996.55548  20859703.26248
  24099698.547 5 126644862.667 5  98684275.26347  24099708.37147
  21114312.719 6 110956463.893 6  86459587.05748  21114321.30948
  22095738.609 5 116114089.557 5  90478404.50747  22095747.04747
  21749009.289 6 114291813.732 6  89058562.32549  21749020.77349
 22  7  3 17 31 35.0000000  0  8G05G07G13G14G15G17G19G30            
  23601620.289 2 124027335.550 2  96644708.42946  23601629.62546
  23645063.234 5 124255638.938 5  96822607.67348  23645073.74648
  21106355.742 6 110914650.706 6  86427037.08247  21106363.91447
  20862333.523 6 109632299.391 6  85427804.41148  20862342.30548
  24097864.578 5 126635223.204 5  98676763.99747  24097874.27347
  21113230.758 6 110950781.449 6  86455159.18848  21113240.07448
  22093984.773 5 116104871.627 5  90471221.70547  22093992.52747
  21751192.586 6 114303284.998 6  89067500.97749  21751203.79749
 22  7  3 17 31 40.0000000  0  8G05G07G13G14G15G17G19G30            
  23604201.484 3 124040901.965 3  96655279.62946  23604211.00846
  23648315.789 5 124272730.874 5  96835926.07048  23648325.77048
  21105469.773 6 110909994.588 6  86423408.93848  21105477.89548
  20864974.961 6 109646177.272 6  85438618.34748  20864983.29348
  24096031.273 6 126625589.645 6  98669257.33447  24096040.83647
  21112152.859 6 110945112.133 6  86450741.55048  21112161.28948
  22092231.555 5 116095661.878 5  90464045.29647  22092240.44947
  21753376.094 6 114314761.428 6  89076443.65149  21753388.08249
 22  7  3 17 31 45.0000000  0  8G05G07G13G14G15G17G19G30            
  23606784.227 3 124054477.033 3  96665857.58846  23606794.46946
  23651568.945 5 124289825.723 5  96849246.73248  23651578.62948
  21104585.734 6 110905349.332 6  86419789.25748  21104594.17648
  20867616.578 6 109660062.634 6  85449438.10948  20867625.78948
  24094199.258 6 126615961.740 6  98661755.07847  24094208.90647
  21111075.977 6 110939455.633 6  86446333.88948  21111084.52748
  22090481.266 5 116086460.060 5  90456875.05547  22090489.44147
  21755561.023 6 114326242.753 6  89085390.14449  21755572.56649
 22  7  3 17 31 50.0000000  0  8G05G07G13G14G15G17G19G30            
  23609369.844 3 124068060.420 3  96676442.03146  23609379.62946
  23654822.664 5 124306923.313 5  96862569.53648  23654831.87548
  21103703.633 6 110900714.776 6  86416177.92148  21103712.18448
  20870260.680 6 109673955.304 6  85460263.56348  20870269.35248
  24092368.047 6 126606339.319 6  98654257.09247  24092378.10547
  21110002.148 6 110933811.827 6  86441936.13548  21110010.87948
  22088731.352 5 116077265.939 5  90449710.81847  22088740.22347
  21757746.875 6 114337728.788 6  89094340.30049  21757758.41049
 22  7  3 17 31 55.0000000  0  8G05G07G13G14G15G17G19G30            
  23611955.289 4 124081652.290 4  96687033.07746  23611965.83246
  23658077.000 5 124324023.694 5  96875894.51648  23658086.15248
  21102823.922 6 110896091.016 6  86412574.98248  21102832.11748
  20872905.320 6 109687855.321 6  85471094.75548  20872914.02048
  24090538.016 6 126596722.514 6  98646763.48747  24090548.27047
  21108930.766 6 110928180.756 6  86437548.28448  21108939.14548
  22086982.742 5 116068079.671 5  90442552.69647  22086991.98047
  21759933.383 6 114349219.620 6  89103294.19749  21759944.96549
 22  7  3 17 32  0.0000000  0  8G05G07G13G14G15G17G19G30            
  23614543.344 3 124095252.664 3  96697630.75346  23614554.13746
  23661331.430 5 124341127.071 5  96889221.82048  23661341.00848
  21101946.148 6 110891478.178 6  86408980.56648  21101954.44948
  20875552.406 6 109701762.841 6  85481931.78848  20875560.82448
  24088709.180 6 126587111.354 6  98639274.28547  24088719.12947
  21107861.172 6 110922562.565 6  86433170.48448  21107870.05948
  22085236.555 6 116058901.372 6  90435400.78247  22085245.23447
  21762121.367 6 114360715.390 6  89112251.93849  21762132.22349
 22  7  3 17 32  5.0000000  0  8G05G07G13G14G15G17G19G30            
  23617133.203 3 124108861.760 3  96708235.23946  23617143.74646
  23664586.352 5 124358233.565 5  96902551.55448  23664596.10948
  21101070.961 6 110886876.389 6  86405394.77148  21101078.85548
  20878199.734 6 109715678.012 6  85492774.78048  20878208.78948
  24086881.141 6 126577506.101 6  98631789.67147  24086891.54747
  21106794.352 6 110916957.504 6  86428802.91448  21106803.53148
  22083491.836 5 116049731.188 5  90428255.19847  22083499.90647
  21764309.375 6 114372216.250 6  89121213.64949  21764320.66849
 22  7  3 17 32 10.0000000  0  8G05G07G13G14G15G17G19G30            
  23619725.086 3 124122479.222 3  96718846.23046  23619735.09846
  23667842.305 5 124375342.980 5  96915883.56648  23667851.93448
  21100196.695 6 110882285.523 6  86401817.46948  21100205.12148
  20880849.375 6 109729600.596 6  85503623.54848  20880858.29348
  24085054.828 6 126567906.546 6  98624309.53147  24085064.38347
  21105730.727 6 110911365.375 6  86424445.41748  21105739.54348
  22081747.734 6 116040568.997 6  90421115.82947  22081756.52747
  21766499.555 6 114383721.997 6  89130179.16749  21766510.15649
 22  7  3 17 32 15.0000000  0  8G05G07G13G14G15G17G19G30            
  23622318.258 3 124136105.424 3  96729464.04946  23622328.12546
  23671098.773 5 124392455.483 5  96929217.97948  23671108.55948
  21099325.742 6 110877705.773 6  86398248.83248  21099333.71948
  20883499.844 6 109743530.788 6  85514478.24648  20883509.12148
  24083229.148 5 126558312.841 5  98616833.92047  24083238.71147
  21104669.195 6 110905786.339 6  86420098.12748  21104677.87148
  22080006.281 5 116031414.924 5  90413982.79747  22080014.56647
  21768689.539 6 114395232.791 6  89139148.62249  21768700.83649
 22  7  3 17 32 20.0000000  0  8G05G07G13G14G15G17G19G30            
  23624912.805 3 124149740.082 3  96740088.43946  23624922.90246
  23674355.523 5 124409570.900 5  96942554.66348  23674365.41448
  21098455.867 6 110873136.970 6  86394688.72748  21098464.34448
  20886152.430 6 109757468.438 6  85525338.75648  20886161.21948
  24081404.523 5 126548724.891 5  98609362.81547  24081414.35547
  21103609.945 6 110900220.258 6  86415760.93248  21103618.70748
  22078265.898 6 116022268.887 6  90406856.01747  22078273.93847
  21770880.719 6 114406748.535 6  89148121.92749  21770891.90649
 22  7  3 17 32 25.0000000  0  8G05G07G13G14G15G17G19G30            
  23627508.656 3 124163383.465 3  96750719.64746  23627519.45746
  23677613.117 5 124426689.465 5  96955893.79948  23677623.04348
  21097588.578 6 110868579.384 6  86391137.36748  21097596.87548
  20888805.953 6 109771413.709 6  85536205.20348  20888815.12948
  24079581.055 5 126539142.865 5  98601896.30447  24079591.13747
  21102553.477 6 110894667.327 6  86411433.98248  21102561.95348
  22076527.000 6 116013131.089 6  90399735.66347  22076534.74647
  21773072.914 6 114418269.393 6  89157099.21749  21773084.26249
 22  7  3 17 32 30.0000000  0  8G05G07G13G14G15G17G19G30            
  23630107.258 3 124177035.263 3  96761357.39646  23630117.50046
  23680870.680 5 124443811.013 5  96969235.26048  23680881.38748
  21096723.531 6 110864032.827 6  86387594.59948  21096732.17248
  20891461.609 6 109785366.469 6  85547077.47748  20891470.32048
  24077758.188 5 126529566.691 5  98594434.36447  24077768.58647
  21101498.773 6 110889127.458 6  86407117.21048  21101507.61348
  22074789.773 6 116004001.391 6  90392621.61847  22074797.54347
  21775266.523 6 114429795.264 6  89166080.41949  21775277.60249
 22  7  3 17 32 35.0000000  0  8G05G07G13G14G15G17G19G30            
  23632706.641 3 124190695.503 3  96772001.72546  23632716.83246
  23684129.141 5 124460935.422 5  96982578.96248  23684139.99248
  21095860.109 6 110859497.110 6  86384060.27948  21095869.02748
  20894117.930 6 109799326.463 6  85557955.39848  20894126.67248
  24075937.672 5 126519996.152 5  98586976.81547  24075947.23047
  21100447.516 6 110883600.418 6  86402810.43748  21100456.14548
  22073054.133 5 115994879.631 5  90385513.75247  22073061.91847
  21777460.977 6 114441325.884 6  89175065.31949  21777472.05149
 22  7  3 17 32 40.0000000  0  8G05G07G13G14G15G17G19G30            
  23635306.992 3 124204364.057 3  96782652.54246  23635318.13746
  23687388.406 5 124478062.740 5  96995924.91548  23687399.13348
  21094998.969 6 110854972.473 6  86380534.58948  21095007.90248
  20896775.992 6 109813293.907 6  85568839.12448  20896784.71148
  24074117.500 5 126510431.426 5  98579523.79347  24074127.40647
  21099397.742 6 110878086.396 6  86398513.80348  21099406.18448
  22071319.477 5 115985765.938 5  90378412.18147  22071327.19947
  21779656.164 6 114452861.463 6  89184054.08549  21779667.07849
 22  7  3 17 32 45.0000000  0  8G05G07G13G14G15G17G19G30            
  23637909.008 3 124218041.358 3  96793310.17346  23637920.20346
  23690648.219 5 124495193.207 5  97009273.32748  23690658.87148
  21094140.023 6 110850459.025 6  86377017.62148  21094148.80548
  20899435.117 6 109827268.898 6  85579728.73548  20899443.69148
  24072298.289 5 126500872.646 5  98572075.39847  24072307.93847
  21098351.156 6 110872585.566 6  86394227.45048  21098359.84048
  22069586.313 5 115976660.544 5  90371317.06847  22069593.95747
  21781851.750 6 114464402.125 6  89193046.81349  21781862.99649
 22  7  3 17 32 50.0000000  0  8G05G07G13G14G15G17G19G30            
  23640513.734 3 124231726.949 3  96803974.25246  23640524.44546
  23693908.289 5 124512326.482 5  97022623.93748  23693919.64548
  21093283.547 6 110845956.486 6  86373509.15548  21093292.01248
  20902095.594 6 109841251.140 6  85590623.97948  20902104.86748
  24070479.883 5 126491319.574 5  98564631.45147  24070490.04747
  21097306.906 6 110867097.650 6  86389951.15748  21097315.63348
  22067855.766 5 115967563.094 5  90364228.14247  22067863.01247
  21784048.344 6 114475947.643 6  89202043.31849  21784059.94149
 22  7  3 17 32 55.0000000  0  8G05G07G13G14G15G17G19G30            
  23643119.617 3 124245421.077 3  96814644.97146  23643130.58246
  23697169.852 5 124529462.950 5  97035977.02148  23697180.32848
  21092429.000 6 110841465.077 6  86370009.35448  21092437.34448
  20904758.156 6 109855240.937 6  85601525.12448  20904767.31648
  24068663.484 5 126481772.487 5  98557192.18047  24068673.48447
  21096264.617 6 110861622.980 6  86385685.19048  21096273.94548
  22066126.250 5 115958473.949 5  90357145.70247  22066133.58647
  21786247.234 6 114487498.257 6  89211043.80449  21786258.55149
 22  7  3 17 33  0.0000000  0  8G05G07G13G14G15G17G19G30            
  23645726.859 3 124259123.383 3  96825322.09246  23645738.00846
  23700431.641 5 124546602.093 5  97049332.19348  23700441.84048
  21091576.164 6 110836984.443 6  86366517.95848  21091584.79348
  20907421.688 6 109869237.862 6  85612431.81948  20907430.64848
  24066847.820 5 126472231.021 5  98549757.29647  24066857.60547
  21095225.641 6 110856161.104 6  86381429.19348  21095234.13748
  22064397.703 5 115949392.702 5  90350069.39647  22064405.47747
  21788446.273 6 114499053.552 6  89220047.93249  21788457.18049
 22  7  3 17 33  5.0000000  0  8G05G07G13G14G15G17G19G30            
  23648335.938 3 124272833.694 3  96836005.44646  23648346.64146
  23703693.156 5 124563743.914 5  97062689.45648  23703703.25848
  21090725.930 6 110832514.649 6  86363035.00347  21090734.01247
  20910086.281 6 109883241.822 6  85623343.99848  20910095.32048
  24065032.945 5 126462695.084 5  98542326.69047  24065042.91447
  21094188.305 6 110850712.050 6  86377183.18748  21094197.41448
  22062671.039 5 115940319.272 5  90342999.19047  22062679.00447
  21790645.906 6 114510613.511 6  89229055.68949  21790656.88749
 22  7  3 17 33 10.0000000  0  8G05G07G13G14G15G17G19G30            
  23650947.008 4 124286551.814 4  96846694.85146  23650957.38346
  23706955.797 5 124580888.142 5  97076048.59348  23706965.70748
  21089877.227 6 110828055.376 6  86359560.24447  21089885.32047
  20912752.219 6 109897252.629 6  85634261.50548  20912761.54748
  24063219.938 5 126453164.457 5  98534900.24747  24063229.43847
  21093153.898 6 110845275.550 6  86372946.96348  21093162.91448
  22060945.953 5 115931253.457 5  90335934.93347  22060954.02047
  21792846.313 6 114522177.879 6  89238066.88749  21792857.91849
 22  7  3 17 33 15.0000000  0  8G05G07G13G14G15G17G19G30            
  23653558.563 4 124300278.468 4  96857390.95646  23653569.50046
  23710219.188 5 124598035.432 5  97089410.10648  23710228.37148
  21089030.758 6 110823607.293 6  86356094.20948  21089038.92648
  20915420.203 6 109911270.813 6  85645184.76348  20915429.11348
  24061406.695 5 126443639.781 5  98527478.43347  24061416.90247
  21092121.852 6 110839852.193 6  86368720.97648  21092130.96148
  22059222.297 5 115922195.882 5  90328877.08947  22059230.45347
  21795047.359 6 114533747.271 6  89247081.99749  21795059.28949
 22  7  3 17 33 20.0000000  0  8G05G07G13G14G15G17G19G30            
  23656172.617 4 124314013.329 4  96868093.41346  23656183.04746
  23713481.711 5 124615185.612 5  97102773.89648  23713491.85548
  21088186.383 6 110819170.326 6  86352636.84048  21088194.59848
  20918088.688 6 109925296.341 6  85656113.75048  20918098.18448
  24059595.367 5 126434120.954 5  98520061.17447  24059605.76247
  21091092.555 6 110834441.972 6  86364505.23348  21091101.19548
  22057500.711 5 115913146.505 5  90321825.62347  22057508.74247
  21797250.398 6 114545321.621 6  89256100.97449  21797261.88749
 22  7  3 17 33 25.0000000  0  8G05G07G13G14G15G17G19G30            
  23658788.141 4 124327756.571 4  96878802.42446  23658797.94546
  23716746.195 5 124632338.841 5  97116140.04448  23716756.00448
  21087344.219 6 110814744.558 6  86349188.18748  21087352.89548
  20920759.477 6 109939329.299 6  85667048.52048  20920768.63348
  24057785.625 5 126424608.109 5  98512648.57147  24057795.36347
  21090065.125 6 110829044.944 6  86360299.77248  21090074.34048
  22055779.930 5 115904105.431 5  90314780.64047  22055788.21147
  21799453.602 6 114556901.013 6  89265123.87849  21799465.53549
 22  7  3 17 33 30.0000000  0  8G05G07G13G14G15G17G19G30            
  23661404.992 4 124341508.141 4  96889517.90846  23661415.10546
  23720010.828 5 124649495.038 5  97129508.50648  23720020.81348
  21086504.305 6 110810329.860 6  86345748.17048  21086512.49248
  20923431.172 6 109953369.505 6  85677988.93748  20923440.14148
  24055976.461 5 126415101.159 5  98505240.57847  24055986.21547
  21089041.445 6 110823661.053 6  86356104.54148  21089049.77748
  22054061.438 5 115895072.538 5  90307742.03247  22054069.07047
  21801658.063 6 114568485.334 6  89274150.62649  21801669.82049
 22  7  3 17 33 35.0000000  0  8G05G07G13G14G15G17G19G30            
  23664023.727 4 124355267.391 4  96900239.40246  23664033.42646
  23723276.320 5 124666653.537 5  97142878.75948  23723286.39548
  21085666.477 6 110805925.750 6  86342316.39248  21085674.77348
  20926104.172 6 109967416.440 6  85688934.60548  20926112.86348
  24054168.523 5 126405599.512 5  98497836.70747  24054177.75847
  21088019.109 6 110818289.724 6  86351919.09348  21088027.78148
  22052343.672 6 115886047.292 6  90300709.38547  22052351.72747
  21803862.906 6 114580074.012 6  89283180.77149  21803875.11349
 22  7  3 17 33 40.0000000  0  8G05G07G13G14G15G17G19G30            
  23666643.055 4 124369034.852 4  96910967.27346  23666653.14846
  23726542.609 4 124683814.931 4  97156251.27347  23726551.96547
  21084830.047 6 110801532.705 6  86338893.24347  21084838.16047
  20928778.984 6 109981470.579 6  85699885.88648  20928787.66848
  24052361.133 5 126396103.695 5  98490437.37846  24052371.11746
  21086999.547 6 110812931.484 6  86347743.85348  21087007.81348
  22050627.695 6 115877030.246 6  90293683.11747  22050636.16447
  21806069.258 6 114591667.583 6  89292214.71949  21806081.32849
 22  7  3 17 33 45.0000000  0  8G05G07G13G14G15G17G19G30            
  23669264.703 4 124382810.247 4  96921701.34446  23669274.61346
  23729808.867 4 124700978.888 4  97169625.77248  23729818.56648
  21083996.109 6 110797150.358 6  86335478.43147  21084004.18847
  20931454.750 6 109995531.580 6  85710842.50748  20931463.32448
  24050555.813 5 126386613.374 5  98483042.33746  24050565.44146
  21085981.961 6 110807585.994 6  86343578.54348  21085990.82448
  22048913.250 5 115868021.035 5  90286662.96147  22048921.98047
  21808276.891 6 114603265.693 6  89301252.21749  21808288.25449
 22  7  3 17 33 50.0000000  0  8G05G07G13G14G15G17G19G30            
  23671888.313 4 124396593.954 4  96932441.87746  23671897.70346
  23733075.531 4 124718145.836 4  97183002.61248  23733085.14148
  21083164.398 6 110792779.226 6  86332072.35248  21083172.64548
  20934131.156 6 110009599.846 6  85721804.79948  20934140.72748
  24048751.164 5 126377129.009 5  98475651.93747  24048760.51247
  21084967.453 6 110802253.697 6  86339423.51648  21084976.16848
  22047200.523 5 115859020.066 5  90279649.22947  22047208.79347
  21810484.742 6 114614868.783 6  89310293.58349  21810496.41849
 22  7  3 17 33 55.0000000  0  8G05G07G13G14G15G17G19G30            
  23674512.484 5 124410386.017 5  96943188.91146  23674522.11746
  23736342.953 4 124735315.913 4  97196381.89648  23736352.68848
  21082334.938 6 110788419.432 6  86328675.10847  21082343.02747
  20936809.828 6 110023675.555 6  85732772.87948  20936819.14848
  24046946.773 5 126367650.784 5  98468266.32747  24046956.62547
  21083955.172 6 110796934.797 6  86335278.92648  21083963.85548
  22045490.078 6 115850027.580 6  90272642.10347  22045497.65247
  21812693.820 6 114626476.984 6  89319338.93649  21812705.05149
 22  7  3 17 34  0.0000000  0  8G05G07G13G14G15G17G19G30            
  23677138.711 5 124424186.081 5  96953942.21146  23677148.46546
  23739610.820 4 124752488.785 4  97209763.34748  23739620.63748
  21081507.219 6 110784070.642 6  86325286.43948  21081515.46548
  20939489.609 6 110037758.312 6  85743746.46648  20939498.76248
  24045144.477 5 126358178.340 5  98460885.21546  24045154.34046
  21082945.922 6 110791628.929 6  86331144.49248  21082954.27748
  22043779.758 6 115841043.229 6  90265641.32147  22043787.90247
  21814903.664 6 114638089.997 6  89328388.04249  21814914.83249
 22  7  3 17 34  5.0000000  0  8G05G07G13G14G15G17G19G30            
  23679766.742 5 124437994.449 5  96964701.96046  23679776.06346
  23742879.109 4 124769664.614 4  97223147.10748  23742888.82048
  21080681.789 6 110779733.126 6  86321906.55648  21080690.21148
  20942171.453 6 110051848.348 6  85754725.70848  20942180.34448
  24043343.320 5 126348711.913 5  98453508.78647  24043353.06647
  21081938.531 6 110786336.299 6  86327020.36848  21081946.84048
  22042072.039 6 115832067.236 6  90258647.05247  22042079.74647
  21817114.453 6 114649708.024 6  89337441.04649  21817125.67649
 22  7  3 17 34 10.0000000  0  8G05G07G13G14G15G17G19G30            
  23682395.953 5 124451810.969 5  96975468.06047  23682405.37947
  23746147.586 5 124786843.420 5  97236533.18948  23746157.55548
  21079858.961 6 110775406.800 6  86318535.39648  21079866.93848
  20944854.141 6 110065945.626 6  85765710.59748  20944862.48448
  24041542.797 5 126339251.465 5  98446137.03147  24041552.18847
  21080933.586 6 110781056.888 6  86322906.55148  21080942.46948
  22040365.133 5 115823099.546 5  90251659.25247  22040373.42647
  21819326.188 6 114661330.990 6  89346497.90749  21819337.62549
 22  7  3 17 34 15.0000000  0  8G05G07G13G14G15G17G19G30            
  23685026.055 4 124465635.583 4  96986240.46347  23685036.23847
  23749418.023 5 124804025.116 5  97249921.53648  23749426.65248
  21079036.914 6 110771091.621 6  86315172.91148  21079045.80948
  20947536.969 6 110080049.996 6  85776701.02148  20947546.61348
  24039743.172 5 126329796.901 5  98438769.84447  24039753.27347
  21079931.633 6 110775790.655 6  86318803.00648  21079940.53948
  22038660.484 5 115814140.086 5  90244677.85947  22038668.63747
  21821539.078 6 114672958.833 6  89355558.56549  21821550.43449
 22  7  3 17 34 20.0000000  0  8G05G07G13G14G15G17G19G30            
  23687658.578 4 124479468.136 4  96997019.07646  23687668.47346
  23752687.680 5 124821209.503 5  97263311.97748  23752696.89148
  21078218.289 6 110766787.424 6  86311818.99248  21078226.55548
  20950222.500 6 110094161.349 6  85787696.87948  20950232.03548
  24037945.211 5 126320348.136 5  98431407.17946  24037955.00846
  21078931.484 6 110770537.463 6  86314709.61848  21078940.45348
  22036957.102 5 115805188.796 5  90237702.83147  22036965.07047
  21823752.078 6 114684591.397 6  89364622.90149  21823763.85549
 22  7  3 17 34 25.0000000  0  8G05G07G13G14G15G17G19G30            
  23690292.398 4 124493308.500 4  97007803.76247  23690302.35247
  23755957.469 5 124838396.538 5  97276704.48448  23755967.49248
  21077401.656 6 110762494.126 6  86308473.56748  21077409.46548
  20952909.773 6 110108279.556 6  85798698.07748  20952918.50048
  24036148.195 5 126310905.036 5  98424048.92547  24036157.97347
  21077934.258 6 110765297.210 6  86310626.31048  21077943.29748
  22035255.141 5 115796245.517 5  90230734.05647  22035262.94547
  21825967.289 6 114696228.640 6  89373690.88149  21825978.40649
 22  7  3 17 34 30.0000000  0  8G05G07G13G14G15G17G19G30            
  23692927.102 4 124507157.262 4  97018595.01247  23692937.83647
  23759228.391 4 124855586.791 4  97290099.47848  23759238.66048
  21076586.820 6 110758212.303 6  86305137.08447  21076595.02747
  20955597.648 6 110122405.213 6  85809705.07948  20955606.20748
  24034352.953 5 126301468.210 5  98416695.57347  24034362.25447
  21076940.070 6 110760070.475 6  86306553.54448  21076949.11348
  22033554.938 5 115787310.884 5  90223772.01147  22033562.55947
  21828182.617 6 114707871.074 6  89382762.91349  21828193.88349
 22  7  3 17 34 35.0000000  0  8G05G07G13G14G15G17G19G30            
  23695564.727 4 124521014.122 4  97029392.53446  23695574.90646
  23762500.891 4 124872779.970 4  97303496.75048  23762510.62548
  21075773.820 6 110753941.708 6  86301809.34748  21075782.57448
  20958287.070 6 110136537.979 6  85820717.62548  20958295.58648
  24032557.766 5 126292037.357 5  98409346.86247  24032567.69147
  21075947.852 6 110754857.045 6  86302491.13548  21075956.80148
  22031855.836 5 115778384.596 5  90216816.46447  22031863.76247
  21830398.602 6 114719518.452 6  89391838.79049  21830410.02049
 22  7  3 17 34 40.0000000  0  8G05G07G13G14G15G17G19G30            
  23698202.758 4 124534879.155 4  97040196.46146  23698213.10546
  23765773.055 4 124889976.057 4  97316896.29548  23765782.87548
  21074963.328 6 110749682.393 6  86298490.39448  21074971.69148
  20960978.195 6 110150677.955 6  85831735.78948  20960986.50848
  24030763.719 5 126282612.588 5  98402002.91446  24030774.27046
  21074958.266 6 110749656.929 6  86298439.11048  21074967.26248
  22030159.164 6 115769466.681 6  90209867.44247  22030167.10247
  21832616.313 6 114731170.834 6  89400918.56349  21832627.20749
 22  7  3 17 34 45.0000000  0  8G05G07G13G14G15G17G19G30            
  23700843.031 4 124548751.979 4  97051006.43546  23700852.68446
  23769047.281 4 124907174.819 4  97330297.92648  23769056.10948
  21074154.922 6 110745434.074 6  86295180.01648  21074163.03148
  20963669.602 6 110164824.728 6  85842759.24948  20963678.75848
  24028971.961 5 126273193.546 5  98394663.41746  24028981.43046
  21073971.086 6 110744469.778 6  86294397.17648  21073980.32848
  22028463.383 5 115760556.872 5  90202924.73947  22028471.59847
  21834834.367 6 114742827.853 6  89410001.95449  21834845.43449
 22  7  3 17 34 50.0000000  0  8G05G07G13G14G15G17G19G30            
  23703483.125 4 124562632.725 4  97061822.59146  23703494.26646
  23772319.688 4 124924376.353 4  97343701.73248  23772329.60548
  21073348.570 6 110741196.857 6  86291878.29648  21073357.17648
  20966362.805 6 110178978.496 6  85853788.16448  20966372.19948
  24027180.367 5 126263780.419 5  98387328.52046  24027190.50046
  21072986.883 6 110739295.785 6  86290365.50048  21072995.94948
  22026769.617 5 115751655.307 5  90195988.44647  22026777.53547
  21837053.867 6 114754489.688 6  89419089.10149  21837064.90649
 22  7  3 17 34 55.0000000  0  8G05G07G13G14G15G17G19G30            
  23706126.945 4 124576521.201 4  97072644.77546  23706137.08646
  23775593.578 4 124941580.517 4  97357107.55948  23775603.10248
  21072544.227 6 110736970.616 6  86288585.11648  21072552.80948
  20969057.586 6 110193139.060 6  85864822.36848  20969066.43048
  24025390.516 5 126254372.998 5  98379998.06546  24025400.16846
  21072004.727 6 110734134.838 6  86286343.98748  21072013.43048
  22025076.977 5 115742761.874 5  90189058.49847  22025085.06347
  21839273.828 6 114766156.182 6  89428179.87249  21839284.93049
 22  7  3 17 35  0.0000000  0  8G05G07G13G14G15G17G19G30            
  23708771.281 4 124590417.441 4  97083473.03146  23708781.62146
  23778867.828 4 124958787.430 4  97370515.54548  23778877.69548
  21071742.297 6 110732755.482 6  86285300.59948  21071750.71548
  20971753.672 6 110207306.521 6  85875861.95348  20971762.77348
  24023600.531 4 126244971.427 4  98372672.18746  24023611.52346
  21071025.461 6 110728987.003 6  86282332.69648  21071034.00448
  22023386.445 5 115733876.671 5  90182134.96347  22023393.85947
  21841494.648 6 114777827.436 6  89437274.35949  21841505.80149
 22  7  3 17 35  5.0000000  0  8G05G07G13G14G15G17G19G30            
  23711416.594 4 124604321.852 4  97094307.60646  23711427.61746
  23782142.773 5 124975997.412 5  97383925.92347  23782152.71547
  21070942.430 6 110728551.757 6  86282024.96548  21070950.39548
  20974450.875 6 110221481.158 6  85886907.13248  20974459.93848
  24021812.742 4 126235576.108 4  98365351.18346  24021823.68446
  21070047.758 6 110723852.594 6  86278331.86548  21070056.96548
  22021697.453 5 115725000.043 5  90175218.10947  22021704.84447
  21843716.438 6 114789503.743 6  89446372.78349  21843727.64849
 22  7  3 17 35 10.0000000  0  8G05G07G13G14G15G17G19G30            
  23714063.891 4 124618234.121 4  97105148.32446  23714074.68846
  23785417.578 5 124993210.163 5  97397338.46648  23785428.07848
  21070144.656 6 110724359.147 6  86278758.00248  21070152.96948
  20977150.125 6 110235662.732 6  85897957.70548  20977158.96948
  24020026.023 4 126226186.657 4  98358034.73746  24020036.94146
  21069073.563 6 110718731.351 6  86274341.30248  21069082.43048
  22020009.555 5 115716131.709 5  90168307.72947  22020017.04347
  21845939.578 6 114801184.854 6  89455474.94649  21845950.96949
 22  7  3 17 35 15.0000000  0  8G05G07G13G14G15G17G19G30            
  23716713.461 4 124632154.371 4  97115995.26746  23716723.66846
  23788694.453 5 125010425.864 5  97410753.27048  23788704.66048
  21069348.719 6 110720177.876 6  86275499.86848  21069357.05948
  20979849.125 6 110249851.362 6  85909013.78448  20979858.82048
  24018240.406 5 126216803.354 5  98350723.09746  24018251.15646
  21068101.648 6 110713623.511 6  86270361.17748  21068110.19548
  22018323.125 5 115707271.855 5  90161403.95547  22018331.47347
  21848163.227 6 114812870.920 6  89464580.96849  21848174.60549
 22  7  3 17 35 20.0000000  0  8G05G07G13G14G15G17G19G30            
  23719364.203 4 124646082.340 4  97126848.22246  23719373.77346
  23791970.586 5 125027644.206 5  97424170.16348  23791981.30548
  21068554.977 6 110716007.686 6  86272250.36248  21068563.43848
  20982550.453 6 110264046.786 6  85920075.15348  20982560.16848
  24016456.992 5 126207425.884 5  98343415.97746  24016466.57046
  21067131.359 6 110708528.725 6  86266391.22248  21067140.62148
  22016639.273 5 115698420.240 5  90154506.60147  22016647.60547
  21850388.242 6 114824561.697 6  89473690.67149  21850398.99649
 22  7  3 17 35 25.0000000  0  8G05G07G13G14G15G17G19G30            
  23722016.078 4 124660018.168 4  97137707.30946  23722025.65646
  23795247.477 5 125044865.402 5  97437589.27048  23795258.07448
  21067763.805 6 110711848.752 6  86269009.63348  21067772.25848
  20985253.766 6 110278249.147 6  85931141.92548  20985262.89548
  24014673.570 4 126198054.413 4  98336113.55446  24014683.50846
  21066164.430 6 110703447.230 6  86262431.62348  21066173.52048
  22014956.773 5 115689577.035 5  90147615.79547  22014964.68447
  21852613.813 6 114836257.330 6  89482804.15249  21852625.09849
 22  7  3 17 35 30.0000000  0  8G05G07G13G14G15G17G19G30            
  23724668.766 3 124673962.106 3  97148572.71746  23724678.85246
  23798525.617 5 125062089.451 5  97451010.60048  23798535.83248
  21066974.641 6 110707701.099 6  86265777.69548  21066983.16848
  20987957.594 6 110292458.460 6  85942214.11948  20987966.60948
  24012891.453 4 126188688.985 4  98328815.84646  24012901.25846
  21065200.492 6 110698379.064 6  86258482.41048  21065208.99648
  22013275.508 5 115680742.269 5  90140731.56947  22013283.47747
  21854839.891 6 114847957.820 6  89491921.41849  21854851.49649
 22  7  3 17 35 35.0000000  0  8G05G07G13G14G15G17G19G30            
  23727324.211 3 124687913.857 3  97159444.18046  23727333.87146
  23801804.016 5 125079316.287 5  97464434.10348  23801813.84848
  21066187.680 6 110703564.711 6  86262554.53448  21066195.80548
  20990662.109 6 110306674.693 6  85953291.70948  20990672.03148
  24011110.469 4 126179329.559 4  98321522.79046  24011119.91046
  21064238.117 6 110693324.198 6  86254543.56248  21064247.27348
  22011595.766 5 115671915.895 5  90133853.88347  22011603.81647
  21857067.797 6 114859663.213 6  89501042.50449  21857079.34449
 22  7  3 17 35 40.0000000  0  8G05G07G13G14G15G17G19G30            
  23729979.617 4 124701872.958 4  97170321.39746  23729990.03946
  23805082.523 5 125096545.488 5  97477859.46748  23805092.63748
  21065402.391 6 110699439.112 6  86259339.77848  21065411.03548
  20993369.711 6 110320897.357 6  85964374.29848  20993378.51648
  24009330.234 4 126169975.727 4  98314234.11246  24009339.50446
  21063278.961 6 110688282.185 6  86250614.71948  21063287.49648
  22009917.508 5 115663097.438 5  90126982.36447  22009926.29747
  21859295.258 6 114871372.954 6  89510166.99049  21859307.48849
 22  7  3 17 35 45.0000000  0  8G05G07G13G14G15G17G19G30            
  23732637.758 3 124715840.027 3  97181204.83346  23732648.46146
  23808361.414 5 125113777.760 5  97491287.20948  23808371.55548
  21064619.664 6 110695325.053 6  86256134.02248  21064628.00848
  20996077.063 6 110335127.182 6  85975462.47448  20996086.71148
  24007551.109 5 126160628.207 5  98306950.35446  24007560.98446
  21062321.984 6 110683253.753 6  86246696.47148  21062330.84848
  22008240.766 6 115654287.715 6  90120117.65547  22008249.87147
  21861524.891 6 114883087.827 6  89519295.45849  21861536.35249
 22  7  3 17 35 50.0000000  0  8G05G07G13G14G15G17G19G30            
  23735297.898 3 124729815.210 3  97192094.56446  23735308.04746
  23811640.828 5 125131013.130 5  97504717.37248  23811651.04748
  21063838.805 6 110691222.580 6  86252937.28148  21063846.95748
  20998786.258 6 110349364.188 6  85986556.23848  20998795.85548
  24005774.406 5 126151286.979 5  98299671.47446  24005783.74246
  21061367.797 6 110678238.927 6  86242788.82548  21061376.57448
  22006566.719 5 115645486.719 5  90113259.74347  22006574.96147
  21863754.688 6 114894807.884 6  89528427.97649  21863766.50849
 22  7  3 17 35 55.0000000  0  8G05G07G13G14G15G17G19G30            
  23737958.664 4 124743798.208 4  97202990.39046  23737968.60546
  23814921.906 5 125148251.425 5  97518149.80848  23814931.59448
  21063060.609 6 110687131.484 6  86249749.40748  21063068.64848
  21001497.000 6 110363608.130 6  85997655.41248  21001506.00448
  24003996.883 5 126141951.990 5  98292397.46046  24004007.04346
  21060415.984 6 110673237.540 6  86238891.64748  21060424.55948
  22004893.867 5 115636694.249 5  90106408.47447  22004901.85947
  21865986.719 6 114906532.857 6  89537564.32149  21865997.60949
 22  7  3 17 36  0.0000000  0  8G05G07G13G14G15G17G19G30            
  23740621.234 4 124757788.988 4  97213892.27646  23740631.37546
  23818202.344 5 125165492.495 5  97531584.40348  23818212.48848
  21062284.117 6 110683051.646 6  86246570.31648  21062292.21148
  21004208.594 6 110377858.935 6  86008759.93548  21004217.96148
  24002222.484 4 126132622.940 4  98285128.09546  24002231.91846
  21059467.227 6 110668249.506 6  86235004.87748  21059475.64848
  22003221.672 5 115627910.254 5  90099563.80847  22003230.16447
  21868217.922 6 114918262.687 6  89546704.45149  21868229.71149
 22  7  3 17 36  5.0000000  0  8G05G07G13G14G15G17G19G30            
  23743285.336 3 124771787.446 3  97224800.15346  23743295.07046
  23821483.266 5 125182736.352 5  97545021.18748  23821493.50048
  21061509.250 6 110678983.134 6  86243400.04048  21061518.09048
  21006921.875 6 110392116.563 6  86019869.77148  21006931.54748
  24000448.852 4 126123299.997 4  98277863.46246  24000457.58646
  21058519.758 6 110663274.860 6  86231128.53948  21058528.58648
  22001551.750 6 115619134.760 6  90092725.77147  22001560.23447
  21870451.906 6 114929997.377 6  89555848.36749  21870463.11349
 22  7  3 17 36 10.0000000  0  8G05G07G13G14G15G17G19G30            
  23745950.539 3 124785793.639 3  97235714.07346  23745960.22746
  23824765.383 5 125199983.039 5  97558460.20148  23824774.78148
  21060737.695 6 110674925.938 6  86240238.59248  21060746.11348
  21009636.266 6 110406381.041 6  86030984.94748  21009645.58248
  23998675.680 4 126113983.129 4  98270603.59646  23998684.46146
  21057576.180 6 110658313.551 6  86227262.57948  21057584.68848
  21999884.289 5 115610367.755 5  90085894.34347  21999892.50047
  21872685.492 6 114941736.945 6  89564996.09049  21872696.94549
 22  7  3 17 36 15.0000000  0  8G05G07G13G14G15G17G19G30            
  23748616.898 4 124799807.546 4  97246633.98646  23748626.75046
  23828048.242 5 125217232.507 5  97571901.34248  23828057.73848
  21059968.125 6 110670880.015 6  86237085.92248  21059976.34848
  21012352.156 6 110420652.281 6  86042105.39348  21012361.27048
  23996903.828 5 126104672.351 5  98263348.42846  23996912.47746
  21056634.477 6 110653365.608 6  86223407.05148  21056643.21148
  21998216.766 5 115601609.243 5  90079069.53647  21998225.23847
  21874920.750 6 114953481.292 6  89574147.53249  21874931.68449
 22  7  3 17 36 20.0000000  0  8G05G07G13G14G15G17G19G30            
  23751284.508 3 124813829.410 3  97257560.12546  23751294.77746
  23831331.031 5 125234485.065 5  97585344.88748  23831340.86348
  21059200.094 6 110666845.708 6  86233942.30448  21059208.21548
  21015069.258 6 110434930.653 6  86053231.39548  21015078.58248
  23995133.203 5 126095367.968 5  98256098.28646  23995142.02346
  21055695.891 6 110648431.367 6  86219562.19848  21055704.72348
  21996551.953 5 115592859.550 5  90072251.60247  21996560.22347
  21877156.000 6 114965230.806 6  89583302.99549  21877167.24249
 22  7  3 17 36 25.0000000  0  8G05G07G13G14G15G17G19G30            
  23753955.023 4 124827858.899 4  97268492.15246  23753964.81646
  23834614.992 4 125251740.419 4  97598790.61448  23834624.36748
  21058434.586 6 110662822.784 6  86230807.55948  21058442.95348
  21017787.883 6 110449215.775 6  86064362.65148  21017796.69948
  23993363.383 5 126086069.714 5  98248852.90746  23993372.77346
  21054759.148 6 110643510.521 6  86215727.77648  21054767.88748
  21994888.422 5 115584118.437 5  90065440.34347  21994896.87147
  21879393.039 6 114976985.182 6  89592462.23949  21879404.24649
 22  7  3 17 36 30.0000000  0  8G05G07G13G14G15G17G19G30            
  23756626.430 4 124841895.979 4  97279430.11946  23756636.60246
  23837899.656 5 125268998.506 5  97612238.47948  23837908.96148
  21057671.250 6 110658811.082 6  86227681.55448  21057679.78948
  21020507.063 6 110463507.588 6  86075499.12348  21020516.10548
  23991595.320 5 126076777.439 5  98241612.16846  23991604.31646
  21053825.406 6 110638603.065 6  86211903.78648  21053834.16448
  21993226.250 5 115575385.721 5  90058635.64047  21993234.46547
  21881630.852 6 114988744.307 6  89601625.18849  21881641.94949
 22  7  3 17 36 35.0000000  0  8G05G07G13G14G15G17G19G30            
  23759299.016 4 124855940.862 4  97290374.17946  23759308.98446
  23841183.711 5 125286259.438 5  97625688.56548  23841193.57448
  21056909.969 6 110654810.846 6  86224564.48948  21056918.73848
  21023227.953 6 110477806.270 6  86086640.95048  21023237.01248
  23989828.164 5 126067491.381 5  98234376.29446  23989837.20346
  21052894.242 6 110633709.108 6  86208090.31448  21052903.10248
  21991566.266 5 115566661.642 5  90051837.65747  21991574.13747
  21883869.836 6 115000508.375 6  89610791.99449  21883880.90249
 22  7  3 17 36 40.0000000  0  8G05G07G13G14G15G17G19G30            
  23761973.164 4 124869993.525 4  97301324.29046  23761982.98046
  23844468.930 5 125303523.419 5  97639141.03148  23844478.66848
  21056150.953 6 110650822.211 6  86221456.46348  21056159.05948
  21025950.797 6 110492111.902 6  86097788.19448  21025959.35248
  23988062.313 5 126058211.687 5  98227145.35846  23988071.25446
  21051965.063 6 110628828.736 6  86204287.43948  21051974.18848
  21989907.563 5 115557946.302 5  90045046.48447  21989915.70747
  21886109.219 6 115012277.483 6  89619962.72549  21886120.15249
 22  7  3 17 36 45.0000000  0  8G05G07G13G14G15G17G19G30            
  23764648.164 4 124884054.047 4  97312280.52946  23764658.25446
  23847754.977 4 125320790.272 4  97652595.72948  23847765.10548
  21055393.836 6 110646845.042 6  86218357.36948  21055402.62148
  21028674.211 6 110506424.391 6  86108940.78048  21028682.80548
  23986297.805 5 126048938.218 5  98219919.30047  23986306.48847
  21051039.273 6 110623961.885 6  86200495.09948  21051047.72748
  21988250.664 5 115549239.686 5  90038262.11447  21988259.16447
  21888349.297 6 115024051.563 6  89629137.33549  21888360.40249
 22  7  3 17 36 50.0000000  0  8G05G07G13G14G15G17G19G30            
  23767325.469 4 124898121.997 4  97323242.54946  23767336.04746
  23851041.000 4 125338059.771 4  97666052.49148  23851051.10948
  21054639.063 6 110642879.041 6  86215266.97148  21054647.50848
  21031398.945 6 110520743.397 6  86120098.44948  21031407.83648
  23984534.430 4 126039670.692 4  98212697.85146  23984543.00846
  21050115.492 6 110619108.237 6  86196713.04048  21050124.54348
  21986596.375 5 115540541.423 5  90031484.24047  21986603.63747
  21890591.297 6 115035830.315 6  89638315.57649  21890602.00049
 22  7  3 17 36 55.0000000  0  8G05G07G13G14G15G17G19G30            
  23770003.805 4 124912197.661 4  97334210.57446  23770014.23446
  23854327.633 5 125355332.319 5  97679511.62248  23854338.12548
  21053887.031 6 110638924.687 6  86212185.66148  21053895.34848
  21034124.969 6 110535069.393 6  86131261.56348  21034134.18848
  23982771.664 5 126030409.669 5  98205481.48146  23982780.61746
  21049194.555 6 110614268.313 6  86192941.67348  21049203.50848
  21984942.352 5 115531852.047 5  90024713.31147  21984950.11747
  21892833.078 6 115047614.141 6  89647497.78049  21892844.19149
 22  7  3 17 37  0.0000000  0  8G05G07G13G14G15G17G19G30            
  23772683.469 4 124926281.231 4  97345184.78046  23772694.24646
  23857614.297 5 125372607.926 5  97692973.12948  23857625.37948
  21053136.430 6 110634982.043 6  86209113.46548  21053145.21148
  21036852.938 6 110549402.385 6  86142430.12448  21036861.41048
  23981010.531 5 126021155.028 5  98198270.08246  23981019.82046
  21048275.961 6 110609442.165 6  86189181.04948  21048284.79348
  21983290.273 6 115523171.596 6  90017949.33747  21983298.30147
  21895076.828 6 115059403.123 6  89656684.00049  21895087.79749
 22  7  3 17 37  5.0000000  0  8G05G07G13G14G15G17G19G30            
  23775365.016 4 124940372.147 4  97356164.70846  23775375.71146
  23860903.172 4 125389886.186 4  97706436.71648  23860912.81348
  21052388.211 6 110631050.620 6  86206050.01548  21052396.90648
  21039581.250 6 110563741.896 6  86153603.76648  21039590.34848
  23979250.156 4 126011906.389 4  98191063.36946  23979259.68446
  21047360.844 6 110604629.286 6  86185430.75348  21047369.05548
  21981640.750 6 115514499.588 6  90011191.92647  21981647.71547
  21897321.219 6 115071196.799 6  89665873.88049  21897332.28549
 22  7  3 17 37 10.0000000  0  8G05G07G13G14G15G17G19G30            
  23778048.695 4 124954470.842 4  97367150.68846  23778058.65246
  23864192.016 4 125407167.437 4  97719902.61148  23864201.48448
  21051642.641 6 110627130.844 6  86202995.64748  21051651.06648
  21042311.188 6 110578088.321 6  86164782.79548  21042320.01248
  23977492.531 4 126002664.162 4  98183861.66446  23977501.06646
  21046446.836 6 110599830.102 6  86181691.14048  21046455.82848
  21979992.117 5 115505836.416 5  90004441.41647  21979999.23447
  21899566.500 6 115082995.547 6  89675067.71349  21899577.39149
 22  7  3 17 37 15.0000000  0  8G05G07G13G14G15G17G19G30            
  23780732.758 3 124968577.080 3  97378142.54946  23780742.75846
  23867480.602 5 125424451.515 5  97733370.72048  23867490.85248
  21050898.656 6 110623222.526 6  86199950.20548  21050907.37548
  21045042.766 6 110592441.444 6  86175967.03948  21045051.61348
  23975733.859 4 125993428.116 4  98176664.74746  23975743.24246
  21045535.891 6 110595044.440 6  86177962.05548  21045544.94948
  21978344.961 5 115497181.940 5  89997697.66947  21978352.83647
  21901812.492 6 115094799.176 6  89684265.35049  21901823.57049
 22  7  3 17 37 20.0000000  0  8G05G07G13G14G15G17G19G30            
  23783419.422 3 124982690.627 3  97389140.11946  23783428.35946
  23870769.508 5 125441738.184 5  97746840.85348  23870779.82848
  21050157.203 6 110619325.421 6  86196913.50348  21050165.34848
  21047775.039 6 110606801.027 6  86187156.31948  21047783.78548
  23973977.883 5 125984198.067 5  98169472.52346  23973987.09046
  21044628.000 6 110590272.100 6  86174243.35448  21044637.17248
  21976699.875 6 115488535.920 6  89990960.52047  21976707.89547
  21904059.648 6 115106607.438 6  89693466.58849  21904070.80149
 22  7  3 17 37 25.0000000  0  8G05G07G13G14G15G17G19G30            
  23786106.086 3 124996811.517 3  97400143.39446  23786115.80146
  23874060.805 5 125459027.544 5  97760313.07748  23874069.58648
  21049417.633 6 110615439.648 6  86193885.61548  21049426.39848
  21050508.602 6 110621167.159 6  86198350.70348  21050517.74648
  23972222.672 5 125974974.159 5  98162285.07346  23972231.82046
  21043722.836 6 110585513.134 6  86170535.07948  21043731.70348
  21975056.117 5 115479898.463 5  89984230.04247  21975064.18447
  21906307.391 6 115118420.463 6  89702671.54849  21906318.92649
 22  7  3 17 37 30.0000000  0  8G05G07G13G14G15G17G19G30            
  23788794.117 3 125010940.263 3  97411152.79646  23788804.55546
  23877351.188 4 125476320.001 4  97773787.73148  23877360.82848
  21048680.602 6 110611565.685 6  86190866.94248  21048689.12548
  21053243.992 6 110635540.242 6  86209550.50548  21053253.03148
  23970468.773 5 125965756.765 5  98155102.69846  23970477.75446
  21042820.055 6 110580768.010 6  86166837.58548  21042828.72348
  21973413.734 5 115471270.039 5  89977506.60747  21973422.00047
  21908556.266 6 115130238.665 6  89711880.53549  21908567.64549
 22  7  3 17 37 35.0000000  0  8G05G07G13G14G15G17G19G30            
  23791484.914 4 125025076.758 4  97422168.25546  23791494.96146
  23880641.188 5 125493615.453 5  97787264.71848  23880651.67248
  21047945.500 6 110607703.440 6  86187857.40448  21047954.03548
  21055980.352 6 110649920.203 6  86220755.66348  21055989.06348
  23968715.742 4 125956545.866 4  98147925.38946  23968725.07046
  21041919.586 6 110576036.679 6  86163150.84148  21041928.50448
  21971774.125 5 115462650.512 5  89970790.09747  21971782.15647
  21910806.000 6 115142061.935 6  89721093.46649  21910817.67649
 22  7  3 17 37 40.0000000  0  8G05G07G13G14G15G17G19G30            
  23794175.578 4 125039220.502 4  97433189.35546  23794186.28546
  23883933.484 5 125510913.587 5  97800743.78648  23883944.09048
  21047213.039 6 110603852.507 6  86184856.67448  21047221.26248
  21058717.977 6 110664306.652 6  86231965.88748  21058726.95348
  23966964.313 4 125947341.096 4  98140752.84846  23966973.56346
  21041021.742 6 110571318.713 6  86159474.50748  21041030.66848
  21970134.969 5 115454039.563 5  89964080.28547  21970143.35247
  21913057.063 6 115153889.972 6  89730310.11449  21913068.36349
 22  7  3 17 37 45.0000000  0  8G05G07G13G14G15G17G19G30            
  23796868.898 4 125053371.213 4  97444215.89446  23796879.31346
  23887225.508 5 125528213.882 5  97814224.52748  23887236.05148
  21046481.891 6 110600012.496 6  86181864.46048  21046490.89548
  21061456.516 6 110678699.130 6  86243180.79848  21061465.51648
  23965213.719 5 125938142.018 5  98133584.74446  23965222.56646
  21040126.414 6 110566613.786 6  86155808.33448  21040135.15648
  21968497.539 5 115445436.740 5  89957376.79847  21968506.41447
  21915308.523 6 115165722.249 6  89739530.07249  21915320.30149
 22  7  3 17 37 50.0000000  0  8G05G07G13G14G15G17G19G30            
  23799562.500 4 125067529.393 4  97455248.22946  23799573.44146
  23890517.945 5 125545517.074 5  97827707.53048  23890529.24648
  21045753.664 6 110596184.063 6  86178881.26748  21045762.30948
  21064196.680 6 110693098.289 6  86254400.92348  21064205.89548
  23963464.430 5 125928949.313 5  98126421.60246  23963473.11746
  21039233.367 6 110561922.501 6  86152152.79448  21039242.33248
  21966862.367 6 115436842.732 6  89950680.18047  21966871.12947
  21917561.289 6 115177559.500 6  89748753.90749  21917572.40649
 22  7  3 17 37 55.0000000  0  8G05G07G13G14G15G17G19G30            
  23802258.195 4 125081695.276 4  97466286.55846  23802269.24246
  23893812.258 4 125562823.300 4  97841192.89148  23893822.78148
  21045027.242 6 110592367.432 6  86175907.26148  21045035.77748
  21066938.336 6 110707504.326 6  86265626.39848  21066947.31648
  23961716.773 5 125919763.151 5  98119263.54946  23961725.19946
  21038343.703 6 110557245.088 6  86148508.07048  21038352.28948
  21965229.469 5 115428257.729 5  89943990.58647  21965237.30547
  21919814.359 6 115189401.862 6  89757981.72349  21919825.43449
 22  7  3 17 38  0.0000000  0  8G05G07G13G14G15G17G19G30            
  23804955.758 3 125095868.465 3  97477330.60846  23804966.04346
  23897106.289 4 125580132.286 4  97854680.41248  23897116.66448
  21044303.023 6 110588562.274 6  86172942.21148  21044311.69148
  21069680.758 6 110721916.876 6  86276856.95648  21069689.80148
  23959969.641 5 125910583.202 5  98112110.35446  23959978.22346
  21037455.953 6 110552581.192 6  86144873.86948  21037464.84848
  21963596.500 5 115419681.449 5  89937307.78447  21963605.21947
  21922069.141 6 115201249.081 6  89767213.32149  21922080.24249
 22  7  3 17 38  5.0000000  0  8G05G07G13G14G15G17G19G30            
  23807654.430 3 125110049.294 3  97488380.59846  23807664.87146
  23900400.828 4 125597444.273 4  97868170.27248  23900410.30148
  21043581.570 6 110584768.948 6  86169986.36948  21043589.89848
  21072425.039 6 110736336.309 6  86288092.87048  21072433.77348
  23958223.563 5 125901409.881 5  98104962.31446  23958232.42246
  21036571.219 6 110547931.205 6  86141250.50848  21036579.53948
  21961966.781 5 115411114.219 5  89930632.03547  21961974.76647
  21924324.664 6 115213101.440 6  89776448.92849  21924335.68049
 22  7  3 17 38 10.0000000  0  8G05G07G13G14G15G17G19G30            
  23810354.414 3 125124237.240 3  97499436.13446  23810364.18846
  23903694.570 5 125614758.837 5  97881662.14548  23903705.26648
  21042862.133 6 110580986.903 6  86167039.32048  21042870.13748
  21075169.922 6 110750762.037 6  86299333.70048  21075178.77348
  23956478.836 5 125892242.587 5  98097818.96946  23956487.63346
  21035688.789 6 110543294.570 6  86137637.54848  21035697.71548
  21960338.250 6 115402555.469 6  89923962.89647  21960346.35947
  21926580.750 6 115224958.396 6  89785688.11549  21926592.04349
 22  7  3 17 38 15.0000000  0  8G05G07G13G14G15G17G19G30            
  23813055.961 3 125138432.646 3  97510497.48846  23813065.58246
  23906989.914 5 125632076.223 5  97895156.20848  23907000.48048
  21042144.281 6 110577216.511 6  86164101.35348  21042152.36748
  21077916.406 6 110765194.404 6  86310579.68848  21077925.25848
  23954735.859 5 125883081.696 5  98090680.62646  23954744.54346
  21034809.117 6 110538671.681 6  86134035.30148  21034817.59448
  21958710.922 5 115394005.694 5  89917300.74547  21958719.12547
  21928838.070 6 115236820.333 6  89794931.18349  21928849.18049
 22  7  3 17 38 20.0000000  0  8G05G07G13G14G15G17G19G30            
  23815758.219 3 125152635.500 3  97521564.63746  23815768.45746
  23910286.219 5 125649396.563 5  97908652.58948  23910295.50848
  21041428.797 6 110573457.792 6  86161172.47648  21041437.39148
  21080663.891 6 110779633.403 6  86321830.86048  21080672.91448
  23952994.258 5 125873927.207 5  98083547.27146  23953002.35246
  21033931.758 6 110534062.517 6  86130443.75348  21033940.09448
  21957085.766 6 115385464.809 6  89910645.52247  21957093.63347
  21931096.508 6 115248687.217 6  89804178.10349  21931107.33649
 22  7  3 17 38 25.0000000  0  8G05G07G13G14G15G17G19G30            
  23818462.227 3 125166845.878 3  97532637.67046  23818472.79746
  23913581.953 5 125666719.854 5  97922151.25948  23913592.49648
  21040715.859 6 110569710.913 6  86158252.82948  21040724.37548
  21083412.953 6 110794079.151 6  86333087.28548  21083422.31348
  23951252.891 5 125864779.321 5  98076419.05846  23951261.53546
  21033056.984 6 110529467.217 6  86126863.00248  21033066.26648
  21955462.273 5 115376933.036 5  89903997.39547  21955469.85247
  21933355.531 6 115260559.227 6  89813429.02349  21933366.34049
 22  7  3 17 38 30.0000000  0  8G05G07G13G14G15G17G19G30            
  23821168.023 3 125181063.938 3  97543716.65746  23821177.84446
  23916879.180 5 125684046.271 5  97935652.35848  23916889.59848
  21040005.477 6 110565975.947 6  86155342.46648  21040013.34848
  21086162.625 6 110808531.755 6  86344349.05348  21086172.27048
  23949513.227 5 125855638.123 5  98069296.05646  23949522.58246
  21032185.484 6 110524885.910 6  86123293.15848  21032194.59848
  21953840.398 6 115368410.418 6  89897356.40147  21953848.15647
  21935615.789 6 115272436.416 6  89822683.96749  21935627.08249
 22  7  3 17 38 35.0000000  0  8G05G07G13G14G15G17G19G30            
  23823874.180 4 125195289.322 4  97554801.35846  23823885.25046
  23920176.938 5 125701375.484 5  97949155.65648  23920187.03148
  21039296.773 6 110562252.554 6  86152441.10448  21039304.95748
  21088914.383 6 110822990.878 6  86355615.90148  21088923.66048
  23947775.406 5 125846503.266 5  98062177.98646  23947784.11346
  21031315.656 6 110520318.282 6  86119733.98348  21031325.18448
  21952220.195 6 115359896.652 6  89890722.31647  21952228.13747
  21937876.617 6 115284318.492 6  89831942.73349  21937887.59049
 22  7  3 17 38 40.0000000  0  8G05G07G13G14G15G17G19G30            
  23826582.977 4 125209521.665 4  97565891.48346  23826593.44546
  23923475.398 4 125718707.188 4  97962660.87748  23923485.46148
  21038590.180 6 110558540.432 6  86149548.54848  21038598.29748
  21091667.000 6 110837456.169 6  86366887.55648  21091676.24648
  23946037.367 5 125837374.409 5  98055064.60447  23946046.94547
  21030450.063 6 110515764.013 6  86116185.20248  21030458.58248
  21950601.930 6 115351391.424 6  89884094.86947  21950609.31647
  21940138.359 6 115296205.107 6  89841205.02549  21940150.10549
 22  7  3 17 38 45.0000000  0  8G05G07G13G14G15G17G19G30            
  23829292.781 4 125223761.600 4  97576987.52846  23829303.25846
  23926773.898 4 125736041.956 4  97976168.47448  23926784.13348
  21037886.258 6 110554840.200 6  86146665.24548  21037894.55948
  21094421.063 6 110851928.233 6  86378164.48448  21094430.18448
  23944302.500 5 125828252.181 5  98047956.39247  23944311.18047
  21029585.688 6 110511223.789 6  86112647.37448  21029594.63348
  21948984.789 6 115342895.342 6  89877474.55547  21948992.52347
  21942401.633 6 115308096.896 6  89850471.35349  21942412.77349
 22  7  3 17 38 50.0000000  0  8G05G07G13G14G15G17G19G30            
  23832005.102 4 125238009.115 4  97588089.48146  23832014.55946
  23930073.734 4 125753379.819 4  97989678.49548  23930083.75048
  21037184.711 6 110551151.868 6  86143791.21948  21037192.65248
  21097176.328 6 110866407.063 6  86389446.68948  21097185.48048
  23942567.688 5 125819136.661 5  98040853.38447  23942576.69547
  21028724.531 6 110506697.579 6  86109120.46748  21028733.30148
  21947370.102 6 115334408.457 6  89870861.40547  21947377.37547
  21944665.156 6 115319993.873 6  89859741.72049  21944676.78549
 22  7  3 17 38 55.0000000  0  8G05G07G13G14G15G17G19G30            
  23834717.211 4 125252263.896 4  97599197.09746  23834726.98446
  23933373.508 4 125770720.512 4  98003190.71948  23933383.32448
  21036484.766 6 110547475.226 6  86140926.29748  21036492.57448
  21099933.211 6 110880892.411 6  86400733.96748  21099941.88348
  23940833.266 5 125810027.638 5  98033755.44946  23940843.46946
  21027865.703 6 110502185.070 6  86105604.23048  21027874.65248
  21945756.813 6 115325930.547 6  89864255.24647  21945764.19547
  21946930.383 6 115331895.760 6  89869015.92249  21946941.52349
 22  7  3 17 39  0.0000000  0  8G05G07G13G14G15G17G19G30            
  23837431.078 5 125266526.424 5  97610310.72646  23837440.94546
  23936674.844 4 125788064.487 4  98016705.51248  23936683.83648
  21035787.805 6 110543810.729 6  86138070.83848  21035795.66048
  21102690.977 6 110895384.732 6  86412026.68448  21102700.06648
  23939102.266 5 125800925.484 5  98026662.87547  23939111.46547
  21027009.633 6 110497686.771 6  86102099.06548  21027018.49248
  21944145.141 6 115317462.056 6  89857656.43147  21944153.05147
  21949196.141 6 115343803.033 6  89878294.30649  21949207.42249
 22  7  3 17 39  5.0000000  0  8G05G07G13G14G15G17G19G30            
  23840146.305 5 125280796.157 5  97621430.00147  23840156.45347
  23939974.914 5 125805411.245 5  98030222.46448  23939985.24248
  21035092.125 6 110540157.860 6  86135224.44548  21035099.97348
  21105450.305 6 110909883.433 6  86423324.37048  21105458.87548
  23937371.094 5 125791829.771 5  98019575.32347  23937380.41847
  21026155.961 6 110493202.164 6  86098604.56948  21026164.61748
  21942535.578 6 115309002.465 6  89851064.55547  21942543.00847
  21951463.336 6 115355715.138 6  89887576.46949  21951474.28549
 22  7  3 17 39 10.0000000  0  8G05G07G13G14G15G17G19G30            
  23842863.297 5 125295072.771 5  97632554.61547  23842873.36347
  23943276.039 4 125822760.463 4  98043741.34448  23943286.90648
  21034399.211 6 110536516.355 6  86132386.90548  21034407.26648
  21108210.422 6 110924388.302 6  86434626.86948  21108219.00448
  23935641.336 5 125782740.217 5  98012492.56347  23935650.70747
  21025305.570 6 110488731.021 6  86095120.56348  21025314.40648
  21940927.523 6 115300551.567 6  89844479.44847  21940934.70347
  21953730.859 6 115367631.842 6  89896862.21249  21953741.81349
 22  7  3 17 39 15.0000000  0  8G05G07G13G14G15G17G19G30            
  23845582.398 5 125309356.329 5  97643684.66046  23845591.57446
  23946577.617 4 125840112.253 4  98057262.21948  23946588.76648
  21033708.945 6 110532886.317 6  86129558.30548  21033716.96548
  21110971.258 6 110938899.385 6  86445934.20548  21110980.32848
  23933913.109 5 125773656.873 5  98005414.64447  23933922.07047
  21024457.242 6 110484273.425 6  86091647.12348  21024466.14548
  21939320.648 6 115292109.403 6  89837901.15647  21939328.53947
  21955999.250 6 115379553.242 6  89906151.61449  21956010.46149
 22  7  3 17 39 20.0000000  0  8G05G07G13G14G15G17G19G30            
  23848300.688 5 125323646.452 5  97654819.79147  23848310.99247
  23949880.445 5 125857466.207 5  98070784.79548  23949890.54348
  21033020.023 6 110529267.402 6  86126738.37048  21033028.25448
  21113733.656 6 110953416.271 6  86457246.06248  21113742.49248
  23932185.289 5 125764579.329 5  97998341.26047  23932195.00847
  21023611.391 6 110479828.976 6  86088183.91948  21023620.48848
  21937715.930 6 115283675.569 6  89831329.35147  21937723.85947
  21958268.344 6 115391478.913 6  89915444.34149  21958279.64549
 22  7  3 17 39 25.0000000  0  8G05G07G13G14G15G17G19G30            
  23851021.789 5 125337943.756 5  97665960.55846  23851032.02346
  23953183.258 4 125874822.918 4  98084309.50948  23953194.04748
  21032333.852 6 110525660.147 6  86123927.51748  21032341.57448
  21116497.539 6 110967939.536 6  86468562.89048  21116506.44548
  23930459.453 5 125755508.263 5  97991272.90747  23930469.21547
  21022768.828 6 110475398.276 6  86084731.43748  21022777.24648
  21936112.281 6 115275250.727 6  89824764.54847  21936120.19147
  21960539.500 6 115403409.463 6  89924740.87049  21960550.09049
 22  7  3 17 39 30.0000000  0  8G05G07G13G14G15G17G19G30            
  23853743.078 5 125352248.190 5  97677106.85047  23853754.32047
  23956486.539 4 125892182.459 4  98097836.42547  23956496.75047
  21031649.297 6 110522064.611 6  86121125.80648  21031657.56348
  21119262.195 6 110982469.237 6  86479884.73848  21119271.26248
  23928733.836 5 125746443.695 5  97984209.61547  23928744.09847
  21021927.664 6 110470981.396 6  86081289.71348  21021936.94548
  21934510.945 6 115266834.914 6  89818206.80347  21934519.31647
  21962810.070 6 115415344.922 6  89934041.23149  21962821.21149
 22  7  3 17 39 35.0000000  0  8G05G07G13G14G15G17G19G30            
  23856467.148 5 125366560.038 5  97688258.91946  23856477.34846
  23959790.609 5 125909544.954 5  98111365.64347  23959800.85947
  21030967.148 6 110518480.989 6  86118333.37048  21030975.65648
  21122028.484 6 110997005.525 6  86491211.71348  21122037.87548
  23927010.813 5 125737385.846 5  97977151.55646  23927020.27046
  21021089.719 6 110466578.545 6  86077858.92748  21021098.94548
  21932911.344 6 115258428.316 6  89811656.22447  21932919.58647
  21965083.102 6 115427285.498 6  89943345.57149  21965093.48849
 22  7  3 17 39 40.0000000  0  8G05G07G13G14G15G17G19G30            
  23859191.734 5 125380879.399 5  97699416.85947  23859201.88347
  23963094.203 5 125926910.714 5  98124897.39547  23963105.74247
  21030287.789 6 110514909.520 6  86115550.40548  21030296.17248
  21124795.773 6 111011548.623 6  86502543.99248  21124804.89148
  23925288.602 4 125728334.900 4  97970098.88847  23925298.03547
  21020254.422 6 110462189.903 6  86074439.22048  21020263.69548
  21931313.313 6 115250031.185 6  89805113.02247  21931321.65647
  21967355.680 6 115439231.359 6  89952654.04049  21967366.57049
 22  7  3 17 39 45.0000000  0  8G05G07G13G14G15G17G19G30            
  23861917.742 5 125395205.791 5  97710580.26547  23861928.26247
  23966399.938 5 125944279.125 5  98138431.20748  23966410.52048
  21029610.984 6 110511349.681 6  86112776.50848  21029618.75448
  21127564.734 6 111026097.980 6  86513881.16048  21127573.72748
  23923567.828 5 125719290.396 5  97963051.22947  23923576.60247
  21019422.328 6 110457815.021 6  86071030.22048  21019431.47748
  21929717.156 6 115241643.003 6  89798576.79847  21929725.50447
  21969629.813 6 115451182.078 6  89961966.28049  21969640.59049
 22  7  3 17 39 50.0000000  0  8G05G07G13G14G15G17G19G30            
  23864645.375 5 125409539.097 5  97721749.06147  23864655.61347
  23969706.047 5 125961650.179 5  98151967.08647  23969716.17247
  21028935.359 6 110507801.472 6  86110011.67048  21028943.27348
  21130334.563 6 111040653.557 6  86525223.16948  21130343.27048
  23921848.109 5 125710252.270 5  97956008.55347  23921857.10947
  21018591.805 6 110453453.849 6  86067631.91048  21018601.37548
  21928123.031 6 115233263.693 6  89792047.48447  21928131.30547
  21971904.914 6 115463137.503 6  89971282.19849  21971915.94149
 22  7  3 17 39 55.0000000  0  8G05G07G13G14G15G17G19G30            
  23867375.258 5 125423879.219 5  97732923.17647  23867384.62547
  23973012.156 5 125979023.761 5  98165504.95047  23973021.89147
  21028262.039 6 110504264.729 6  86107255.76548  21028269.93048
  21133105.313 6 111055215.207 6  86536569.90348  21133114.29748
  23920128.750 5 125701220.442 5  97948970.76047  23920138.39547
  21017764.891 6 110449106.200 6  86064244.13648  21017773.75048
  21926530.234 6 115224893.187 6  89785525.02347  21926538.16047
  21974180.789 6 115475097.574 6  89980601.73149  21974192.24649
 22  7  3 17 40  0.0000000  0  8G05G07G13G14G15G17G19G30            
  23870104.938 5 125438226.587 5  97744102.93647  23870115.02047
  23976317.945 5 125996400.166 5  98179045.01347  23976328.47347
  21027591.203 6 110500739.847 6  86104509.10548  21027599.26648
  21135877.703 6 111069783.286 6  86547921.65048  21135886.46948
  23918411.938 5 125692195.186 5  97941938.10047  23918420.71547
  21016940.172 6 110444772.521 6  86060867.24848  21016949.41048
  21924938.719 6 115216531.789 6  89779009.67348  21924946.95748
  21976457.742 6 115487062.625 6  89989925.14649  21976468.65249
 22  7  3 17 40  5.0000000  0  8G05G07G13G14G15G17G19G30            
  23872835.891 5 125452581.064 5  97755288.21747  23872846.41047
  23979625.828 5 126013779.452 5  98192587.31848  23979635.36748
  21026922.977 6 110497226.820 6  86101771.68748  21026931.02048
  21138651.055 6 111084357.752 6  86559278.38348  21138659.64548
  23916695.531 5 125683176.576 5  97934910.62247  23916704.36747
  21016118.172 6 110440452.811 6  86057501.23648  21016127.19548
  21923349.656 6 115208179.545 6  89772501.43748  21923357.24648
  21978735.852 6 115499032.650 6  89999252.43649  21978746.77749
 22  7  3 17 40 10.0000000  0  8G05G07G13G14G15G17G19G30            
  23875569.008 5 125466942.670 5  97766479.06947  23875579.48847
  23982933.258 5 126031161.635 5  98206131.87348  23982943.20348
  21026256.086 6 110493725.662 6  86099043.50548  21026264.65248
  21141425.742 6 111098938.616 6  86570640.08548  21141434.52048
  23914980.375 5 125674164.611 5  97927888.32247  23914989.46547
  21015298.875 6 110436147.079 6  86054146.13448  21015307.84048
  21921762.047 6 115199836.508 6  89766000.38748  21921770.03548
  21981014.125 6 115511007.687 6  90008583.62349  21981025.23049
 22  7  3 17 40 15.0000000  0  8G05G07G13G14G15G17G19G30            
  23878303.305 5 125481311.366 5  97777675.44347  23878313.82847
  23986241.141 4 126048546.714 4  98219678.69448  23986251.63748
  21025592.086 6 110490236.461 6  86096324.64548  21025600.53548
  21144201.727 6 111113525.903 6  86582006.80948  21144210.48848
  23913266.477 5 125665159.331 5  97920871.22047  23913275.82847
  21014482.539 6 110431855.368 6  86050801.95348  21014491.43848
  21920176.430 6 115191502.717 6  89759506.53048  21920183.55948
  21983293.578 6 115522987.724 6  90017918.71449  21983305.00449
 22  7  3 17 40 20.0000000  0  8G05G07G13G14G15G17G19G30            
  23881038.586 5 125495686.815 5  97788877.08147  23881049.79747
  23989551.359 5 126065934.308 5  98233227.46748  23989560.19948
  21024931.008 6 110486758.794 6  86093614.77648  21024938.87148
  21146978.859 6 111128119.234 6  86593378.23348  21146987.57048
  23911554.117 5 125656160.331 5  97913859.01647  23911563.67247
  21013668.203 6 110427577.300 6  86047468.39748  21013676.96948
  21918592.047 6 115183177.835 6  89753019.61847  21918599.68447
  21985574.273 6 115534972.410 6  90027257.42549  21985585.43849
 22  7  3 17 40 25.0000000  0  8G05G07G13G14G15G17G19G30            
  23883774.914 5 125510069.126 5  97800084.06547  23883785.99247
  23992860.188 5 126083324.515 5  98246778.27648  23992869.55148
  21024271.461 6 110483292.825 6  86090914.01448  21024279.51248
  21149756.703 6 111142718.709 6  86604754.44848  21149765.52048
  23909842.422 5 125647167.772 5  97906851.84147  23909852.17247
  21012856.672 6 110423312.971 6  86044145.54748  21012865.28548
  21917009.539 6 115174861.951 6  89746539.71747  21917016.89547
  21987856.453 6 115546961.886 6  90036599.86849  21987867.32449
 22  7  3 17 40 30.0000000  0  8G05G07G13G14G15G17G19G30            
  23886513.789 5 125524458.862 5  97811296.83847  23886524.47747
  23996170.055 5 126100717.842 5  98260331.52348  23996179.67248
  21023613.805 6 110479838.978 6  86088222.70648  21023621.85948
  21152536.352 6 111157324.750 6  86616135.79048  21152545.37148
  23908132.680 5 125638182.161 5  97899850.07847  23908142.09047
  21012048.109 6 110419062.879 6  86040833.79948  21012057.07848
  21915428.422 6 115166555.534 6  89740067.18847  21915435.96147
  21990138.641 6 115558956.580 6  90045946.37849  21990149.90649
 22  7  3 17 40 35.0000000  0  8G05G07G13G14G15G17G19G30            
  23889254.031 5 125538855.319 5  97822514.85347  23889263.96547
  23999479.883 5 126118113.824 5  98273886.83748  23999489.87948
  21022959.477 6 110476396.834 6  86085540.51748  21022966.89848
  21155317.219 6 111171936.923 6  86627521.89448  21155325.57448
  23906424.063 5 125629202.969 5  97892853.30947  23906433.65247
  21011241.750 6 110414826.542 6  86037532.75148  21011250.81648
  21913849.516 6 115158258.111 6  89733601.68147  21913856.68047
  21992421.695 6 115570956.035 6  90055296.60149  21992432.91849
 22  7  3 17 40 40.0000000  0  8G05G07G13G14G15G17G19G30            
  23891994.891 5 125553258.730 5  97833738.28347  23892004.74647
  24002791.766 5 126135512.560 5  98287444.29748  24002800.77348
  21022306.539 6 110472966.561 6  86082867.57348  21022314.19948
  21158098.555 6 111186555.390 6  86638912.89748  21158107.38348
  23904716.563 5 125620230.433 5  97885861.73147  23904726.43847
  21010438.336 6 110410604.159 6  86034242.58748  21010447.51648
  21912271.867 6 115149969.861 6  89727143.31247  21912279.41047
  21994706.414 6 115582960.416 6  90064650.65849  21994717.26249
 22  7  3 17 40 45.0000000  0  8G05G07G13G14G15G17G19G30            
  23894736.953 5 125567668.550 5  97844966.71046  23894747.07046
  24006102.344 5 126152913.574 5  98301003.52548  24006112.09048
  21021655.586 6 110469547.671 6  86080203.50548  21021663.46548
  21160881.648 6 111201179.602 6  86650308.38048  21160890.37148
  23903009.750 5 125611264.060 5  97878874.96047  23903020.10947
  21009637.531 6 110406395.292 6  86030962.95848  21009646.16048
  21910696.688 6 115141690.400 6  89720691.80247  21910704.24247
  21996991.930 6 115594969.238 6  90074008.17849  21997002.54749
 22  7  3 17 40 50.0000000  0  8G05G07G13G14G15G17G19G30            
  23897480.008 5 125582085.559 5  97856200.73147  23897489.98047
  24009414.609 5 126170317.686 5  98314565.18048  24009424.24248
  21021007.609 6 110466140.949 6  86077548.91348  21021015.19148
  21163665.648 6 111215810.350 6  86661708.96748  21163674.90648
  23901305.148 5 125602304.539 5  97871893.51547  23901314.95347
  21008839.383 6 110402200.647 6  86027694.41548  21008848.06648
  21909122.898 6 115133420.426 6  89714247.66947  21909129.96147
  21999277.484 6 115606983.278 6  90083369.76849  21999288.97749
 22  7  3 17 40 55.0000000  0  8G05G07G13G14G15G17G19G30            
  23900224.625 5 125596509.407 5  97867440.08147  23900235.28547
  24012726.852 5 126187724.505 5  98328128.94748  24012736.67648
  21020361.109 6 110462745.990 6  86074903.48648  21020369.50048
  21166451.180 6 111230447.204 6  86673114.30648  21166460.00848
  23899601.484 5 125593351.682 5  97864917.28247  23899611.44147
  21008043.563 6 110398019.914 6  86024436.69948  21008052.58248
  21907550.477 6 115125159.544 6  89707810.62547  21907558.50047
  22001565.180 6 115619002.110 6  90092735.09449  22001576.16449
 22  7  3 17 41  0.0000000  0  8G05G07G13G14G15G17G19G30            
  23902971.133 5 125610940.121 5  97878684.78347  23902981.14147
  24016040.469 4 126205134.038 4  98341694.82148  24016049.98848
  21019717.047 6 110459362.880 6  86072267.29848  21019725.15248
  21169237.297 6 111245090.222 6  86684524.45148  21169246.15648
  23897898.969 5 125584405.379 5  97857946.14347  23897909.13347
  21007250.617 6 110393853.112 6  86021189.84548  21007259.68048
  21905980.945 6 115116907.843 6  89701380.73647  21905988.00447
  22003853.047 6 115631025.828 6  90102104.21849  22003864.09049
 22  7  3 17 41  5.0000000  0  8G05G07G13G14G15G17G19G30            
  23905718.438 5 125625377.983 5  97889935.06346  23905728.52746
  24019353.633 4 126222546.663 4  98355263.10048  24019363.35248
  21019075.891 6 110455991.986 6  86069640.63048  21019083.96948
  21172025.695 6 111259739.788 6  86695939.69348  21172034.59848
  23896197.688 5 125575466.111 5  97850980.50147  23896207.81647
  21006460.359 6 110389700.646 6  86017954.15948  21006469.07048
  21904411.852 6 115108665.680 6  89694958.29947  21904419.42647
  22006142.063 6 115643054.792 6  90111477.43149  22006153.38349
 22  7  3 17 41 10.0000000  0  8G05G07G13G14G15G17G19G30            
  23908466.539 5 125639822.937 5  97901190.84047  23908477.94947
  24022667.555 4 126239962.239 4  98368833.69148  24022677.41848
  21018437.508 6 110452633.217 6  86067023.40348  21018445.37948
  21174814.063 6 111274395.717 6  86707359.89748  21174823.16448
  23894498.180 5 125566533.675 5  97844020.16846  23894508.16446
  21005673.094 6 110385562.365 6  86014729.53148  21005681.97748
  21902845.461 6 115100432.984 6  89688543.22747  21902853.11747
  22008431.813 6 115655088.868 6  90120854.63149  22008443.20349
 22  7  3 17 41 15.0000000  0  8G05G07G13G14G15G17G19G30            
  23911217.313 5 125654274.586 5  97912451.85847  23911227.62947
  24025982.188 4 126257380.480 4  98382406.32748  24025992.10948
  21017800.383 6 110449286.150 6  86064415.30348  21017808.27348
  21177604.227 6 111289057.622 6  86718784.75048  21177613.55148
  23892800.195 5 125557607.754 5  97837064.91646  23892809.65646
  21004888.266 6 110381437.906 6  86011515.66248  21004897.18848
  21901280.117 6 115092209.350 6  89682135.21947  21901288.36347
  22010722.984 6 115667127.643 6  90130235.48849  22010734.33649
 22  7  3 17 41 20.0000000  0  8G05G07G13G14G15G17G19G30            
  23614176.391 5 124093315.686 5  96696120.22847  23614186.80147
  23729504.922 5 124699384.730 5  97168383.66148  23729515.32448
  20717372.516 6 108870530.139 6  84834215.81148  20717380.78948
  20880603.695 6 109728308.421 6  85502616.53848  20880612.29348
  23591309.313 5 123973266.538 5  96602513.31847  23591319.36747
  20704313.531 6 108801906.446 6  84780711.93448  20704321.93048
  21599924.758 6 113508573.159 6  88448133.00147  21599932.41047
  21713222.609 6 114103753.573 6  88912021.92849  21713234.04749
 22  7  3 17 41 25.0000000  0  8G05G07G13G14G15G17G19G30            
  23616929.289 5 124107780.797 5  96707391.73447  23616939.63747
  23732820.914 5 124716808.378 5  97181960.51948  23732831.30148
  20716740.711 6 108867206.827 6  84831626.22048  20716748.33648
  20883395.594 6 109742982.531 6  85514050.91448  20883404.71148
  23589613.570 5 123964353.889 5  96595568.40947  23589623.69947
  20703533.883 6 108797809.907 6  84777519.82948  20703542.44148
  21598363.023 6 113500367.997 6  88441739.38448  21598371.27748
  21715515.289 6 114115802.068 6  88921410.35849  21715526.68849
 22  7  3 17 41 30.0000000  0  8G05G07G13G14G15G17G19G30            
  23619682.766 5 124122252.903 5  96718668.69546  23619693.74646
  23736136.680 5 124734234.912 5  97195539.63848  23736147.23448
  20716109.953 6 108863895.564 6  84829046.00948  20716118.14148
  20886189.734 6 109757662.892 6  85525490.15448  20886198.11748
  23587919.031 5 123955447.978 5  96588628.74847  23587928.66047
  20702757.102 6 108793727.523 6  84774338.75148  20702765.49648
  21596804.047 6 113492172.247 6  88435353.10048  21596811.92248
  21717808.969 6 114127855.597 6  88930802.72049  21717820.19149
 22  7  3 17 41 35.0000000  0  8G05G07G13G14G15G17G19G30            
  23622438.180 5 124136732.145 5  96729951.21447  23622448.92247
  23739453.516 5 124751664.586 5  97209121.20848  23739463.60948
  20715482.320 6 108860596.632 6  84826475.40948  20715490.32448
  20888984.281 6 109772349.779 6  85536934.48448  20888993.34848
  23586225.156 5 123946549.245 5  96581694.68447  23586235.44547
  20701983.289 6 108789659.572 6  84771168.92448  20701992.11348
  21595245.758 6 113483986.212 6  88428974.38548  21595254.37548
  21720103.703 6 114139914.446 6  88940199.22049  21720114.72749
 22  7  3 17 41 40.0000000  0  8G05G07G13G14G15G17G19G30            
  23625195.164 5 124151218.355 5  96741239.15347  23625205.91047
  23742770.617 5 124769097.200 5  97222705.04748  23742780.56348
  20714856.547 6 108857309.821 6  84823914.26548  20714864.80948
  20891780.039 6 109787042.955 6  85548383.71648  20891789.39148
  23584533.539 5 123937657.441 5  96574766.01747  23584543.37947
  20701211.500 6 108785605.896 6  84768010.22048  20701220.28548
  21593690.070 6 113475809.661 6  88422603.06748  21593698.43848
  21722399.711 6 114151978.368 6  88949599.67349  21722410.56649
 22  7  3 17 41 45.0000000  0  8G05G07G13G14G15G17G19G30            
  23627953.383 4 124165711.164 4  96752532.24447  23627963.40647
  23746088.547 5 124786532.406 5  97236290.92348  23746098.71148
  20714233.867 6 108854034.753 6  84821362.26248  20714241.75848
  20894577.250 6 109801742.047 6  85559837.54548  20894586.13348
  23582842.844 5 123928772.146 5  96567842.41246  23582852.39146
  20700443.125 6 108781566.063 6  84764862.30548  20700451.65648
  21592135.102 6 113467642.204 6  88416238.83147  21592144.71947
  21724696.242 6 114164047.022 6  88959003.82349  21724707.34449
 22  7  3 17 41 50.0000000  0  8G05G07G13G14G15G17G19G30            
  23630712.227 4 124180211.069 4  96763830.86347  23630722.90247
  23749406.734 5 124803970.742 5  97249879.22948  23749417.03148
  20713612.875 6 108850772.104 6  84818819.94448  20713620.75848
  20897375.820 6 109816447.621 6  85571296.42648  20897384.83648
  23581153.680 5 123919894.008 5  96560924.39947  23581163.41447
  20699676.828 6 108777540.706 6  84761725.66348  20699685.73448
  21590583.547 6 113459484.457 6  88409882.16947  21590591.70347
  21726993.773 6 114176120.988 6  88968412.10649  21727004.84849
 22  7  3 17 41 55.0000000  0  8G05G07G13G14G15G17G19G30            
  23633473.602 4 124194717.702 4  96775134.72846  23633483.57446
  23752725.844 5 124821411.805 5  97263469.65748  23752735.85548
  20712994.266 6 108847521.355 6  84816286.88948  20713001.95348
  20900175.469 6 109831159.274 6  85582760.06048  20900184.29748
  23579464.844 5 123911022.648 5  96554011.66247  23579475.06347
  20698913.242 6 108773529.431 6  84758600.00348  20698922.39148
  21589032.852 6 113451336.063 6  88403532.78847  21589041.13347
  21729292.445 6 114188199.853 6  88977824.20249  21729303.16449
 22  7  3 17 42  0.0000000  0  8G05G07G13G14G15G17G19G30            
  23636234.805 4 124209230.609 4  96786443.47747  23636245.34447
  23756044.914 5 124838855.195 5  97277061.90048  23756054.73448
  20712377.773 6 108844282.161 6  84813762.84848  20712385.65648
  20902975.969 6 109845876.500 6  85594228.02248  20902984.47348
  23577778.156 5 123902157.601 5  96547103.84147  23577788.05147
  20698152.750 6 108769531.790 6  84755484.96748  20698161.54348
  21587483.336 6 113443196.552 6  88397190.32947  21587492.02047
  21731591.859 6 114200283.154 6  88987239.76649  21731602.68449
 22  7  3 17 42  5.0000000  0  8G05G07G13G14G15G17G19G30            
  23638997.633 4 124223751.089 4  96797758.11447  23639008.29747
  23759365.789 5 124856302.177 5  97290656.94148  23759375.30148
  20711763.844 6 108841055.835 6  84811248.82848  20711772.14148
  20905778.063 6 109860600.656 6  85605701.39548  20905786.83648
  23576092.922 5 123893300.104 5  96540201.91147  23576102.16447
  20697394.641 6 108765549.089 6  84752381.56948  20697403.79748
  21585936.422 6 113435067.298 6  88390855.86947  21585944.69547
  21733892.516 6 114212372.212 6  88996659.80549  21733903.02749
 22  7  3 17 42 10.0000000  0  8G05G07G13G14G15G17G19G30            
  23641763.094 4 124238278.367 4  96809078.06247  23641772.77047
  23762685.563 5 124873752.091 5  97304254.27048  23762695.49648
  20711152.398 6 108837841.705 6  84808744.30848  20711160.29748
  20908580.859 6 109875331.018 6  85617179.59448  20908590.13348
  23574408.680 5 123884449.632 5  96533305.43847  23574417.88747
  20696639.828 6 108761580.646 6  84749289.28048  20696648.60948
  21584391.430 5 113426947.602 5  88384528.83947  21584399.59047
  21736193.469 6 114224466.398 6  89006083.84049  21736204.55149
 22  7  3 17 42 15.0000000  0  8G05G07G13G14G15G17G19G30            
  23644528.180 4 124252812.896 4  96820403.65147  23644538.50047
  23766007.125 5 124891205.290 5  97317854.17248  23766016.51248
  20710542.703 6 108834640.166 6  84806249.60748  20710550.62548
  20911385.477 6 109890068.003 6  85628662.95748  20911394.28948
  23572725.547 5 123875606.496 5  96526414.69447  23572735.32047
  20695886.992 6 108757626.920 6  84746208.46548  20695896.12548
  21582848.430 6 113418837.803 6  88378209.52947  21582856.46147
  21738496.703 6 114236566.043 6  89015512.12549  21738507.05149
 22  7  3 17 42 20.0000000  0  8G05G07G13G14G15G17G19G30            
  23647294.742 4 124267354.051 4  96831734.40146  23647305.60946
  23769328.852 5 124908661.254 5  97331456.21648  23769338.34848
  20709936.180 6 108831450.653 6  84803764.28048  20709943.87948
  20914190.977 6 109904811.022 6  85640151.02848  20914199.84848
  23571044.422 5 123866770.137 5  96519529.22247  23571053.54747
  20695137.648 6 108753687.313 6  84743138.63948  20695146.40648
  21581306.977 5 113410737.465 5  88371897.58647  21581314.78947
  21740799.664 6 114248670.651 6  89024944.27949  21740811.25449
 22  7  3 17 42 25.0000000  0  8G05G07G13G14G15G17G19G30            
  23650063.789 4 124281902.358 4  96843070.74747  23650074.14547
  23772651.289 5 124926120.421 5  97345060.76048  23772661.33648
  20709330.969 6 108828273.656 6  84801288.69748  20709339.56648
  20916997.516 6 109919560.518 6  85651644.14548  20917006.30548
  23569364.086 5 123857941.111 5  96512649.47647  23569373.80947
  20694390.625 6 108749762.322 6  84740080.20548  20694399.25448
  21579767.719 5 113402647.019 5  88365593.35447  21579774.90247
  21743104.188 6 114260780.636 6  89034380.62449  21743115.01649
 22  7  3 17 42 30.0000000  0  8G05G07G13G14G15G17G19G30            
  23652833.352 4 124296457.160 4  96854412.13347  23652844.09447
  23775974.141 5 124943582.204 5  97358667.34248  23775983.71548
  20708729.031 6 108825108.566 6  84798822.39848  20708737.16448
  20919805.844 6 109934315.913 6  85663141.85748  20919814.62148
  23567685.391 5 123849118.771 5  96505774.93447  23567695.26647
  20693646.531 6 108745851.354 6  84737032.70948  20693654.93048
  21578229.586 6 113394565.882 6  88359296.37247  21578236.82447
  21745409.109 6 114272895.416 6  89043820.70949  21745420.62949
 22  7  3 17 42 35.0000000  0  8G05G07G13G14G15G17G19G30            
  23655604.828 4 124311018.849 4  96865758.90146  23655615.01646
  23779297.305 5 124961047.071 5  97372276.33048  23779307.58648
  20708129.273 6 108821955.874 6  84796365.76448  20708137.42648
  20922614.711 6 109949077.634 6  85674644.49548  20922623.36348
  23566007.758 5 123840303.552 5  96498905.93847  23566017.91847
  20692905.047 6 108741954.878 6  84733996.49348  20692913.51648
  21576694.125 5 113386494.513 5  88353007.00547  21576701.10947
  21747715.766 6 114285015.456 6  89053264.89149  21747727.22349
 22  7  3 17 42 40.0000000  0  8G05G07G13G14G15G17G19G30            
  23658377.023 4 124325587.299 4  96877110.90847  23658387.16047
  23782622.039 5 124978514.776 5  97385887.53148  23782631.90648
  20707531.844 6 108818815.341 6  84793918.59148  20707539.78948
  20925425.000 6 109963845.420 6  85686151.86448  20925433.78548
  23564331.555 5 123831495.314 5  96492042.39647  23564341.46947
  20692166.477 6 108738072.625 6  84730971.36448  20692175.07448
  21575159.578 5 113378432.678 5  88346725.05847  21575166.94947
  21750023.266 6 114297140.488 6  89062712.96849  21750034.96949
 22  7  3 17 42 45.0000000  0  8G05G07G13G14G15G17G19G30            
  23661149.594 4 124340162.730 4  96888468.37246  23661160.34046
  23785947.523 5 124995985.544 5  97399501.11248  23785956.35548
  20706936.297 6 108815687.190 6  84791481.07348  20706944.34448
  20928236.188 6 109978619.494 6  85697664.13648  20928245.50848
  23562657.039 5 123822694.147 5  96485184.34647  23562666.25447
  20691429.883 6 108734204.871 6  84727957.53748  20691439.03548
  21573627.133 6 113370380.626 6  88340450.74747  21573634.56647
  21752331.688 6 114309270.743 6  89072165.10749  21752342.87149
 22  7  3 17 42 50.0000000  0  8G05G07G13G14G15G17G19G30            
  23663925.117 4 124354745.065 4  96899831.23046  23663935.60546
  23789271.992 5 125013459.397 5  97413117.09348  23789281.77048
  20706343.445 6 108812571.415 6  84789053.20448  20706351.39548
  20931048.867 6 109993399.812 6  85709181.26548  20931058.10248
  23560982.664 5 123813900.140 5  96478331.88446  23560992.86346
  20690697.023 6 108730351.638 6  84724955.02748  20690705.37948
  21572097.461 6 113362338.353 6  88334184.03947  21572104.38747
  21754640.500 6 114321406.245 6  89081621.34449  21754652.44949
 22  7  3 17 42 55.0000000  0  8G05G07G13G14G15G17G19G30            
  23666701.195 4 124369333.990 4  96911199.19546  23666711.39546
  23792597.539 5 125030936.024 5  97426735.24148  23792607.39548
  20705753.172 6 108809467.771 6  84786634.78348  20705761.17248
  20933862.617 6 110008186.119 6  85720703.06448  20933871.72748
  23559311.359 5 123805113.033 5  96471484.79746  23559320.75446
  20689966.594 6 108726512.694 6  84721963.64248  20689975.31348
  21570568.602 6 113354305.612 6  88327924.77147  21570575.71147
  21756951.320 6 114333546.670 6  89091081.41849  21756962.64149
 22  7  3 17 43  0.0000000  0  8G05G07G13G14G15G17G19G30            
  23669479.320 4 124383929.631 4  96922572.42146  23669489.00846
  23795923.578 5 125048415.621 5  97440355.71548  23795934.34448
  20705164.922 6 108806376.448 6  84784225.95848  20705172.66848
  20936677.344 6 110022978.582 6  85732229.66448  20936686.53948
  23557640.750 5 123796333.070 5  96464643.26847  23557649.93047
  20689239.016 6 108722688.206 6  84718983.52848  20689247.57448
  21569041.813 6 113346282.664 6  88321673.14147  21569049.20347
  21759262.141 6 114345692.258 6  89100545.50849  21759274.14149
 22  7  3 17 43  5.0000000  0  8G05G07G13G14G15G17G19G30            
  23672258.008 3 124398531.844 3  96933950.74746  23672267.80146
  23799250.242 5 125065898.113 5  97453978.43548  23799260.74648
  20704578.430 6 108803297.390 6  84781826.69248  20704586.94948
  20939493.445 6 110037777.124 6  85743761.00148  20939503.04348
  23555971.063 5 123787560.122 5  96457807.21547  23555980.48447
  20688513.648 6 108718878.089 6  84716014.61448  20688522.27748
  21567516.281 6 113338269.382 6  88315429.03847  21567525.02047
  21761574.313 6 114357842.877 6  89110013.51949  21761585.87149
 22  7  3 17 43 10.0000000  0  8G05G07G13G14G15G17G19G30            
  23675036.805 3 124413140.770 3  96945334.30746  23675047.99246
  23802577.477 5 125083383.588 5  97467603.49048  23802588.03548
  20703995.445 6 108800230.699 6  84779437.07548  20704003.39548
  20942310.961 6 110052581.819 6  85755297.13648  20942320.17648
  23554303.359 5 123778794.354 5  96450976.75147  23554312.60947
  20687791.320 6 108715082.456 6  84713056.98648  20687800.12148
  21565993.906 5 113330265.904 5  88309192.57547  21566001.81347
  21763888.156 6 114369998.716 6  89119485.60049  21763899.18449
 22  7  3 17 43 15.0000000  0  8G05G07G13G14G15G17G19G30            
  23677818.836 3 124427756.318 3  96956723.02146  23677828.80546
  23805906.047 5 125100871.913 5  97481230.77348  23805915.77048
  20703414.133 6 108797176.265 6  84777056.99448  20703422.30148
  20945129.305 6 110067392.536 6  85766837.95148  20945138.55548
  23552636.258 5 123770035.636 5  96444151.77746  23552645.51246
  20687071.984 6 108711301.144 6  84710110.52148  20687080.26248
  21564471.930 5 113322272.060 5  88302963.62647  21564480.55147
  21766202.016 6 114382159.563 6  89128961.58849  21766213.03149
 22  7  3 17 43 20.0000000  0  8G05G07G13G14G15G17G19G30            
  23680601.609 4 124442378.972 4  96968117.29946  23680611.51246
  23809233.836 5 125118363.710 5  97494860.74948  23809244.18448
  20702835.141 6 108794134.653 6  84774686.91248  20702843.54348
  20947948.953 6 110082209.830 6  85778383.90648  20947957.66848
  23550970.961 5 123761284.489 5  96437332.71247  23550979.76247
  20686354.805 6 108707534.754 6  84707175.67748  20686363.55148
  21562952.672 5 113314288.448 5  88296742.65247  21562961.64847
  21768517.102 6 114394326.027 6  89138441.94949  21768527.95349
 22  7  3 17 43 25.0000000  0  8G05G07G13G14G15G17G19G30            
  23683384.984 3 124457008.085 3  96979516.59846  23683396.08246
  23812563.445 5 125135858.298 5  97508492.90548  23812573.56348
  20702258.563 6 108791105.238 6  84772326.33048  20702266.78148
  20950769.164 6 110097033.042 6  85789934.46648  20950778.25848
  23549306.531 6 123752540.363 6  96430519.11246  23549315.93446
  20685640.930 6 108703782.678 6  84704251.98748  20685649.26648
  21561435.992 6 113306314.463 6  88290529.18347  21561444.05947
  21770833.703 6 114406497.472 6  89147926.18149  21770844.19949
 22  7  3 17 43 30.0000000  0  8G05G07G13G14G15G17G19G30            
  23686170.484 3 124471643.725 3  96990920.97146  23686181.02746
  23815893.047 5 125153355.553 5  97522127.12948  23815902.84048
  20701684.867 6 108788087.855 6  84769975.12848  20701692.80948
  20953591.438 6 110111862.063 6  85801489.54848  20953600.36348
  23547645.023 5 123743803.048 5  96423710.81047  23547653.28147
  20684929.344 6 108700044.794 6  84701339.35448  20684938.51648
  21559919.930 6 113298350.046 6  88284323.15047  21559928.25847
  21773150.117 6 114418673.779 6  89157414.20949  21773161.40649
 22  7  3 17 43 35.0000000  0  8G05G07G13G14G15G17G19G30            
  23688955.914 4 124486286.092 4  97002330.61146  23688967.60246
  23819223.750 5 125170855.877 5  97535763.75148  23819233.08248
  20701112.469 6 108785082.961 6  84767633.64848  20701121.11348
  20956414.742 6 110126697.262 6  85813049.45148  20956423.38748
  23545982.922 5 123735073.046 5  96416908.21446  23545992.12146
  20684221.406 6 108696321.492 6  84698438.09148  20684229.92248
  21558406.281 6 113290395.504 6  88278124.83247  21558415.35947
  21775468.203 6 114430855.314 6  89166906.32549  21775479.53549
 22  7  3 17 43 40.0000000  0  8G05G07G13G14G15G17G19G30            
  23691743.445 3 124500934.949 3  97013745.28446  23691754.66846
  23822555.102 5 125188359.036 5  97549402.57148  23822563.42648
  20700542.930 6 108782090.366 6  84765301.76648  20700551.55148
  20959238.461 6 110141538.467 6  85824614.02548  20959247.41848
  23544323.086 5 123726350.095 5  96410111.12047  23544331.98447
  20683515.336 6 108692612.636 6  84695548.07748  20683523.86748
  21556894.492 6 113282450.702 6  88271934.09447  21556902.59847
  21777787.953 6 114443041.905 6  89176402.36349  21777798.59849
 22  7  3 17 43 45.0000000  0  8G05G07G13G14G15G17G19G30            
  23694533.734 4 124515590.955 4  97025165.53446  23694543.72346
  23825885.016 5 125205865.705 5  97563044.13448  23825894.82848
  20699976.102 6 108779110.714 6  84762979.95648  20699984.05548
  20962064.000 6 110156386.227 6  85836183.71148  20962073.01248
  23542664.539 5 123717634.863 5  96403320.02847  23542673.88747
  20682812.313 6 108688918.793 6  84692669.76248  20682821.35948
  21555384.523 6 113274516.225 6  88265751.40647  21555393.18447
  21780107.398 6 114455234.162 6  89185902.81949  21780118.64549
 22  7  3 17 43 50.0000000  0  8G05G07G13G14G15G17G19G30            
  23697323.242 4 124530253.338 4  97036590.74246  23697333.44546
  23829217.031 5 125223375.189 5  97576687.89448  23829226.48448
  20699411.391 6 108776143.354 6  84760667.72848  20699419.66848
  20964890.289 6 110171239.940 6  85847758.03848  20964899.55148
  23541007.523 5 123708926.739 5  96396534.49047  23541016.50847
  20682112.398 6 108685239.353 6  84689802.67448  20682121.04348
  21553877.117 6 113266591.548 6  88259576.34547  21553884.44947
  21782428.133 6 114467431.481 6  89195407.22449  21782439.38349
 22  7  3 17 43 55.0000000  0  8G05G07G13G14G15G17G19G30            
  23700114.383 4 124544922.435 4  97048021.20346  23700124.94546
  23832549.297 5 125240887.658 5  97590333.98548  23832559.43848
  20698849.352 6 108773188.452 6  84758365.20848  20698857.64548
  20967718.359 6 110186099.747 6  85859337.11848  20967726.99648
  23539351.422 5 123700225.876 5  96389754.59347  23539361.13347
  20681414.734 6 108681574.515 6  84686946.96448  20681423.90248
  21552370.406 6 113258676.752 6  88253408.98847  21552378.30947
  21784750.242 6 114479633.993 6  89204915.67549  21784761.73849
 22  7  3 17 44  0.0000000  0  8G05G07G13G14G15G17G19G30            
  23702907.727 3 124559598.267 3  97059456.89146  23702917.78946
  23835882.719 5 125258403.293 5  97603982.52848  23835892.65248
  20698288.781 6 108770246.224 6  84756072.56748  20698297.94148
  20970547.328 6 110200965.799 6  85870921.04948  20970556.16048
  23537697.797 5 123691532.434 5  96382980.50047  23537706.83647
  20680720.203 6 108677924.429 6  84684102.74948  20680728.72748
  21550866.516 6 113250772.064 6  88247249.49947  21550874.10947
  21787073.367 6 114491841.869 6  89214428.30749  21787084.55149
 22  7  3 17 44  5.0000000  0  8G05G07G13G14G15G17G19G30            
  23705701.195 3 124574280.763 3  97070897.79046  23705711.84846
  23839216.508 5 125275921.990 5  97617633.46048  23839226.09048
  20697731.789 6 108767316.535 6  84753789.69448  20697740.07848
  20973377.469 6 110215837.967 6  85882509.75648  20973386.41448
  23536044.273 5 123682846.319 5  96376212.10346  23536053.74646
  20680028.359 6 108674288.999 6  84681269.94948  20680037.25448
  21549364.078 6 113242877.309 6  88241097.74947  21549371.67647
  21789397.477 6 114504055.019 6  89223945.04149  21789408.79349
 22  7  3 17 44 10.0000000  0  8G05G07G13G14G15G17G19G30            
  23708496.641 4 124588969.637 4  97082343.64746  23708506.99246
  23842550.695 5 125293443.471 5  97631286.57048  23842560.23848
  20697176.484 6 108764399.117 6  84751516.38848  20697185.19948
  20976208.883 6 110230715.970 6  85894103.00848  20976217.62148
  23534393.242 5 123674167.244 5  96369449.18546  23534402.36346
  20679339.016 6 108670667.963 6  84678448.37748  20679348.18048
  21547863.938 6 113234992.293 6  88234953.59447  21547870.63747
  21791722.469 6 114516273.132 6  89233465.65049  21791733.97349
 22  7  3 17 44 15.0000000  0  8G05G07G13G14G15G17G19G30            
  23711292.219 3 124603664.571 3  97093794.24346  23711303.04346
  23845885.023 5 125310967.525 5  97644941.68248  23845895.15248
  20696623.727 6 108761493.762 6  84749252.47748  20696632.16848
  20979041.148 6 110245599.545 6  85905700.60348  20979049.73848
  23532742.914 5 123665494.977 5  96362691.56846  23532751.73046
  20678653.492 6 108667061.091 6  84675637.83248  20678662.01648
  21546364.781 6 113227116.754 6  88228816.81447  21546372.40647
  21794048.586 6 114528496.019 6  89242989.97749  21794059.67249
 22  7  3 17 44 20.0000000  0  8G05G07G13G14G15G17G19G30            
  23714091.086 4 124618366.126 4  97105249.97346  23714100.45746
  23849221.070 5 125328494.597 5  97658599.12448  23849230.40648
  20696073.328 6 108758600.960 6  84746998.34948  20696081.72348
  20981874.461 6 110260489.215 6  85917302.94448  20981883.01648
  23531094.070 5 123656830.044 5  96355939.68646  23531102.93046
  20677969.492 6 108663468.859 6  84672838.70048  20677978.27348
  21544868.078 6 113219251.193 6  88222687.81547  21544875.84447
  21796375.516 6 114540724.117 6  89252518.36049  21796386.78949
 22  7  3 17 44 25.0000000  0  8G05G07G13G14G15G17G19G30            
  23716888.766 4 124633074.021 4  97116710.65346  23716899.19546
  23852556.547 5 125346024.422 5  97672258.72148  23852566.07048
  20695525.367 7 108755720.407 7  84744753.77148  20695533.79348
  20984708.891 6 110275384.651 6  85928909.79248  20984717.67248
  23529446.734 5 123648172.155 5  96349193.28547  23529455.58647
  20677288.234 6 108659891.021 6  84670050.77548  20677297.20348
  21543372.969 6 113211395.411 6  88216566.43547  21543380.33647
  21798703.555 6 114552957.188 6  89262050.62249  21798714.71549
 22  7  3 17 44 30.0000000  0  8G05G07G13G14G15G17G19G30            
  23719689.438 3 124647788.511 3  97128176.48946  23719699.34446
  23855892.945 5 125363557.256 5  97685920.65948  23855902.44948
  20694979.734 6 108752852.409 6  84742518.97848  20694987.79348
  20987544.406 6 110290286.100 6  85940521.31348  20987553.23448
  23527800.266 5 123639521.617 5  96342452.60447  23527809.26647
  20676610.523 6 108656327.848 6  84667274.28748  20676619.09848
  21541879.883 6 113203549.536 6  88210452.78447  21541887.45747
  21801032.039 6 114565195.439 6  89271586.92149  21801043.41049
 22  7  3 17 44 35.0000000  0  8G05G07G13G14G15G17G19G30            
  23722490.336 3 124662509.284 3  97139647.21746  23722500.68846
  23859229.758 5 125381092.982 5  97699584.85448  23859239.52048
  20694436.031 6 108749996.891 6  84740293.89848  20694444.49648
  20990381.352 6 110305193.473 6  85952137.45348  20990389.98048
  23526155.656 5 123630878.310 5  96335717.59046  23526164.39846
  20675935.492 6 108652779.254 6  84664509.15348  20675944.19148
  21540388.781 6 113195713.573 6  88204346.84947  21540396.35247
  21803362.172 6 114577438.848 6  89281127.23949  21803373.30549
 22  7  3 17 44 40.0000000  0  8G05G07G13G14G15G17G19G30            
  23725291.945 4 124677236.543 4  97151122.98846  23725303.27346
  23862567.422 5 125398631.524 5  97713251.24448  23862577.24648
  20693895.023 6 108747153.740 6  84738078.45348  20693903.45348
  20993219.188 6 110320106.671 6  85963758.13048  20993228.23848
  23524513.039 5 123622242.236 5  96328988.17046  23524521.14146
  20675262.805 6 108649245.137 6  84661755.30748  20675272.09448
  21538899.750 6 113187887.476 6  88198248.60447  21538907.52047
  21805692.531 6 114589687.289 6  89290671.47449  21805704.05549
 22  7  3 17 44 45.0000000  0  8G05G07G13G14G15G17G19G30            
  23728096.422 3 124691970.438 3  97162603.93846  23728107.52046
  23865905.773 5 125416173.239 5  97726920.11648  23865915.14548
  20693356.313 6 108744323.293 6  84735872.91848  20693364.75048
  20996058.539 6 110335026.023 6  85975383.61248  20996066.86348
  23522870.344 5 123613613.637 5  96322264.60046  23522879.03546
  20674593.156 6 108645725.854 6  84659013.00948  20674601.94548
  21537412.148 6 113180071.571 6  88192158.30247  21537419.91447
  21808024.406 6 114601941.121 6  89300219.91149  21808036.03149
 22  7  3 17 44 50.0000000  0  8G05G07G13G14G15G17G19G30            
  23730901.820 4 124706710.992 4  97174090.05546  23730913.07846
  23869243.828 5 125433718.193 5  97740591.51148  23869253.68848
  20692820.258 6 108741505.705 6  84733677.39648  20692828.34448
  20998898.109 6 110349951.620 6  85987013.94548  20998906.89548
  23521229.398 5 123604992.633 5  96315546.94447  23521238.66847
  20673925.805 6 108642221.501 6  84656282.35648  20673935.23448
  21535927.445 6 113172265.948 6  88186076.02247  21535935.21147
  21810357.875 6 114614200.390 6  89309772.58149  21810368.71949
 22  7  3 17 44 55.0000000  0  8G05G07G13G14G15G17G19G30            
  23733708.297 3 124721457.708 3  97185580.99246  23733718.69546
  23872583.750 5 125451265.783 5  97754264.94948  23872593.05548
  20692286.164 6 108738700.307 6  84731491.37348  20692294.59048
  21001739.844 6 110364882.789 6  85998648.62948  21001748.57848
  23519590.266 5 123596378.639 5  96308834.76146  23519599.68846
  20673261.852 6 108638731.491 6  84653562.87248  20673270.91848
  21534443.633 6 113164470.009 6  88180001.27547  21534451.41047
  21812691.039 6 114626464.511 6  89319329.03549  21812702.55149
 22  7  3 17 45  0.0000000  0  8G05G07G13G14G15G17G19G30            
  23736515.289 3 124736210.947 3  97197077.01446  23736525.86746
  23875923.195 5 125468816.407 5  97767940.75848  23875932.75848
  20691755.023 6 108735907.597 6  84729315.23648  20691763.27748
  21004582.477 6 110379819.979 6  86010288.00048  21004591.02048
  23517952.203 5 123587772.130 5  96302128.38646  23517961.90246
  20672600.609 6 108635256.271 6  84650854.91448  20672609.53948
  21532962.172 6 113156684.246 6  88173934.46048  21532969.98048
  21815026.305 6 114638733.957 6  89328889.64149  21815037.22349
 22  7  3 17 45  5.0000000  0  8G05G07G13G14G15G17G19G30            
  23739324.281 3 124750970.461 3  97208577.91346  23739334.45346
  23879263.906 5 125486369.977 5  97781618.86147  23879272.62147
  20691225.898 6 108733127.358 6  84727148.82448  20691233.94548
  21007426.242 6 110394763.032 6  86021931.93848  21007434.82048
  23516316.000 5 123579172.878 5  96295427.68146  23516325.34846
  20671942.398 6 108631795.735 6  84648158.39948  20671950.75048
  21531482.047 6 113148908.483 6  88167875.44048  21531490.39848
  21817362.328 6 114651008.470 6  89338454.19249  21817373.44149
 22  7  3 17 45 10.0000000  0  8G05G07G13G14G15G17G19G30            
  23742134.492 3 124765736.652 3  97220084.02346  23742144.64146
  23882604.938 5 125503926.620 5  97795299.35048  23882613.95748
  20690699.297 7 108730359.832 7  84724992.31348  20690707.35948
  21010270.992 6 110409712.090 6  86033580.56248  21010279.09448
  23514680.750 5 123570581.125 5  96288732.81346  23514690.33246
  20671286.352 6 108628350.049 6  84645473.45748  20671295.52748
  21530004.828 6 113141142.848 6  88161824.31348  21530012.76648
  21819699.141 6 114663288.302 6  89348022.88749  21819709.93449
 22  7  3 17 45 15.0000000  0  8G05G07G13G14G15G17G19G30            
  23744945.500 3 124780509.245 3  97231595.15146  23744956.12946
  23885946.094 5 125521486.280 5  97808982.19548  23885955.39848
  20690174.898 6 108727604.918 6  84722845.63748  20690183.25048
  21013115.820 6 110424667.071 6  86045233.79048  21013125.15648
  23513047.836 5 123561996.837 5  96282043.77946  23513056.84846
  20670633.727 6 108624919.138 6  84642800.02448  20670642.36348
  21528529.078 6 113133387.346 6  88155781.07647  21528537.01247
  21822036.227 6 114675573.375 6  89357595.67449  21822047.79749
 22  7  3 17 45 20.0000000  0  8G05G07G13G14G15G17G19G30            
  23747757.844 4 124795287.983 4  97243111.04446  23747768.23046
  23889289.047 5 125539048.783 5  97822667.26147  23889297.16047
  20689652.867 6 108724862.560 6  84720708.73548  20689661.46548
  21015962.898 6 110439627.872 6  86056891.57148  21015971.78548
  23511415.414 5 123553419.818 5  96275360.39046  23511425.12546
  20669983.594 6 108621502.814 6  84640137.96248  20669992.52748
  21527054.906 6 113125641.930 6  88149745.69847  21527062.78147
  21824374.875 6 114687863.540 6  89367172.43149  21824386.37149
 22  7  3 17 45 25.0000000  0  8G05G07G13G14G15G17G19G30            
  23750570.641 4 124810073.138 4  97254631.91046  23750581.70746
  23892630.945 5 125556614.322 5  97836354.69248  23892639.25048
  20689133.688 6 108722132.940 6  84718581.75948  20689141.78948
  21018811.195 6 110454594.588 6  86068553.94148  21018819.90248
  23509784.852 5 123544850.304 5  96268682.84546  23509793.92646
  20669336.016 6 108618101.258 6  84637487.41048  20669344.98448
  21525583.281 6 113117906.596 6  88143718.17547  21525590.72747
  21826715.109 6 114700158.968 6  89376753.28549  21826726.03149
 22  7  3 17 45 30.0000000  0  8G05G07G13G14G15G17G19G30            
  23753386.133 4 124824864.781 4  97266157.86146  23753397.18446
  23895973.648 5 125574183.072 5  97850044.63848  23895982.71548
  20688616.195 6 108719416.018 6  84716464.68448  20688624.86748
  21021660.742 6 110469567.339 6  86080221.02848  21021669.48848
  23508156.219 5 123536288.361 5  96262011.20046  23508164.60946
  20668691.234 6 108614714.588 6  84634848.46048  20668700.58648
  21524113.023 6 113110181.596 6  88137698.70547  21524120.33247
  21829055.703 6 114712459.730 6  89386338.29249  21829066.93849
 22  7  3 17 45 35.0000000  0  8G05G07G13G14G15G17G19G30            
  23756201.164 4 124839662.601 4  97277688.61446  23756212.80546
  23899317.617 5 125591754.572 5  97863736.71948  23899326.89848
  20688102.008 6 108716711.537 6  84714357.30248  20688110.49648
  21024510.547 6 110484545.745 6  86091892.51148  21024519.75848
  23506527.508 5 123527733.644 5  96255345.19246  23506537.20746
  20668050.297 6 108611342.453 6  84632220.82648  20668058.50848
  21522644.164 6 113102466.542 6  88131686.98347  21522652.21547
  21831397.891 6 114724765.534 6  89395927.22949  21831409.09049
 22  7  3 17 45 40.0000000  0  8G05G07G13G14G15G17G19G30            
  23759018.594 4 124854466.608 4  97289224.17746  23759029.89546
  23902662.227 5 125609329.026 5  97877431.09948  23902671.10548
  20687589.875 6 108714019.708 6  84712259.76348  20687598.29348
  21027362.508 6 110499529.999 6  86103568.56048  21027371.38748
  23504901.438 5 123519186.356 5  96248684.98146  23504910.77046
  20667411.156 6 108607985.063 6  84629604.69648  20667419.52748
  21521178.750 6 113094761.643 6  88125683.17447  21521185.85947
  21833740.594 6 114737076.473 6  89405520.16849  21833751.52749
 22  7  3 17 45 45.0000000  0  8G05G07G13G14G15G17G19G30            
  23761837.430 4 124869277.157 4  97300764.88446  23761848.21546
  23906006.883 5 125626906.582 5  97891127.90648  23906015.63748
  20687079.633 6 108711340.694 6  84710172.22948  20687088.17248
  21030214.813 6 110514520.244 6  86115249.26748  21030223.67248
  23503276.320 5 123510646.728 5  96242030.71646  23503285.89846
  20666774.570 6 108604642.605 6  84627000.18348  20666783.88348
  21519714.422 6 113087067.058 6  88119687.41247  21519721.54347
  21836084.469 6 114749392.821 6  89415117.32549  21836095.01649
 22  7  3 17 45 50.0000000  0  8G05G07G13G14G15G17G19G30            
  23764657.281 4 124884094.073 4  97312310.49646  23764667.68846
  23909352.594 5 125644487.294 5  97904827.15748  23909361.43448
  20686572.578 6 108708674.465 6  84708094.64948  20686580.89148
  21033068.813 6 110529516.435 6  86126934.61448  21033077.45348
  23501652.313 5 123502114.672 5  96235382.37446  23501661.73046
  20666141.844 6 108601315.041 6  84624407.28448  20666150.30148
  21518251.781 6 113079382.798 6  88113699.68247  21518259.10247
  21838428.820 6 114761714.496 6  89424718.62549  21838439.91049
 22  7  3 17 45 55.0000000  0  8G05G07G13G14G15G17G19G30            
  23767478.422 4 124898917.758 4  97323861.44046  23767488.63746
  23912699.250 5 125662071.523 5  97918529.14748  23912708.12148
  20686067.648 6 108706021.461 6  84706027.37448  20686075.99248
  21035923.695 6 110544518.996 6  86138624.91848  21035932.27748
  23500030.406 4 123493590.607 4  96228740.26446  23500039.59046
  20665511.945 6 108598002.810 6  84621826.32848  20665519.91048
  21516791.461 6 113071709.227 6  88107720.28647  21516799.46947
  21840774.281 6 114774041.878 6  89434324.37149  21840785.16049
 22  7  3 17 46  0.0000000  0  8G05G07G13G14G15G17G19G30            
  23770300.352 4 124913747.675 4  97335417.19046  23770310.53546
  23916045.625 5 125679658.718 5  97932233.44748  23916054.91848
  20685565.398 6 108703381.107 6  84703969.96348  20685573.45348
  21038778.969 6 110559527.359 6  86150319.74948  21038788.19948
  23498409.742 4 123485074.001 4  96222103.94246  23498419.12146
  20664883.844 6 108594705.397 6  84619256.92148  20664892.77048
  21515333.398 6 113064045.859 6  88101748.83747  21515340.53947
  21843121.156 6 114786374.490 6  89443934.20149  21843132.20349
 22  7  3 17 46  5.0000000  0  8G05G07G13G14G15G17G19G30            
  23773123.281 4 124928583.683 4  97346977.69746  23773133.88346
  23919392.102 5 125697248.649 5  97945939.88948  23919401.99648
  20685064.938 6 108700753.302 6  84701922.32748  20685073.98448
  21041636.523 6 110574541.336 6  86162018.94848  21041645.70748
  23496790.586 4 123476564.727 4  96215473.35546  23496799.71946
  20664259.492 6 108591422.655 6  84616698.95148  20664268.18848
  21513876.773 6 113056392.482 6  88095785.17947  21513884.27047
  21845468.914 6 114798712.134 6  89453547.95149  21845480.20349
 22  7  3 17 46 10.0000000  0  8G05G07G13G14G15G17G19G30            
  23775947.422 4 124943426.313 4  97358543.36346  23775958.50446
  23922740.008 5 125714841.879 5  97959648.89448  23922750.06348
  20684567.633 6 108698138.496 6  84699884.81748  20684575.71548
  21044494.680 6 110589561.420 6  86173722.91548  21044504.09048
  23495173.391 4 123468063.282 4  96208848.84846  23495181.67646
  20663637.500 6 108588155.023 6  84614152.75248  20663646.19548
  21512422.563 6 113048749.691 6  88089829.76248  21512429.90648
  21847817.414 6 114811055.311 6  89463166.00749  21847829.17649
 22  7  3 17 46 15.0000000  0  8G05G07G13G14G15G17G19G30            
  23778773.266 4 124958274.969 4  97370113.73146  23778783.75446
  23926088.820 5 125732437.846 5  97973360.03248  23926098.55948
  20684072.445 7 108695536.253 7  84697857.10448  20684080.80148
  21047354.352 6 110604587.129 6  86185431.25648  21047362.89848
  23493556.742 4 123459569.067 4  96202229.99846  23493565.38746
  20663018.844 6 108584902.083 6  84611617.99848  20663027.59448
  21510970.156 6 113041116.959 6  88083882.18248  21510977.59048
  21850167.430 6 114823403.496 6  89472787.96949  21850178.77749
 22  7  3 17 46 20.0000000  0  8G05G07G13G14G15G17G19G30            
  23781600.055 4 124973130.423 4  97381689.40746  23781610.28546
  23929437.836 5 125750037.352 5  97987073.94348  23929447.08648
  20683579.250 6 108692947.271 6  84695839.71948  20683587.99648
  21050214.617 6 110619619.120 6  86197144.49948  21050223.73848
  23491942.000 4 123451082.941 4  96195617.41946  23491950.58646
  20662402.156 6 108581664.521 6  84609095.22448  20662410.81348
  21509519.953 6 113033495.007 6  88077943.01448  21509527.59848
  21852519.258 6 114835757.476 6  89482414.44049  21852530.04749
 22  7  3 17 46 25.0000000  0  8G05G07G13G14G15G17G19G30            
  23784427.547 4 124987992.001 4  97393269.81446  23784438.69946
  23932787.172 5 125767639.857 5  98000790.18748  23932796.41848
  20683089.313 6 108690371.067 6  84693832.29448  20683097.62148
  21053076.008 6 110634656.929 6  86208862.27148  21053085.27348
  23490327.648 4 123442604.382 4  96189010.75546  23490337.06646
  20661788.891 6 108578441.861 6  84606584.06548  20661797.62548
  21508072.102 6 113025883.314 6  88072011.83348  21508079.08248
  21854871.031 6 114848116.687 6  89492044.99249  21854881.68449
 22  7  3 17 46 30.0000000  0  8G05G07G13G14G15G17G19G30            
  23787257.703 4 125002859.666 4  97404855.01346  23787267.76246
  23936137.555 5 125785245.241 5  98014508.67648  23936146.55548
  20682601.742 6 108687807.560 6  84691834.76348  20682610.03948
  21055938.797 6 110649700.438 6  86220584.48448  21055948.14848
  23488715.836 4 123434133.413 4  96182410.00746  23488724.73046
  20661178.992 6 108575234.013 6  84604084.45648  20661187.52348
  21506625.008 6 113018281.860 6  88066088.63948  21506632.39148
  21857223.547 6 114860481.083 6  89501679.58749  21857234.53149
 22  7  3 17 46 35.0000000  0  8G05G07G13G14G15G17G19G30            
  23790088.250 4 125017733.775 4  97416445.20246  23790098.28146
  23939488.078 5 125802853.908 5  98028229.71348  23939497.43448
  20682116.133 6 108685257.113 6  84689847.40248  20682124.69548
  21058802.828 6 110664749.997 6  86232311.41548  21058811.91048
  23487105.211 4 123425670.239 4  96175815.33646  23487114.02046
  20660571.141 6 108572041.355 6  84601596.67748  20660579.78548
  21505180.383 6 113010690.970 6  88060173.67048  21505187.98048
  21859577.297 6 114872851.010 6  89511318.49049  21859588.80149
 22  7  3 17 46 40.0000000  0  8G05G07G13G14G15G17G19G30            
  23792919.086 5 125032614.662 5  97428040.66046  23792929.93846
  23942839.891 5 125820466.144 5  98041953.53248  23942849.02748
  20681633.281 6 108682719.973 6  84687870.42148  20681641.40648
  21061667.867 6 110679805.859 6  86244043.25448  21061677.14848
  23485495.727 4 123417215.268 4  96169227.06046  23485504.96946
  20659966.656 6 108568864.151 6  84599120.93848  20659975.30148
  21503737.906 6 113003110.960 6  88054267.18248  21503745.87948
  21861932.336 6 114885226.729 6  89520961.90649  21861943.44149
 22  7  3 17 46 45.0000000  0  8G05G07G13G14G15G17G19G30            
  23795752.320 4 125047501.587 4  97439640.87546  23795763.11346
  23946192.102 5 125838081.267 5  98055679.59648  23946201.13748
  20681153.375 6 108680195.581 6  84685903.35548  20681161.55148
  21064533.625 6 110694867.399 6  86255779.52048  21064542.99648
  23483888.172 4 123408767.918 4  96162644.68546  23483897.58246
  20659364.516 6 108565701.796 6  84596656.77148  20659373.52748
  21502297.500 6 112995541.171 6  88048368.65747  21502305.47347
  21864287.953 6 114897607.629 6  89530609.36249  21864299.38349
 22  7  3 17 46 50.0000000  0  8G05G07G13G14G15G17G19G30            
  23798586.852 4 125062394.289 4  97451245.56346  23798596.86346
  23949545.000 5 125855699.079 5  98069407.75248  23949554.38348
  20680675.148 6 108677683.660 6  84683946.02148  20680683.13748
  21067400.664 6 110709934.362 6  86267520.01048  21067409.93448
  23482282.594 4 123400327.718 4  96156067.93246  23482291.86346
  20658765.547 6 108562554.014 6  84594203.95848  20658774.62548
  21500858.563 6 112987981.424 6  88042477.95548  21500866.84848
  21866645.375 6 114909993.434 6  89540260.64249  21866655.88749
 22  7  3 17 46 55.0000000  0  8G05G07G13G14G15G17G19G30            
  23801421.680 4 125077293.575 4  97462855.35946  23801432.34846
  23952898.367 5 125873320.303 5  98083138.57148  23952907.64848
  20680199.641 6 108675185.010 6  84681999.02848  20680207.51648
  21070269.016 6 110725007.450 6  86279265.28248  21070278.38748
  23480677.500 4 123391895.590 4  96149497.47846  23480687.10546
  20658169.641 6 108559421.587 6  84591763.11848  20658178.53548
  21499422.570 6 112980432.450 6  88036595.64948  21499430.15248
  21869003.047 6 114922384.918 6  89549916.33649  21869014.52749
 22  7  3 17 47  0.0000000  0  8G05G07G13G14G15G17G19G30            
  23804258.727 4 125092198.974 4  97474469.93246  23804268.61346
  23956252.008 5 125890944.516 5  98096871.72748  23956261.96148
  20679726.570 6 108672699.160 6  84680062.01248  20679734.68448
  21073138.281 6 110740086.261 6  86291014.99648  21073147.69148
  23479074.844 4 123383471.120 4  96142932.94646  23479083.98446
  20657576.391 6 108556304.121 6  84589333.93248  20657585.13348
  21497987.484 6 112972893.827 6  88030721.40848  21497995.52348
  21871362.297 6 114934781.665 6  89559576.14449  21871372.80949
 22  7  3 17 47  5.0000000  0  8G05G07G13G14G15G17G19G30            
  23807096.000 4 125107110.731 4  97486089.46246  23807106.29746
  23959606.094 5 125908572.021 5  98110607.44948  23959616.06648
  20679255.883 6 108670226.407 6  84678135.19448  20679264.05148
  21076008.680 6 110755171.037 6  86302769.37248  21076018.02348
  23477473.156 3 123375054.564 3  96136374.60046  23477482.10246
  20656985.859 6 108553201.854 6  84586916.59148  20656995.10548
  21496555.227 6 112965365.873 6  88024855.47948  21496562.89148
  21873722.578 6 114947183.905 6  89569240.22549  21873733.32049
 22  7  3 17 47 10.0000000  0  8G05G07G13G14G15G17G19G30            
  23809934.891 4 125122028.702 4  97497713.84246  23809945.16846
  23962960.758 5 125926202.692 5  98124345.64248  23962971.09848
  20678788.203 6 108667766.701 6  84676218.54048  20678795.89848
  21078880.828 6 110770261.701 6  86314528.33248  21078889.69548
  23475874.148 3 123366645.857 3  96129822.36646  23475882.37546
  20656398.430 6 108550114.780 6  84584511.08248  20656407.28148
  21495124.648 6 112957848.505 6  88018997.79948  21495132.16448
  21876083.664 6 114959591.604 6  89578908.56249  21876094.48049
 22  7  3 17 47 15.0000000  0  8G05G07G13G14G15G17G19G30            
  23812775.094 4 125136952.817 4  97509342.99846  23812785.32046
  23966316.625 5 125943836.371 5  98138086.18148  23966327.27748
  20678322.164 6 108665319.847 6  84674311.91448  20678330.30148
  21081753.453 6 110785358.087 6  86326291.74848  21081762.14848
  23474274.508 4 123358244.806 4  96123276.12046  23474283.38746
  20655813.781 6 108547042.696 6  84582117.24848  20655822.56648
  21493695.641 6 112950341.592 6  88013148.26248  21493703.67648
  21878445.625 6 114972004.563 6  89588581.00549  21878456.35249
 22  7  3 17 47 20.0000000  0  8G05G07G13G14G15G17G19G30            
  23815616.477 4 125151883.447 4  97520977.25146  23815626.16846
  23969673.156 5 125961473.536 5  98151829.42448  23969683.12148
  20677859.109 6 108662886.359 6  84672415.69748  20677867.61748
  21084626.813 6 110800460.634 6  86338059.97548  21084636.44148
  23472677.383 4 123349851.890 4  96116736.18746  23472686.44946
  20655232.211 6 108543986.079 6  84579735.47648  20655240.94148
  21492270.727 6 112942845.585 6  88007307.22548  21492277.94148
  21880808.453 6 114984423.318 6  89598257.95849  21880819.59049
 22  7  3 17 47 25.0000000  0  8G05G07G13G14G15G17G19G30            
  23818458.469 4 125166820.238 4  97532616.27146  23818468.13346
  23973030.516 5 125979113.804 5  98165575.09348  23973039.78148
  20677398.758 6 108660465.843 6  84670529.59048  20677406.84448
  21087502.172 6 110815568.934 6  86349832.67448  21087511.18048
  23471081.859 4 123341466.817 4  96110202.36146  23471090.62146
  20654653.281 6 108540944.558 6  84577365.45448  20654662.35548
  21490845.164 6 112935360.097 6  88001474.38348  21490852.92248
  21883173.086 6 114996847.372 6  89607939.03849  21883184.13349
 22  7  3 17 47 30.0000000  0  8G05G07G13G14G15G17G19G30            
  23821302.117 4 125181763.263 4  97544260.18446  23821312.41446
  23976388.039 4 125996757.152 4  98179323.15348  23976397.73048
  20676940.445 6 108658058.402 6  84668653.66048  20676948.59848
  21090378.773 6 110830683.074 6  86361609.93348  21090387.21148
  23469487.500 4 123333089.592 4  96103674.64046  23469496.62546
  20654077.766 6 108537918.197 6  84575007.25648  20654086.53948
  21489422.898 6 112927885.220 6  87995649.81248  21489430.63748
  21885538.633 6 115009276.872 6  89617624.35149  21885549.52349
 22  7  3 17 47 35.0000000  0  8G05G07G13G14G15G17G19G30            
  23824147.742 4 125196712.481 4  97555908.91346  23824157.08246
  23979745.398 4 126014403.732 4  98193073.73247  23979755.55947
  20676484.617 6 108655664.061 6  84666787.95348  20676492.60548
  21093255.711 6 110845803.056 6  86373391.74348  21093264.82848
  23467894.703 4 123324720.202 4  96097153.05946  23467903.92646
  20653505.383 6 108534907.066 6  84572660.92748  20653513.62948
  21488002.406 6 112920421.014 6  87989833.55048  21488009.96948
  21887904.477 6 115021711.849 6  89627313.93949  21887915.73449
 22  7  3 17 47 40.0000000  0  8G05G07G13G14G15G17G19G30            
  23826992.758 4 125211667.848 4  97567562.42246  23827003.03146
  23983104.063 4 126032053.462 4  98206826.75848  23983114.14848
  20676031.820 6 108653282.801 6  84664932.42348  20676039.94948
  21096133.891 6 110860928.864 6  86385178.09148  21096142.80948
  23466304.641 4 123316358.772 4  96090637.66346  23466312.90246
  20652934.688 6 108531911.119 6  84570326.43048  20652943.20348
  21486583.891 6 112912967.423 6  87984025.55848  21486591.62948
  21890271.625 6 115034152.284 6  89637007.78849  21890283.40249
 22  7  3 17 47 45.0000000  0  8G05G07G13G14G15G17G19G30            
  23829840.008 4 125226629.371 4  97579220.72946  23829849.74646
  23986462.797 5 126049706.496 5  98220582.35148  23986473.89848
  20675581.422 6 108650914.662 6  84663087.13148  20675589.09848
  21099014.289 6 110876060.513 6  86396968.99148  21099022.52748
  23464714.508 3 123308005.313 3  96084128.47746  23464723.28946
  20652367.602 6 108528930.462 6  84568003.84648  20652376.04348
  21485167.766 6 112905524.592 6  87978225.95548  21485175.18048
  21892640.234 6 115046598.204 6  89646705.90549  21892651.65649
 22  7  3 17 47 50.0000000  0  8G05G07G13G14G15G17G19G30            
  23832688.172 4 125241596.685 4  97590883.55446  23832698.38346
  23989823.859 5 126067362.321 5  98234340.13548  23989833.49648
  20675133.195 6 108648559.331 6  84661251.80748  20675140.87948
  21101894.461 6 110891197.720 6  86408764.21948  21101902.89848
  23463125.703 3 123299659.454 3  96077625.22346  23463135.03146
  20651803.000 6 108525964.705 6  84565692.86948  20651811.96548
  21483753.453 6 112898092.103 6  87972434.41348  21483760.97748
  21895009.766 6 115059049.281 6  89656408.04249  21895021.04349
 22  7  3 17 47 55.0000000  0  8G05G07G13G14G15G17G19G30            
  23835538.031 4 125256570.523 4  97602551.45746  23835547.69146
  23993182.289 5 126085021.749 5  98248100.72748  23993193.80148
  20674687.367 6 108646217.486 6  84659426.99648  20674695.34048
  21104775.813 6 110906341.016 6  86420564.18848  21104784.38348
  23461539.602 3 123291321.838 3  96071128.37846  23461548.57046
  20651241.688 6 108523014.594 6  84563394.08248  20651250.09848
  21482341.625 6 112890670.639 6  87966651.46148  21482348.95748
  21897380.656 6 115071506.142 6  89666114.69249  21897391.38749
 22  7  3 17 48  0.0000000  0  8G05G07G13G14G15G17G19G30            
  23838388.117 4 125271550.532 4  97614224.17346  23838398.24646
  23996543.531 5 126102684.392 5  98261863.80148  23996554.67648
  20674244.125 6 108643888.783 6  84657612.42248  20674252.04348
  21107658.648 6 110921490.151 6  86432368.72348  21107667.00048
  23459954.336 3 123282992.218 3  96064637.78646  23459963.94546
  20650683.219 6 108520079.757 6  84561107.20148  20650692.02748
  21480930.422 6 112883259.971 6  87960876.90748  21480938.24248
  21899751.813 6 115083968.513 6  89675825.63549  21899762.50049
 22  7  3 17 48  5.0000000  0  8G05G07G13G14G15G17G19G30            
  23841239.430 4 125286536.852 4  97625901.81746  23841250.30146
  23999906.609 5 126120350.419 5  98275629.52948  23999915.93448
  20673803.656 6 108641573.462 6  84655808.27848  20673811.72748
  21110542.391 6 110936645.284 6  86444177.90648  21110550.77348
  23458370.734 3 123274670.788 3  96058153.58846  23458380.62546
  20650127.625 6 108517160.402 6  84558832.39148  20650136.05548
  21479522.711 6 112875860.203 6  87955110.86148  21479530.07848
  21902123.906 6 115096436.544 6  89685540.97949  21902135.11749
 22  7  3 17 48 10.0000000  0  8G05G07G13G14G15G17G19G30            
  23844093.008 4 125301529.414 4  97637584.31946  23844102.90246
  24003268.734 5 126138019.700 5  98289397.80448  24003278.65648
  20673365.578 6 108639271.410 6  84654014.48448  20673373.45348
  21113427.727 6 110951806.303 6  86455991.69348  21113435.80948
  23456788.711 3 123266357.433 3  96051675.61846  23456798.52746
  20649575.094 6 108514256.418 6  84556569.54548  20649583.80148
  21478116.750 6 112868471.297 6  87949353.28448  21478124.01648
  21904498.063 6 115108910.182 6  89695260.69849  21904508.85249
 22  7  3 17 48 15.0000000  0  8G05G07G13G14G15G17G19G30            
  23846947.406 4 125316528.397 4  97649271.80946  23846957.71146
  24006631.180 5 126155692.453 5  98303168.77448  24006641.10948
  20672930.148 6 108636982.806 6  84652231.15848  20672938.23048
  21116313.891 6 110966973.388 6  86467810.21448  21116321.80948
  23455207.867 4 123258052.393 4  96045204.18646  23455218.33646
  20649025.016 6 108511367.991 6  84554318.82148  20649034.21548
  21476712.445 6 112861093.450 6  87943604.32447  21476720.11347
  21906872.727 6 115121389.587 6  89704984.90349  21906883.59049
 22  7  3 17 48 20.0000000  0  8G05G07G13G14G15G17G19G30            
  23849802.813 4 125331533.318 4  97660963.96546  23849812.94946
  24009994.875 5 126173368.297 5  98316942.14448  24010004.43848
  20672496.766 6 108634707.248 6  84650458.00248  20672505.23048
  21119201.414 6 110982146.119 6  86479633.11348  21119209.36748
  23453629.461 4 123249755.177 4  96038738.81946  23453639.39846
  20648478.297 6 108508494.732 6  84552079.92348  20648487.13348
  21475310.883 6 112853726.175 6  87937863.60348  21475318.59448
  21909248.148 6 115133874.367 6  89714713.30749  21909259.23849
 22  7  3 17 48 25.0000000  0  8G05G07G13G14G15G17G19G30            
  23852658.820 4 125346544.575 4  97672661.02246  23852669.84846
  24013359.273 5 126191047.544 5  98330718.17548  24013368.60948
  20672066.492 6 108632445.057 6  84648695.26248  20672074.19948
  21122089.648 6 110997324.774 6  86491460.64848  21122097.93848
  23452052.422 3 123241466.189 3  96032279.86346  23452062.24246
  20647934.852 6 108505636.973 6  84549853.09448  20647943.36748
  21473910.875 6 112846369.890 6  87932131.44148  21473918.43448
  21911624.820 6 115146364.793 6  89724446.10349  21911636.31349
 22  7  3 17 48 30.0000000  0  8G05G07G13G14G15G17G19G30            
  23855516.773 3 125361561.619 3  97684362.60846  23855527.35946
  24016723.992 5 126208729.692 5  98344496.45948  24016733.53948
  20671638.250 7 108630195.859 7  84646942.64748  20671646.21148
  21124979.172 6 111012508.920 6  86503292.46048  21124987.64548
  23450476.125 3 123233184.894 3  96025826.94946  23450486.17646
  20647393.680 6 108502794.299 6  84547638.02848  20647402.34848
  21472513.469 6 112839024.189 6  87926407.52748  21472520.57048
  21914002.703 6 115158860.424 6  89734182.95149  21914014.18849
 22  7  3 17 48 35.0000000  0  8G05G07G13G14G15G17G19G30            
  23858375.641 3 125376584.719 3  97696068.88346  23858386.39846
  24020089.023 5 126226414.969 5  98358277.19648  24020099.11748
  20671212.609 6 108627959.850 6  84645200.30748  20671221.03948
  21127869.563 6 111027698.811 6  86515128.74148  21127877.85948
  23448901.898 3 123224911.695 3  96019380.31046  23448911.72746
  20646855.820 6 108499966.944 6  84545434.89948  20646864.14548
  21471117.133 6 112831689.267 6  87920691.99848  21471124.73048
  21916381.711 6 115171361.568 6  89743924.11149  21916393.05949
 22  7  3 17 48 40.0000000  0  8G05G07G13G14G15G17G19G30            
  23861235.219 3 125391613.908 3  97707779.94646  23861246.21146
  24023454.625 5 126244103.521 5  98372060.47648  24023464.64148
  20670789.906 6 108625737.071 6  84643468.27148  20670797.67248
  21130761.602 6 111042894.445 6  86526969.49348  21130769.34848
  23447329.234 3 123216646.583 3  96012939.98046  23447339.15646
  20646321.063 6 108497154.967 6  84543243.75148  20646328.94548
  21469723.313 6 112824365.241 6  87914984.97647  21469730.94547
  21918761.734 6 115183868.220 6  89753669.54349  21918772.85949
 22  7  3 17 48 45.0000000  0  8G05G07G13G14G15G17G19G30            
  23864095.438 4 125406649.036 4  97719495.60046  23864107.27746
  24026822.719 5 126261795.212 5  98385846.20248  24026832.12548
  20670369.445 6 108623527.451 6  84641746.50148  20670377.61348
  21133654.477 6 111058095.750 6  86538814.66348  21133662.59448
  23445757.898 4 123208389.466 4  96006505.86846  23445767.45746
  20645787.992 6 108494358.271 6  84541064.50948  20645797.10548
  21468332.508 6 112817051.938 6  87909286.29748  21468339.27348
  21921143.047 6 115196380.285 6  89763419.20549  21921154.03949
 22  7  3 17 48 50.0000000  0  8G05G07G13G14G15G17G19G30            
  23866957.883 3 125421689.842 3  97731215.67746  23866969.54746
  24030189.563 5 126279489.824 5  98399634.21348  24030199.03148
  20669951.188 6 108621330.803 6  84640034.82748  20669959.60948
  21136547.789 6 111073302.448 6  86550664.03548  21136556.02048
  23444187.867 4 123200140.143 4  96000077.80046  23444197.90246
  20645259.078 6 108491576.671 6  84538897.03148  20645267.94548
  21466941.961 6 112809749.199 6  87903595.85947  21466949.81647
  21923524.766 6 115208897.582 6  89773172.94149  21923536.44149
 22  7  3 17 48 55.0000000  0  8G05G07G13G14G15G17G19G30            
  23869820.773 2 125436737.040 2  97742940.75946  23869833.24246
  24033556.086 4 126297187.901 4  98413424.91648  24033567.16448
  20669535.789 6 108619147.670 6  84638333.68848  20669544.07848
  21139442.523 6 111088515.123 6  86562518.07148  21139450.99248
  23442619.266 3 123191899.189 3  95993656.30646  23442629.30946
  20644732.711 6 108488810.693 6  84536741.72848  20644741.63748
  21465554.852 6 112802457.600 6  87897914.09548  21465562.30148
  21925907.594 6 115221420.609 6  89782931.14149  21925919.40249
 22  7  3 17 49  0.0000000  0  8G05G07G13G14G15G17G19G30            
  23872684.758 2 125451790.139 2  97754670.43446  23872697.73846
  24036926.578 4 126314889.257 4  98427218.16848  24036935.61748
  20669123.070 6 108616977.858 6  84636642.92848  20669131.24248
  21142338.617 6 111103733.549 6  86574376.58648  21142346.93848
  23441053.453 4 123183666.360 4  95987241.12946  23441063.18846
  20644209.250 6 108486060.162 6  84534598.45648  20644217.85948
  21464169.008 6 112795176.907 6  87892240.83848  21464176.65648
  21928291.953 6 115233949.232 6  89792693.70449  21928303.35249
 22  7  3 17 49  5.0000000  0  8G05G07G13G14G15G17G19G30            
  23875551.438 2 125466848.960 2  97766404.58146  23875563.10246
  24040294.539 4 126332593.504 4  98441013.67548  24040304.38748
  20668712.625 6 108614821.033 6  84634962.28548  20668720.80148
  21145235.297 6 111118957.354 6  86586239.29548  21145243.90648
  23439488.219 4 123175441.307 4  95980831.99346  23439497.96546
  20643688.852 6 108483324.762 6  84532466.97948  20643697.43448
  21462785.906 6 112787906.885 6  87886575.88948  21462793.64148
  21930677.289 6 115246483.048 6  89802460.31549  21930688.56349
 22  7  3 17 49 10.0000000  0  8G05G07G13G14G15G17G19G30            
  23878417.609 1 125481913.521 1  97778143.18646  23878429.85246
  24043664.195 4 126350300.805 4  98454811.54948  24043673.90248
  20668305.125 6 108612677.336 6  84633291.87348  20668312.73048
  21148133.477 6 111134186.659 6  86598106.28048  21148141.95748
  23437924.641 4 123167224.289 4  95974429.15846  23437934.17646
  20643170.992 6 108480604.576 6  84530347.35648  20643179.96548
  21461404.563 6 112780647.545 6  87880919.26347  21461412.37147
  21933063.680 6 115259022.158 6  89812231.05349  21933074.89549
 22  7  3 17 49 15.0000000  0  8G05G07G13G14G15G17G19G30            
  23881285.984 1 125496984.188 1  97789886.53246  23881297.91046
  24047034.391 4 126368011.466 4  98468612.06248  24047044.08248
  20667899.500 6 108610547.116 6  84631631.97448  20667907.77348
  21151032.586 6 111149421.854 6  86609977.85448  21151040.78548
  23436362.578 4 123159015.608 4  95968032.78346  23436372.41846
  20642657.313 6 108477900.015 6  84528239.90848  20642665.07848
  21460025.227 6 112773399.346 6  87875271.32347  21460032.80147
  21935450.664 6 115271567.008 6  89822006.25749  21935462.00049
 22  7  3 17 49 20.0000000  0  8G05G07G13G14G15G17G19G30            
  23884155.484 1 125512060.812 1  97801634.56346  23884166.79746
  24050405.688 4 126385725.264 4  98482415.00448  24050414.83648
  20667496.555 6 108608430.159 6  84629982.39348  20667504.65648
  21153932.523 6 111164662.633 6  86621853.79648  21153941.23048
  23434801.977 4 123150814.969 4  95961642.68646  23434812.12146
  20642144.867 6 108475210.823 6  84526144.44048  20642153.28148
  21458647.711 6 112766161.957 6  87869631.81847  21458655.43447
  21937838.969 6 115284117.319 6  89831785.72349  21937850.12949
 22  7  3 17 49 25.0000000  0  8G05G07G13G14G15G17G19G30            
  23887026.164 1 125527143.108 1  97813386.96746  23887036.16846
  24053776.672 4 126403442.102 4  98496220.34447  24053785.99247
  20667095.742 6 108606326.360 6  84628343.07148  20667104.29748
  21156834.422 6 111179908.896 6  86633733.99948  21156842.84048
  23433243.203 3 123142622.313 3  95955258.79446  23433252.61346
  20641636.086 6 108472536.891 6  84524060.85648  20641644.46548
  21457272.617 6 112758935.332 6  87864000.69447  21457280.66847
  21940228.320 6 115296672.950 6  89841569.33649  21940238.98049
 22  7  3 17 49 30.0000000  0  8G05G07G13G14G15G17G19G30            
  23889896.508 1 125542231.351 1  97825143.99746  23889908.04346
  24057148.766 4 126421162.083 4  98510028.13248  24057158.33248
  20666698.367 6 108604235.904 6  84626714.15048  20666706.77348
  21159736.391 6 111195160.767 6  86645618.57548  21159745.08648
  23431684.844 4 123134437.840 4  95948881.30046  23431695.33646
  20641129.680 6 108469878.396 6  84521989.30548  20641138.45748
  21455898.789 6 112751719.685 6  87858378.11047  21455907.19147
  21942618.141 6 115309234.079 6  89851357.22849  21942629.34849
 22  7  3 17 49 35.0000000  0  8G05G07G13G14G15G17G19G30            
  23892769.172 1                                  23892780.03546
  24060520.898 4 126438885.547 4  98523838.61148  24060530.89848
  20666303.211 6 108602158.957 6  84625095.75148  20666311.37148
  21162639.977 6 111210418.502 6  86657507.71148  21162648.75448
  23430129.797 4 123126261.697 4  95942510.28446  23430139.41446
  20640627.477 6 108467235.569 6  84519929.95748  20640635.61748
  21454528.602 6 112744515.211 6  87852764.24947  21454536.84847
  21945009.234 6 115321800.967 6  89861149.61249  21945021.05149
 22  7  3 17 49 40.0000000  0  8G05G07G13G14G15G17G19G30            
  23895641.844 1 125572425.86011  97848672.13356  23895653.44946
  24063894.563 4 126456612.163 4  98537651.55247  24063904.30947
  20665910.422 6 108600095.361 6  84623487.75948  20665918.12548
  21165544.516 6 111225681.854 6  86669401.23548  21165552.90648
  23428575.180 4 123118093.770 4  95936145.67446  23428584.92646
  20640126.938 6 108464608.226 6  84517882.68048  20640135.43848
  21453160.016 6 112737321.722 6  87847158.92747  21453167.45747
  21947402.422 6 115334373.339 6  89870946.26449  21947413.37149
 22  7  3 17 49 45.0000000  0  8G05G07G13G14G15G17G19G30            
  23898514.945 1 125587532.310 1  97860443.40546  23898528.19546
  24067268.430 4 126474342.539 4  98551467.41248  24067278.10948
  20665520.438 6 108598045.646 6  84621890.57848  20665528.63748
  21168450.219 6 111240951.309 6  86681299.50648  21168459.01248
  23427022.953 3 123109934.550 3  95929787.85046  23427032.02746
  20639630.125 6 108461996.849 6  84515847.84448  20639638.36748
  21451792.766 6 112730139.764 6  87841562.60647  21451800.72347
  21949795.992 6 115346951.744 6  89880747.60949  21949806.71949
 22  7  3 17 49 50.0000000  0  8G05G07G13G14G15G17G19G30            
  23901392.453 1 125602644.703 1  97872219.27346  23901403.86746
  24070642.766 4 126492076.115 4  98565285.77348  24070653.21148
  20665133.031 6 108596009.355 6  84620303.86548  20665141.28148
  21171356.727 6 111256226.449 6  86693202.20848  21171365.37948
  23425471.305 4 123101783.604 4  95923436.46546  23425481.05946
  20639136.273 6 108459401.035 6  84513825.13148  20639144.98448
  21450428.398 6 112722968.893 6  87835974.91847  21450435.89847
  21952190.633 6 115359535.789 6  89890553.35849  21952201.34449
 22  7  3 17 49 55.0000000  0  8G05G07G13G14G15G17G19G30            
  23904268.469 1 125617762.63211  97883999.43056  23904280.16446
  24074018.328 4 126509812.715 4  98579106.50247  24074028.37947
  20664747.922 6 108593986.231 6  84618727.40448  20664756.28948
  21174264.633 6 111271507.006 6  86705109.13748  21174273.18848
  23423923.250 3 123093640.688 3  95917091.33246  23423931.60546
  20638645.414 6 108456820.570 6  84511814.37648  20638653.71148
  21449065.969 6 112715808.893 6  87830395.70247  21449073.27047
  21954585.969 6 115372125.106 6  89900363.21649  21954597.45749
 22  7  3 17 50  0.0000000  0  8G05G07G13G14G15G17G19G30            
  23907146.961 1 125632886.832 1  97895784.53546  23907158.44946
  24077394.117 4 126527552.905 4  98592930.01147  24077404.32047
  20664365.602 6 108591976.853 6  84617161.66548  20664374.11748
  21177173.383 6 111286793.545 6  86717020.72248  21177182.36348
  23422373.648 3 123085506.341 3  95910752.89346  23422383.52346
  20638157.297 6 108454255.953 6  84509815.97548  20638165.62548
  21447706.195 6 112708660.285 6  87824825.35547  21447712.49647
  21956983.367 6 115384720.344 6  89910177.68549  21956994.05949
 22  7  3 17 50  5.0000000  0  8G05G07G13G14G15G17G19G30            
  23910025.063 1 125648016.724 1  97907573.98646  23910037.59446
  24080770.828 3 126545296.104 3  98606755.87747  24080780.87147
  20663985.547 6 108589980.715 6  84615606.22348  20663993.96148
  21180083.148 6 111302085.485 6  86728936.52248  21180092.12148
  23420828.203 4 123077380.045 4  95904420.74246  23420837.23046
  20637672.281 6 108451706.721 6  84507829.56148  20637680.70748
  21446347.430 6 112701522.568 6  87819263.49847  21446354.38347
  21959380.750 6 115397320.969 6  89919996.34749  21959391.89149
 22  7  3 17 50 10.0000000  0  8G05G07G13G14G15G17G19G30            
  23912906.977 1 125663152.308 1  97919367.97246  23912918.37146
  24084147.758 4 126563042.431 4  98620584.17747  24084157.57047
  20663608.578 6 108587997.920 6  84614061.19648  20663616.52048
  21182994.242 6 111317382.902 6  86740856.57948  21183003.05948
  23419282.883 4 123069261.912 4  95898094.92246  23419292.18046
  20637190.250 6 108449172.934 6  84505855.18748  20637198.85548
  21444991.352 6 112694395.872 6  87813710.22647  21444998.29347
  21961779.250 6 115409927.067 6  89929819.27549  21961790.68849
 22  7  3 17 50 15.0000000  0  8G05G07G13G14G15G17G19G30            
  23915787.227 1 125678293.718 1  97931166.41646  23915799.10546
  24087524.922 4 126580791.953 4  98634414.97147  24087535.35547
  20663233.656 6 108586028.492 6  84612526.58548  20663241.68048
  21185906.219 6 111332685.834 6  86752780.94148  21185915.44948
  23417739.516 4 123061152.022 4  95891775.54246  23417748.54346
  20636710.680 6 108446654.666 6  84503892.90548  20636719.53948
  21443637.359 6 112687280.168 6  87808165.53048  21443644.57848
  21964179.422 6 115422538.637 6  89939646.47049  21964191.37149
 22  7  3 17 50 20.0000000  0  8G05G07G13G14G15G17G19G30            
  23918670.602 1 125693440.542 1  97942969.13445  23918681.40645
  24090903.086 4 126598544.387 4  98648248.02747  24090913.49647
  20662861.414 6 108584072.229 6  84611002.22748  20662869.93048
  21188819.586 6 111347994.038 6  86764709.40848  21188828.43848
  23416197.844 4 123053050.085 4  95885462.34546  23416206.82846
  20636234.586 6 108444151.665 6  84501942.51648  20636242.89148
  21442285.133 6 112680175.271 6  87802629.24447  21442292.19547
  21966580.047 6 115435155.423 6  89949477.73149  21966591.83249
 22  7  3 17 50 25.0000000  0  8G05G07G13G14G15G17G19G30            
  23921553.352 1 125708593.230 1  97954776.39846  23921565.20746
  24094282.375 3 126616300.225 3  98662083.74847  24094292.20747
  20662491.664 6 108582129.496 6  84609488.41048  20662499.88748
  21191733.508 6 111363307.906 6  86776642.28648  21191742.46148
  23414657.891 5 123044956.553 5  95879155.68446  23414666.64146
  20635761.133 6 108441664.311 6  84500004.32148  20635769.87148
  21440935.102 6 112673081.591 6  87797101.70047  21440942.40647
  21968982.211 6 115447777.913 6  89959313.43949  21968993.96549
 22  7  3 17 50 30.0000000  0  8G05G07G13G14G15G17G19G30            
  23924438.250 1 125723751.555 1  97966587.99846  23924449.64546
  24097661.383 3 126634059.140 3  98675921.85647  24097671.40647
  20662124.539 6 108580200.145 6  84607985.02448  20662132.93448
  21194648.500 6 111378627.235 6  86788579.42748  21194657.79748
  23413118.430 4 123036871.280 4  95872855.49646  23413128.31646
  20635290.469 6 108439192.438 6  84498078.18348  20635299.35948
  21439587.391 6 112665998.948 6  87791582.76847  21439595.02347
  21971385.266 6 115460405.845 6  89969153.38949  21971397.35549
 22  7  3 17 50 35.0000000  0  8G05G07G13G14G15G17G19G30            
  23927324.266 1 125738915.449 1  97978403.99945  23927335.14845
  24101041.750 3 126651821.086 3  98689762.33747  24101051.04347
  20661759.672 6 108578284.093 6  84606492.00348  20661768.32448
  21197565.055 6 111393951.951 6  86800520.76948  21197573.75048
  23411581.398 4 123028794.146 4  95866561.62346  23411591.11346
  20634823.031 6 108436736.003 6  84496164.07748  20634831.80548
  21438241.461 5 112658927.313 5  87786072.41047  21438249.66847
  21973789.289 6 115473039.192 6  89978997.55449  21973801.06649
 22  7  3 17 50 40.0000000  0  8G05G07G13G14G15G17G19G30            
  23930209.727 1 125754085.44511  97990224.74055  23930222.44145
  24104423.023 3 126669586.626 3  98703605.61447  24104431.89547
  20661398.023 7 108576381.846 7  84605009.74048  20661406.42648
  21200482.438 6 111409282.457 6  86812466.61948  21200491.05948
  23410047.141 4 123020725.622 4  95860274.47046  23410055.70746
  20634358.938 6 108434295.520 6  84494262.40648  20634367.52748
  21436898.070 5 112651867.150 5  87780570.99547  21436905.98047
  21976194.875 6 115485678.419 6  89988846.30249  21976206.10549
 22  7  3 17 50 45.0000000  0  8G05G07G13G14G15G17G19G30            
  23933098.078 1 125769261.245 1  98002049.99346  23933110.44546
  24107803.391 3 126687355.453 3  98717451.43647  24107813.55947
  20661037.758 6 108574493.249 6  84603538.10848  20661046.94548
  21203401.266 6 111424618.706 6  86824416.93848  21203409.53548
  23408513.133 4 123012665.655 4  95853993.99746  23408521.89846
  20633897.516 6 108431870.794 6  84492373.01448  20633906.20348
  21435556.984 5 112644818.320 5  87775078.41547  21435564.52347
  21978601.148 6 115498323.375 6  89998699.50549  21978612.19149
 22  7  3 17 50 50.0000000  0  8G05G07G13G14G15G17G19G30            
  23935987.594 1 125784442.293 1  98013879.41046  23935998.90646
  24111185.602 4 126705127.306 4  98731299.61747  24111195.84447
  20660681.555 6 108572617.825 6  84602076.74548  20660690.06648
  21206319.930 6 111439960.073 6  86836371.25148  21206328.76248
  23406980.750 5 123004613.630 5  95847719.69346  23406989.38746
  20633438.563 6 108429461.342 6  84490495.52148  20633447.37148
  21434217.148 6 112637780.302 6  87769594.25548  21434225.44948
  21981008.258 6 115510973.536 6  90008556.77549  21981019.45749
