     2.11           OBSERVATION DATA    GPS(GPS)            RINEX VERSION / TYPE
cnvtToRINEX 3.14.0  convertToRINEX OPR  20220810 190543 UTC PGM / RUN BY / DATE 
----------------------------------------------------------- COMMENT             
SC-HV-69                                                    MARKER NAME         
SC-HV-69                                                    MARKER NUMBER       
GNSS Observer       Trimble                                 OBSERVER / AGENCY   
4906165579          TRIMBLE 5700II      4.02                REC # / TYPE / VERS 
60266723            TRM39105.00                             ANT # / TYPE        
  3605446.6019 -4252919.8212 -3087093.2837                  APPROX POSITION XYZ 
        2.3000        0.0000        0.0000                  ANTENNA: DELTA H/E/N
     1     1     0                                          WAVELENGTH FACT L1/2
     4    C1    L1    L2    P2                              # / TYPES OF OBSERV 
  2022     7     3    14     7   55.0000000     GPS         TIME OF FIRST OBS   
  2022     7     3    14    56    0.0000000     GPS         TIME OF LAST OBS    
     0                                                      RCV CLOCK OFFS APPL 
    18                                                      LEAP SECONDS        
     8                                                      # OF SATELLITES     
   G04   578   578   578   578                              PRN / # OF OBS      
   G06     2     1     0     0                              PRN / # OF OBS      
   G07   578   578   578   578                              PRN / # OF OBS      
   G08   303   303   303   303                              PRN / # OF OBS      
   G09   578   578   578   578                              PRN / # OF OBS      
   G14   575   575   575   575                              PRN / # OF OBS      
   G20   560   559   556   557                              PRN / # OF OBS      
   G30   578   578   578   578                              PRN / # OF OBS      
CARRIER PHASE MEASUREMENTS: PHASE SHIFTS REMOVED            COMMENT             
                                                            END OF HEADER       
 22  7  3 14  7 55.0000000  0  4G04G07G09G30                        
  22782587.867 5 119723306.75815  93290929.83157  22782598.34447
  20175430.148 6 106022597.63216  82615044.38958  20175438.32848
  21116117.727 6 110965943.13916  86467009.72059  21116128.12149
  21693322.672 6 113999180.90816  88830556.02858  21693332.44948
 22  7  3 14  8  0.0000000  0  4G04G07G09G30                        
  22785173.727 5 119736897.121 5  93301519.71647  22785184.53547
  20176563.867 6 106028555.230 6  82619686.66948  20176572.00448
  21117312.719 6 110972225.784 6  86471905.28549  21117323.14549
  21692888.734 6 113996899.978 6  88828778.65648  21692899.28948
 22  7  3 14  8  5.0000000  0  4G04G07G09G30                        
  22787762.906 5 119750498.737 5  93312118.37247  22787772.98047
  20177700.664 6 106034528.723 6  82624341.34248  20177709.02748
  21118510.914 6 110978520.968 6  86476810.62549  21118521.50849
  21692458.188 6 113994633.535 6  88827012.60547  21692468.53547
 22  7  3 14  8 10.0000000  0  5G04G07G09G14G30                     
  22790353.203 5 119764113.544 5  93322727.30847  22790363.76647
  20178840.805 6 106040520.150 6  82629009.97948  20178848.67648
  21119711.375 6 110984830.739 6  86481727.32749  21119722.01249
  23802171.625 4 125081251.78014  97465958.05056  23802183.03546
  21692029.641 6 113992383.600 6  88825259.40348  21692040.27348
 22  7  3 14  8 15.0000000  0  5G04G07G09G14G30                     
  22792947.055 5 119777743.024 5  93333347.68547  22792956.82847
  20179984.500 6 106046530.999 6  82633693.76048  20179992.87948
  21120915.266 6 110991156.477 6  86486656.47149  21120925.73449
  23799633.328 4 125067916.508 4  97455566.96346  23799644.65246
  21691604.586 6 113990151.510 6  88823520.11448  21691615.66448
 22  7  3 14  8 20.0000000  0  5G04G07G09G14G30                     
  22795543.523 5 119791387.599 5  93343979.81347  22795553.45347
  20181132.586 6 106052561.559 6  82638392.89348  20181140.44948
  21122122.422 6 110997498.688 6  86491598.45249  21122132.82449
  23797098.422 4 125054593.657 4  97445185.53146  23797109.87946
  21691183.828 6 113987937.802 6  88821795.15348  21691194.35248
 22  7  3 14  8 25.0000000  0  5G04G07G09G14G30                     
  22798143.430 5 119805047.569 5  93354623.95347  22798153.53547
  20182283.750 6 106058612.172 6  82643107.65448  20182292.05148
  21123332.711 6 111003857.678 6  86496553.51049  21123342.88749
  23794565.875 4 125041283.576 4  97434814.05946  23794577.17646
  21690765.625 6 113985742.772 6  88820084.74547  21690776.73447
 22  7  3 14  8 30.0000000  0  5G04G07G09G14G30                     
  22800745.828 5 119818722.966 5  93365280.10547  22800756.09847
  20183438.891 6 106064682.835 6  82647838.04048  20183446.95348
  21124545.391 6 111010233.410 6  86501521.60549  21124555.64549
  23792035.492 5 125027986.165 5  97424452.46946  23792046.90246
  21690351.531 6 113983566.360 6  88818388.83447  21690362.74247
 22  7  3 14  8 35.0000000  0  5G04G07G09G14G30                     
  22803351.305 5 119832413.537 5  93375948.07647  22803361.02047
  20184598.156 6 106070773.302 6  82652583.85748  20184605.75448
  21125762.234 6 111016625.710 6  86506502.61249  21125772.37549
  23789507.602 5 125014701.371 5  97414100.67946  23789518.67246
  21689940.945 6 113981408.406 6  88816707.32447  21689951.74647
 22  7  3 14  8 40.0000000  0  6G04G07G09G14G20G30                  
  22805959.188 5 119846119.436 5  93386627.98847  22805969.10947
  20185760.789 6 106076883.723 6  82657345.22448  20185768.69148
  21126982.070 6 111023034.686 6  86511496.62149  21126991.67249
  23786981.586 5 125001429.206 5  97403758.75146  23786993.16446
  23452690.203 4 123244708.08514  96034874.01056  23452697.99646
  21689533.844 6 113979268.996 6  88815040.24147  21689545.18047
 22  7  3 14  8 45.0000000  0  6G04G07G09G14G20G30                  
  22808570.352 5 119859840.269 5  93397319.54147  22808580.20347
  20186926.953 6 106083013.709 6  82662121.84048  20186935.18448
  21128204.141 6 111029459.985 6  86516503.34849  21128214.66449
  23784458.086 5 124988169.339 5  97393426.41646  23784469.95746
  23451223.156 3 123237003.669 3  96028870.54746  23451231.80146
  21689129.906 6 113977147.750 6  88813387.32847  21689141.62147
 22  7  3 14  8 50.0000000  0  6G04G07G09G14G20G30                  
  22811183.602 5 119873575.786 5  93408022.54547  22811194.02347
  20188096.703 6 106089162.998 6  82666913.49248  20188105.22348
  21129429.938 6 111035901.342 6  86521522.58549  21129440.68049
  23781937.422 5 124974921.552 5  97383103.47246  23781948.99646
  23449761.289 3 123229318.512 3  96022882.12246  23449769.71946
  21688729.820 6 113975044.430 6  88811748.38347  21688741.18047
 22  7  3 14  8 55.0000000  0  6G04G07G09G14G20G30                  
  22813799.305 5 119887325.602 5  93418736.69247  22813810.50847
  20189270.953 6 106095331.227 6  82671719.90448  20189279.31348
  21130658.883 6 111042358.313 6  86526553.99449  21130668.95749
  23779418.742 5 124961685.396 5  97372789.59946  23779430.50846
  23448302.258 4 123221652.138 4  96016908.31346  23448310.93446
  21688332.656 6 113972958.641 6  88810123.09847  21688344.10947
 22  7  3 14  9  0.0000000  0  6G04G07G09G14G20G30                  
  22816418.953 5 119901089.212 5  93429461.56847  22816429.46547
  20190448.414 6 106101517.865 6  82676540.66548  20190456.22748
  21131890.406 6 111048830.523 6  86531597.26749  21131900.65249
  23776902.539 5 124948460.441 5  97362484.46246  23776913.30546
  23446847.617 3 123214004.189 3  96010948.86046  23446855.09846
  21687939.328 6 113970889.871 6  88808511.07347  21687950.69547
 22  7  3 14  9  5.0000000  0  6G04G07G09G14G20G30                  
  22819041.313 5 119914866.794 5  93440197.33647  22819051.35247
  20191629.086 6 106107723.085 6  82681375.89648  20191637.01648
  21133125.227 6 111055318.058 6  86536652.48949  21133135.41849
  23774387.266 5 124935246.854 5  97352188.18046  23774399.17646
  23445395.438 3 123206374.837 3  96005003.93946  23445403.82846
  21687548.602 6 113968838.271 6  88806912.43047  21687559.95347
 22  7  3 14  9 10.0000000  0  6G04G07G09G14G20G30                  
  22821664.938 5 119928658.057 5  93450943.76147  22821675.29747
  20192813.242 6 106113946.582 6  82686225.37948  20192821.30548
  21134362.195 6 111061820.666 6  86541719.45549  21134372.49649
  23771876.094 5 124922044.386 5  97341900.56046  23771886.73046
  23443947.594 3 123198763.701 3  95999073.18646  23443955.03946
  21687161.445 6 113966803.596 6  88805326.96847  21687172.56347
 22  7  3 14  9 15.0000000  0  6G04G07G09G14G20G30                  
  22824292.148 5 119942462.512 5  93461700.48947  22824302.86347
  20194001.336 6 106120187.818 6  82691088.67648  20194008.98048
  21135602.563 6 111068337.816 6  86546797.75249  21135612.84049
  23769365.047 5 124908852.501 5  97331621.20946  23769376.23846
  23442502.063 3 123191170.335 3  95993156.26946  23442510.31346
  21686777.547 6 113964785.252 6  88803754.24747  21686788.86747
 22  7  3 14  9 20.0000000  0  6G04G07G09G14G20G30                  
  22826921.602 5 119956279.904 5  93472467.28247  22826931.91047
  20195192.258 6 106126446.563 6  82695965.62048  20195199.85548
  21136845.336 6 111074869.311 6  86551887.23349  21136855.86749
  23766856.633 5 124895671.018 5  97321349.92446  23766867.92246
  23441060.430 3 123183594.576 3  95987253.09546  23441069.01646
  21686396.266 6 113962783.091 6  88802194.11947  21686407.51247
 22  7  3 14  9 25.0000000  0  6G04G07G09G14G20G30                  
  22829553.703 5 119970110.221 5  93483244.14847  22829563.66847
  20196386.281 6 106132722.803 6  82700856.19448  20196394.15248
  21138091.383 6 111081415.124 6  86556987.86049  21138101.41049
  23764350.359 4 124882499.901 4  97311086.73746  23764361.48846
  23439622.023 3 123176036.350 3  95981363.58046  23439630.66046
  21686017.898 6 113960797.122 6  88800646.62147  21686030.15247
 22  7  3 14  9 30.0000000  0  6G04G07G09G14G20G30                  
  22832187.297 5 119983953.126 5  93494030.82247  22832198.02747
  20197583.594 6 106139016.172 6  82705760.11948  20197591.58248
  21139339.453 6 111087974.900 6  86562099.37249  21139349.92649
  23761845.633 5 124869338.821 5  97300831.37046  23761857.36346
  23438186.086 3 123168495.258 3  95975487.41746  23438195.60246
  21685643.367 6 113958826.858 6  88799111.34847  21685654.76647
 22  7  3 14  9 35.0000000  0  6G04G07G09G14G20G30                  
  22834824.789 5 119997809.035 5  93504827.64047  22834834.40247
  20198784.805 6 106145327.085 6  82710677.70748  20198792.35248
  21140590.539 6 111094549.115 6  86567222.13549  21140600.63749
  23759342.883 4 124856188.231 4  97290584.18446  23759354.24646
  23436754.469 3 123160971.956 3  95969625.12746  23436763.64146
  21685271.898 6 113956872.843 6  88797588.73847  21685282.79747
 22  7  3 14  9 40.0000000  0  6G04G07G09G14G20G30                  
  22837463.344 5 120011677.108 5  93515633.91147  22837473.49647
  20199989.156 6 106151654.658 6  82715608.28948  20199996.60948
  21141843.953 6 111101136.861 6  86572355.44049  21141854.60549
  23756842.453 5 124843047.230 5  97280344.45646  23756853.67646
  23435325.211 2 123153465.393 2  95963775.85646  23435335.64546
  21684902.656 6 113954934.130 6  88796078.05947  21684914.07847
 22  7  3 14  9 45.0000000  0  6G04G07G09G14G20G30                  
  22840105.102 5 120025556.755 5  93526449.23047  22840114.70747
  20201196.313 6 106157998.385 6  82720551.44848  20201203.58248
  21143100.188 6 111107737.615 6  86577498.87849  21143110.40649
  23754343.742 5 124829915.360 5  97270111.85446  23754354.78946
  23433900.516 3 123145975.125 3  95957939.27246  23433909.90246
  21684536.094 6 113953010.244 6  88794578.93447  21684547.59047
 22  7  3 14  9 50.0000000  0  6G04G07G09G14G20G30                  
  22842748.406 5 120039448.722 5  93537274.12847  22842758.18047
  20202406.352 6 106164358.904 6  82725507.69748  20202413.86348
  21144358.766 6 111114352.071 6  86582653.00049  21144369.43049
  23751846.148 4 124816793.247 4  97259886.85246  23751857.46146
  23432478.281 3 123138501.837 3  95952115.95746  23432487.91046
  21684173.445 6 113951101.811 6  88793091.84347  21684184.56347
 22  7  3 14  9 55.0000000  0  6G04G07G09G14G20G30                  
  22845393.195 5 120053352.593 5  93548108.31247  22845403.91047
  20203619.586 6 106170735.853 6  82730476.74848  20203627.66048
  21145620.047 6 111120979.855 6  86587817.50149  21145630.49649
  23749350.734 5 124803680.532 5  97249669.16346  23749361.68046
  23431060.156 3 123131045.093 3  95946305.50546  23431068.94146
  21683813.086 6 113949208.473 6  88791616.52947  21683824.15247
 22  7  3 14 10  0.0000000  0  7G04G06G07G09G14G20G30               
  22848042.141 5 120067267.875 5  93558951.38947  22848052.01247
  24151485.180 1                                
  20204836.336 6 106177128.724 6  82735458.20348  20204844.39548
  21146884.313 6 111127620.457 6  86592991.99449  21146894.37949
  23746856.938 5 124790576.804 5  97239458.49946  23746867.87546
  23429645.234 4 123123604.471 4  95940507.61346  23429653.12546
  21683455.359 6 113947329.753 6  88790152.58747  21683466.67647
 22  7  3 14 10  5.0000000  0  7G04G06G07G09G14G20G30               
  22850691.758 5 120081194.638 5  93569803.40447  22850702.52047
  24154586.711 1 126933147.074 1                
  20206055.953 6 106183537.560 6  82740452.09348  20206063.46948
  21148149.984 6 111134273.953 6  86598176.53649  21148160.45349
  23744365.406 5 124777482.060 5  97229254.82846  23744375.99646
  23428231.438 4 123116180.027 4  95934722.35246  23428240.12946
  21683100.805 6 113945465.659 6  88788700.04647  21683112.77047
 22  7  3 14 10 10.0000000  0  6G04G07G09G14G20G30                  
  22853344.258 5 120095132.421 5  93580664.02347  22853354.46147
  20207278.164 6 106189961.923 6  82745458.08948  20207286.00448
  21149418.148 6 111140939.872 6  86603370.75149  21149428.48449
  23741874.547 5 124764395.881 5  97219057.81846  23741885.51246
  23426821.367 4 123108771.332 4  95928949.35746  23426830.72746
  21682748.719 6 113943615.758 6  88787258.57447  21682760.07447
 22  7  3 14 10 15.0000000  0  6G04G07G09G14G20G30                  
  22855998.531 5 120109081.576 5  93591533.48547  22856009.21947
  20208503.836 6 106196402.142 6  82750476.44648  20208511.56348
  21150689.336 6 111147618.596 6  86608574.95649  21150699.76249
  23739386.438 5 124751318.604 5  97208867.77146  23739396.53946
  23425414.836 4 123101378.759 4  95923188.89546  23425423.93046
  21682400.164 6 113941780.394 6  88785828.42747  21682411.18447
 22  7  3 14 10 20.0000000  0  6G04G07G09G14G20G30                  
  22858655.320 5 120123041.968 5  93602411.71847  22858665.89547
  20209732.883 6 106202858.035 6  82755507.01548  20209740.59448
  21151962.531 6 111154309.994 6  86613789.03349  21151973.00049
  23736899.305 5 124738250.165 5  97198684.60446  23736909.69146
  23424012.031 4 123094002.182 4  95917440.91546  23424020.17646
  21682052.984 6 113939959.455 6  88784409.51947  21682065.18047
 22  7  3 14 10 25.0000000  0  6G04G07G09G14G20G30                  
  22861313.586 5 120137013.661 5  93613298.72647  22861324.52347
  20210963.563 6 106209329.657 6  82760549.84048  20210971.84448
  21153238.250 6 111161014.089 6  86619012.99749  21153248.77349
  23734413.977 5 124725190.529 5  97188508.29146  23734424.86346
  23422610.313 4 123086641.546 4  95911705.37046  23422619.78146
  21681709.313 6 113938152.907 6  88783001.81247  21681720.68047
 22  7  3 14 10 30.0000000  0  6G04G07G09G14G20G30                  
  22863975.039 5 120150996.192 5  93624194.19747  22863985.09047
  20212198.156 6 106215816.540 6  82765604.54948  20212206.68448
  21154516.391 6 111167730.439 6  86624246.51349  21154526.95749
  23731930.406 5 124712139.330 5  97178338.55846  23731941.32046
  23421212.445 4 123079296.497 4  95905981.93446  23421221.85246
  21681368.102 6 113936360.368 6  88781605.03547  21681379.58247
 22  7  3 14 10 35.0000000  0  6G04G07G09G14G20G30                  
  22866637.539 5 120164989.558 5  93635098.10247  22866648.37547
  20213436.078 6 106222318.701 6  82770671.17148  20213443.62148
  21155797.000 6 111174459.089 6  86629489.60949  21155807.35949
  23729449.156 5 124699096.569 5  97168175.41046  23729459.11746
  23419817.766 4 123071967.042 4  95900270.65646  23419826.98846
  21681029.602 6 113934581.822 6  88780219.16947  21681040.98847
 22  7  3 14 10 40.0000000  0  6G04G07G09G14G20G30                  
  22869302.680 5 120178993.505 5  93646010.27147  22869313.17647
  20214676.047 6 106228835.869 6  82775749.51248  20214683.94148
  21157079.719 6 111181199.715 6  86634742.05849  21157090.14149
  23726967.820 5 124686061.971 5  97158018.58946  23726979.08646
  23418425.695 4 123064652.882 4  95894571.31446  23418434.90646
  21680693.992 6 113932816.973 6  88778843.97447  21680705.35547
 22  7  3 14 10 45.0000000  0  6G04G07G09G14G20G30                  
  22871968.945 5 120193007.974 5  93656930.63347  22871980.10947
  20215919.117 6 106235368.035 6  82780839.49348  20215927.03948
  21158364.883 6 111187952.326 6  86640003.83349  21158375.30549
  23724489.234 5 124673035.512 5  97147868.13446  23724500.37146
  23417037.977 3 123057353.997 3  95888883.87946  23417045.77046
  21680360.914 6 113931065.835 6  88777479.45647  21680371.95347
 22  7  3 14 10 50.0000000  0  6G04G07G09G14G20G30                  
  22874637.719 5 120207032.884 5  93667859.12347  22874648.37947
  20217164.711 6 106241915.049 6  82785941.07248  20217173.01248
  21159652.195 6 111194716.815 6  86645274.86349  21159662.22349
  23722011.586 5 124660017.181 5  97137724.01646  23722023.28546
  23415651.625 4 123050070.336 4  95883208.28446  23415659.92646
  21680029.977 6 113929328.261 6  88776125.51647  21680041.25047
 22  7  3 14 10 55.0000000  0  6G04G07G09G14G20G30                  
  22877308.703 5 120221068.395 5  93678795.89647  22877319.24647
  20218413.656 6 106248477.077 6  82791054.33548  20218421.60548
  21160941.602 6 111201493.351 6  86650555.27249  21160951.55149
  23719536.141 5 124647006.979 5  97127586.20846  23719547.64146
  23414268.141 4 123042801.977 4  95877544.63646  23414276.60246
  21679702.641 6 113927604.393 6  88774782.25047  21679713.12947
 22  7  3 14 11  0.0000000  0  6G04G07G09G14G20G30                  
  22879981.703 5 120235114.214 5  93689740.67747  22879992.35547
  20219665.055 6 106255053.812 6  82796179.07148  20219672.99648
  21162233.289 6 111208281.637 6  86655844.84749  21162243.32449
  23717061.938 5 124634004.771 5  97117454.65446  23717073.51246
  23412887.977 3 123035548.770 3  95871892.77646  23412896.33646
  21679377.023 6 113925893.996 6  88773449.48347  21679387.43447
 22  7  3 14 11  5.0000000  0  6G04G07G09G14G20G30                  
  22882656.844 5 120249170.196 5  93700693.38747  22882666.95347
  20220919.148 6 106261645.112 6  82801315.14748  20220927.56348
  21163527.398 6 111215081.568 6  86661143.48849  21163537.35249
  23714589.063 5 124621010.388 5  97107329.18846  23714601.02746
  23411511.508 4 123028310.573 4  95866252.61046  23411518.95746
  21679053.359 6 113924196.901 6  88772127.07447  21679064.88747
 22  7  3 14 11 10.0000000  0  6G04G07G09G14G20G30                  
  22885333.305 5 120263236.275 5  93711653.95747  22885343.30147
  20222176.375 6 106268250.882 6  82806462.50348  20222184.53148
  21164823.367 6 111221893.010 6  86666451.10749  21164833.94549
  23712117.703 5 124608023.733 5  97097209.73946  23712129.98446
  23410136.008 3 123021087.229 3  95860624.04946  23410145.27046
  21678733.500 6 113922512.965 6  88770814.92448  21678744.25048
 22  7  3 14 11 15.0000000  0  6G04G07G09G14G20G30                  
  22888011.719 5 120277312.134 5  93722622.16047  22888022.27747
  20223436.219 6 106274870.830 6  82811620.90848  20223444.11348
  21166121.242 6 111228715.673 6  86671767.46749  21166131.50849
  23709647.617 5 124595044.571 5  97087096.13146  23709660.30546
  23408764.102 3 123013878.547 3  95855006.90546  23408772.86346
  21678415.438 6 113920841.944 6  88769512.85948  21678426.31348
 22  7  3 14 11 20.0000000  0  6G04G07G09G14G20G30                  
  22890692.281 5 120291398.260 5  93733598.35447  22890703.13747
  20224698.250 6 106281505.403 6  82816790.69848  20224706.70348
  21167422.352 6 111235550.094 6  86677092.99049  21167432.35949
  23707179.789 5 124582073.358 5  97076988.71546  23707191.44546
  23407395.195 3 123006684.835 3  95849401.43546  23407404.31346
  21678100.242 6 113919184.332 6  88768221.20048  21678110.96948
 22  7  3 14 11 25.0000000  0  6G04G07G09G14G20G30                  
  22893375.109 5 120305494.113 5  93744582.13047  22893385.02347
  20225963.688 6 106288154.015 6  82821971.44148  20225971.91448
  21168725.023 6 111242395.683 6  86682427.21649  21168734.89849
  23704712.484 5 124569109.566 5  97066887.08746  23704725.02346
  23406029.094 3 122999505.739 3  95843807.31646  23406038.38746
  21677787.203 6 113917539.552 6  88766939.57148  21677797.82048
 22  7  3 14 11 30.0000000  0  6G04G07G09G14G20G30                  
  22896058.664 5 120319599.783 5  93755573.53646  22896069.59046
  20227231.977 6 106294816.766 6  82827163.19548  20227239.93048
  21170029.578 6 111249252.521 6  86687770.20349  21170039.72749
  23702247.234 5 124556153.235 5  97056791.26046  23702259.54346
  23404664.977 3 122992341.304 3  95838224.66946  23404674.60546
  21677476.242 6 113915907.641 6  88765667.95348  21677487.44548
 22  7  3 14 11 35.0000000  0  6G04G07G09G14G20G30                  
  22898744.648 5 120333715.553 5  93766572.85247  22898755.31347
  20228501.938 6 106301493.979 6  82832366.22348  20228510.34448
  21171336.828 6 111256120.989 6  86693122.25049  21171347.16849
  23699783.531 5 124543204.773 5  97046701.56147  23699796.01247
  23403304.930 3 122985191.783 3  95832653.63446  23403314.32046
  21677168.422 6 113914288.984 6  88764406.66747  21677179.51647
 22  7  3 14 11 40.0000000  0  6G04G07G09G14G20G30                  
  22901433.133 5 120347841.257 5  93777579.86947  22901443.35947
  20229775.344 6 106308185.438 6  82837580.34448  20229783.94548
  21172646.063 6 111263000.835 6  86698483.17049  21172655.92249
  23697320.695 5 124530263.944 5  97036617.82547  23697333.25447
  23401947.195 3 122978057.175 3  95827094.19146  23401957.05946
  21676863.023 6 113912683.329 6  88763155.51448  21676874.13748
 22  7  3 14 11 45.0000000  0  6G04G07G09G14G20G30                  
  22904122.758 5 120361976.838 5  93788594.60747  22904134.09047
  20231051.750 6 106314891.128 6  82842805.55948  20231060.37548
  21173957.148 6 111269892.021 6  86703852.92149  21173967.62949
  23694859.578 5 124517330.771 5  97026540.04747  23694871.87547
  23400591.750 2 122970937.268 2  95821546.20846  23400601.61346
  21676560.047 6 113911090.670 6  88761914.47348  21676570.79348
 22  7  3 14 11 50.0000000  0  6G04G07G09G14G20G30                  
  22906814.680 5 120376122.044 5  93799616.84047  22906825.65247
  20232330.094 6 106321610.697 6  82848041.59248  20232338.37948
  21175270.820 6 111276794.315 6  86709231.33549  21175280.74249
  23692400.273 5 124504404.936 5  97016467.99447  23692412.21947
  23399239.195 3 122963831.821 3  95816009.50946  23399249.35946
  21676258.867 6 113909510.719 6  88760683.35448  21676269.87148
 22  7  3 14 11 55.0000000  0  6G04G07G09G14G20G30                  
  22909508.750 5 120390277.168 5  93810646.80247  22909519.35247
  20233611.594 6 106328344.504 6  82853288.71048  20233620.01248
  21176586.406 6 111283707.995 6  86714618.60949  21176596.67249
  23689942.070 5 124491486.771 5  97006401.91747  23689953.86347
  23397891.031 3 122956741.202 3  95810484.34746  23397899.91046
  21675960.523 6 113907943.726 6  88759462.32448  21675971.94148
 22  7  3 14 12  0.0000000  0  6G04G07G09G14G20G30                  
  22912203.391 5 120404441.675 5  93821684.07047  22912214.53147
  20234895.828 6 106335092.042 6  82858546.53548  20234904.13748
  21177903.648 6 111290632.552 6  86720014.36949  21177914.27049
  23687484.828 5 124478575.788 5  96996341.44347  23687496.94947
  23396543.563 2 122949664.862 2  95804970.34346  23396553.48446
  21675665.016 6 113906389.256 6  88758251.04748  21675675.71948
 22  7  3 14 12  5.0000000  0  6G04G07G09G14G20G30                  
  22914900.805 5 120418615.478 5  93832728.59847  22914911.65247
  20236181.805 6 106341853.202 6  82863814.97248  20236190.81648
  21179223.898 6 111297567.912 6  86725418.54749  21179233.89549
  23685029.500 5 124465671.861 5  96986286.46747  23685041.68047
  23395199.977 3 122942602.708 3  95799467.34246  23395209.60246
  21675371.945 6 113904847.154 6  88757049.42548  21675382.62948
 22  7  3 14 12 10.0000000  0  6G04G07G09G14G20G30                  
  22917599.945 5 120432799.035 5  93843780.72847  22917610.90647
  20237471.609 6 106348628.397 6  82869094.34448  20237480.12548
  21180546.008 6 111304514.494 6  86730831.45949  21180555.96149
  23682575.391 5 124452775.494 5  96976237.36647  23682587.23847
  23393858.688 3 122935555.245 3  95793975.84546  23393868.62146
  21675080.758 6 113903317.869 6  88755857.78048  21675091.60248
 22  7  3 14 12 15.0000000  0  6G04G07G09G14G20G30                  
  22920300.133 5 120446992.148 5  93854840.28447  22920311.83647
  20238763.352 6 106355417.347 6  82874384.43148  20238772.02348
  21181869.641 6 111311472.094 6  86736252.96849  21181879.84449
  23680122.180 5 124439886.416 5  96966193.95447  23680134.16047
  23392521.078 3 122928522.269 3  95788495.56546  23392530.03146
  21674791.867 6 113901801.182 6  88754675.95648  21674802.76648
 22  7  3 14 12 20.0000000  0  6G04G07G09G14G20G30                  
  22923003.688 5 120461194.794 5  93865907.27147  22923014.69947
  20240057.891 6 106362220.125 6  82879685.30748  20240066.60548
  21183196.117 6 111318440.743 6  86741683.08249  21183206.12949
  23677670.938 5 124427004.760 5  96956156.32747  23677682.83647
  23391185.219 3 122921503.803 3  95783026.64746  23391194.31346
  21674505.820 6 113900297.086 6  88753503.94248  21674516.95748
 22  7  3 14 12 25.0000000  0  6G04G07G09G14G20G30                  
  22925707.961 5 120475406.955 5  93876981.67347  22925719.14147
  20241354.648 6 106369036.671 6  82884996.90348  20241363.39548
  21184523.773 6 111325420.391 6  86747121.77249  21184534.47749
  23675221.578 5 124414130.404 5  96946124.38147  23675233.39847
  23389853.352 3 122914499.693 3  95777568.86945  23389861.59445
  21674222.281 6 113898805.604 6  88752341.75848  21674232.44548
 22  7  3 14 12 30.0000000  0  6G04G07G09G14G20G30                  
  22928414.125 5 120489628.210 5  93888063.17946  22928425.30146
  20242654.891 6 106375866.576 6  82890318.90848  20242663.34848
  21185854.266 6 111332410.653 6  86752568.73249  21185864.47349
  23672773.250 5 124401263.001 5  96936097.85847  23672784.76647
  23388522.688 3 122907509.702 3  95772122.15046  23388531.60946
  21673940.641 6 113897326.281 6  88751189.05048  21673951.08248
 22  7  3 14 12 35.0000000  0  6G04G07G09G14G20G30                  
  22931122.398 5 120503858.933 5  93899152.04846  22931133.53946
  20243957.289 6 106382710.130 6  82895651.55348  20243965.98448
  21187186.406 6 111339411.871 6  86758024.21749  21187196.98049
  23670326.047 5 124388402.876 5  96926076.99947  23670337.53947
  23387194.727 3 122900534.081 3  95766686.56246  23387204.19146
  21673661.227 6 113895859.446 6  88750046.05848  21673671.81348
 22  7  3 14 12 40.0000000  0  6G04G07G09G14G20G30                  
  22933831.828 5 120518098.877 5  93910248.09346  22933842.85246
  20245261.813 6 106389567.140 6  82900994.67948  20245270.18848
  21188520.828 6 111346423.793 6  86763488.05349  21188531.06649
  23667880.563 5 124375549.812 5  96916061.63547  23667891.68447
  23385870.719 2 122893572.600 2  95761262.06245  23385879.77345
  21673384.406 6 113894404.860 6  88748912.62448  21673395.19948
 22  7  3 14 12 45.0000000  0  6G04G07G09G14G20G30                  
  22936543.773 5 120532348.141 5  93921351.42046  22936554.41446
  20246569.438 6 106396437.644 6  82906348.31348  20246577.69948
  21189857.172 6 111353446.563 6  86768960.33749  21189867.41849
  23665435.586 5 124362703.921 5  96906051.88447  23665447.19147
  23384548.133 2 122886625.449 2  95755848.71145  23384557.70345
  21673110.047 6 113892962.626 6  88747788.80948  21673120.64848
 22  7  3 14 12 50.0000000  0  6G04G07G09G14G20G30                  
  22939257.305 4 120546606.649 4  93932461.92946  22939267.62946
  20247879.398 6 106403321.632 6  82911712.46548  20247887.92648
  21191195.703 6 111360480.093 6  86774441.00349  21191206.09449
  23662992.734 5 124349865.176 5  96896047.67347  23663004.22347
  23383228.375 1 122879692.420 1  95750446.28945  23383238.53145
  21672838.039 6 113891532.725 6  88746674.60748  21672848.68448
 22  7  3 14 12 55.0000000  0  6G04G07G09G14G20G30                  
  22941972.625 4 120560874.131 4  93943579.43647  22941982.77047
  20249191.648 6 106410218.815 6  82917086.89348  20249200.24648
  21192536.102 6 111367524.067 6  86779929.82149  21192546.18449
  23660550.727 5 124337033.241 5  96886048.78947  23660562.05147
  23381911.695 1 122872773.272 1  95745054.79445  23381921.69945
  21672568.070 6 113890114.810 6  88745569.73948  21672578.71548
 22  7  3 14 13  0.0000000  0  6G04G07G09G14G20G30                  
  22944688.789 5 120575150.565 5  93954703.91946  22944699.20346
  20250506.609 6 106417129.172 6  82922471.59448  20250514.79348
  21193878.594 6 111374578.601 6  86785426.85649  21193888.66449
  23658110.195 5 124324208.228 5  96876055.29247  23658120.96547
  23380596.648 1 122865868.223 1  95739674.23545  23380607.60245
  21672301.000 6 113888708.913 6  88744474.24448  21672311.33248
 22  7  3 14 13  5.0000000  0  6G04G07G09G14G20G30                  
  22647614.820 5 119014019.208 5  92738237.92846  22647625.99246
  19952032.133 6 104848634.407 6  81700267.88148  19952040.66848
  20895430.625 6 109806225.372 6  85563333.42849  20895441.01649
  23355878.211 6 122735967.926 6  95638465.47147  23355889.03947
  23079490.477 1 121283556.141 1  94506703.75945  23079503.54745
  21372243.078 6 112311895.112 6  87515788.16648  21372252.98848
 22  7  3 14 13 10.0000000  0  6G04G07G09G14G20G30                  
  22650335.055 5 119028313.916 5  92749376.67046  22650345.97746
  19953352.070 6 104855571.312 6  81705673.25148  19953360.23048
  20896777.453 6 109813301.141 6  85568847.01349  20896787.59449
  23353440.203 5 122723156.892 5  95628482.87547  23353451.29747
  23078182.773 1 121276679.257 1  94501345.21745  23078195.03545
  21371979.727 6 112310513.485 6  87514711.58248  21371990.53948
 22  7  3 14 13 15.0000000  0  6G04G07G09G14G20G30                  
  22653057.367 5 119042617.552 5  92760522.35246  22653067.61746
  19954675.180 6 104862521.293 6  81711088.83848  19954682.81348
  20898125.953 6 109820387.393 6  85574368.76449  20898135.95749
  23351003.375 6 122710352.812 6  95618505.68847  23351014.77747
  23076877.430 1 121269816.367 1  94495997.51246  23076888.82846
  21371719.266 6 112309143.853 6  87513644.33448  21371730.36348
 22  7  3 14 13 20.0000000  0  6G04G07G09G14G20G30                  
  22655781.031 5 119056930.041 5  92771674.94246  22655791.29746
  19955999.398 6 104869484.328 6  81716514.58048  19956008.12948
  20899476.508 6 109827484.038 6  85579898.61349  20899486.65649
  23348567.688 6 122697555.516 6  95608533.78747  23348579.25447
  23075575.063 1 121262967.390 1  94490660.64245  23075585.64545
  21371460.820 6 112307786.090 6  87512586.34148  21371471.45348
 22  7  3 14 13 25.0000000  0  6G04G07G09G14G20G30                  
  22658505.898 5 119071251.106 5  92782834.20047  22658516.52347
  19957327.688 6 104876460.081 6  81721950.23048  19957335.38348
  20900828.484 6 109834590.801 6  85585436.35349  20900838.85249
  23346134.023 6 122684764.693 6  95598566.94547  23346145.55147
  23074274.656 1 121256132.040 1  94485334.43945  23074285.02045
  21371205.008 6 112306439.919 6  87511537.38548  21371215.72348
 22  7  3 14 13 30.0000000  0  6G04G07G09G14G20G30                  
  22661232.586 5 119085581.095 5  92794000.43147  22661243.91847
  19958656.797 6 104883448.909 6  81727396.08148  19958665.36348
  20902182.727 6 109841708.010 6  85590982.22949  20902192.94949
  23343701.453 6 122671980.794 6  95588605.48047  23343712.80947
  23072978.719 2 121249310.701 2  94480019.11945  23072986.60945
  21370950.891 6 112305105.671 6  87510497.71248  21370961.63748
 22  7  3 14 13 35.0000000  0  6G04G07G09G14G20G30                  
  22663961.500 5 119099920.113 5  92805173.68747  22663972.53147
  19959989.141 6 104890450.925 6  81732852.19748  19959997.72348
  20903538.953 6 109848835.813 6  85596536.35949  20903549.27049
  23341269.992 6 122659203.921 6  95578649.49047  23341281.23847
  23071681.977 2 121242503.443 2  94474714.72846  23071691.28546
  21370699.086 6 112303783.477 6  87509467.43448  21370709.99248
 22  7  3 14 13 40.0000000  0  6G04G07G09G14G20G30                  
  22666691.359 5 119114267.852 5  92816353.74547  22666703.07047
  19961324.406 6 104897465.800 6  81738318.32948  19961333.12548
  20904897.695 6 109855973.891 6  85602098.49249  20904907.49249
  23338840.086 6 122646433.692 6  95568698.69047  23338851.23847
  23070389.086 3 121235709.980 3  94469421.14146  23070398.69546
  21370449.852 6 112302472.993 6  87508446.28148  21370460.51648
 22  7  3 14 13 45.0000000  0  6G04G07G09G14G20G30                  
  22669423.813 5 119128624.689 5  92827540.87647  22669434.81647
  19962661.594 6 104904493.826 6  81743794.71948  19962670.11748
  20906258.125 6 109863122.557 6  85607668.88149  20906268.19149
  23336410.727 5 122633670.564 5  95558753.41447  23336422.25447
  23069099.766 3 121228930.678 3  94464138.57546  23069108.77046
  21370202.945 6 112301174.618 6  87507434.56348  21370213.57448
 22  7  3 14 13 50.0000000  0  6G04G07G09G14G20G30                  
  22672157.250 5 119142990.381 5  92838734.90947  22672168.41047
  19964001.758 6 104911534.801 6  81749281.19748  19964010.13348
  20907620.492 6 109870281.630 6  85613247.37549  20907630.42649
  23333983.656 6 122620914.287 6  95548813.46947  23333995.09447
  23067812.602 3 121222165.280 3  94458866.83246  23067821.03546
  21369957.914 6 112299888.045 6  87506432.04648  21369968.73048
 22  7  3 14 13 55.0000000  0  6G04G07G09G14G20G30                  
  22674892.570 5 119157364.643 5  92849935.61747  22674903.77047
  19965344.180 6 104918588.448 6  81754777.53948  19965352.14848
  20908984.766 6 109877450.807 6  85618833.74549  20908994.46549
  23331557.086 6 122608164.594 6  95538878.66547  23331568.79347
  23066526.406 3 121215413.558 3  94453605.74946  23066536.35546
  21369715.383 6 112298613.028 6  87505438.52948  21369725.87148
 22  7  3 14 14  0.0000000  0  6G04G07G09G14G20G30                  
  22677629.867 5 119171747.729 5  92861143.21847  22677641.03547
  19966688.656 6 104925655.030 6  81760283.96348  19966696.84448
  20910350.641 6 109884630.392 6  85624428.22849  20910361.06349
  23329132.484 5 122595421.751 5  95528949.19947  23329143.98047
  23065245.547 3 121208675.802 3  94448355.57446  23065254.13746
  21369474.688 6 112297349.872 6  87504454.25848  21369485.71948
 22  7  3 14 14  5.0000000  0  6G04G07G09G14G20G30                  
  22680368.227 5 119186139.502 5  92872357.57646  22680379.91846
  19968036.117 6 104932734.383 6  81765800.34048  19968044.08248
  20911719.023 6 109891820.243 6  85630030.71349  20911729.11349
  23326708.773 6 122582685.624 6  95519024.94947  23326720.18047
  23063964.828 3 121201951.828 3  94443116.08446  23063974.85246
  21369236.945 6 112296098.362 6  87503479.05748  21369247.81648
 22  7  3 14 14 10.0000000  0  6G04G07G09G14G20G30                  
  22683109.539 5 119200539.856 5  92883578.63547  22683120.05947
  19969385.883 6 104939826.363 6  81771326.56748  19969393.53548
  20913089.070 6 109899020.191 6  85635641.05949  20913099.64849
  23324285.727 5 122569956.120 5  95509105.88046  23324297.83646
  23062688.203 2 121195241.496 2  94437887.27546  23062697.90646
  21369000.602 6 112294858.407 6  87502512.86148  21369011.79748
 22  7  3 14 14 15.0000000  0  6G04G07G09G14G20G30                  
  22685850.578 5 119214948.717 5  92894806.29746  22685862.08646
  19970737.422 6 104946930.914 6  81776862.57748  19970745.29348
  20914461.008 6 109906230.227 6  85641259.27249  20914471.32449
  23321865.594 6 122557233.155 6  95499191.89447  23321876.79747
  23061414.930 2 121188544.817 2  94432669.04146  23061423.17646
  21368767.016 6 112293629.903 6  87501555.59148  21368777.67248
 22  7  3 14 14 20.0000000  0  6G04G07G09G14G20G30                  
  22688594.664 5 119229366.313 5  92906040.78447  22688605.20747
  19972091.852 6 104954048.250 6  81782408.54848  19972100.49648
  20915834.742 6 109913450.566 6  85646885.51049  20915845.21549
  23319444.844 6 122544517.015 6  95489283.22647  23319456.48047
  23060142.758 2 121181861.855 2  94427461.57046  23060151.11746
  21368535.859 6 112292413.128 6  87500607.45648  21368546.57848
 22  7  3 14 14 25.0000000  0  6G04G07G09G14G20G30                  
  22691340.047 5 119243792.320 5  92917281.81347  22691350.21547
  19973448.102 6 104961178.059 6  81787964.25048  19973456.46148
  20917210.383 6 109920680.897 6  85652519.53349  20917221.48849
  23317027.336 6 122531807.401 6  95479379.65447  23317038.02047
  23058873.250 2 121175192.532 2  94422264.67645  23058882.43845
  21368306.125 6 112291207.773 6  87499668.22548  21368317.11748
 22  7  3 14 14 30.0000000  0  6G04G07G09G14G20G30                  
  22694086.219 5 119258227.394 5  92928529.93047  22694097.53547
  19974807.688 6 104968320.995 6  81793530.17548  19974815.91848
  20918588.625 6 109927921.838 6  85658161.82749  20918599.23049
  23314609.531 5 122519104.884 5  95469481.59746  23314620.25846
  23057606.430 1 121168537.395 1  94417078.88546  23057616.53946
  21368078.891 6 112290014.386 6  87498738.31348  21368089.75848
 22  7  3 14 14 35.0000000  0  6G04G07G09G14G20G30                  
  22696835.078 5 119272670.805 5  92939784.52347  22696845.88347
  19976169.336 6 104975476.306 6  81799105.73848  19976177.90648
  20919968.445 6 109935172.732 6  85663811.87749  20919978.98849
  23312193.570 5 122506408.782 5  95459588.56447  23312203.87947
  23056343.430 1 121161895.755 1  94411903.57245  23056352.46945
  21367854.164 6 112288832.321 6  87497817.22948  21367864.91448
 22  7  3 14 14 40.0000000  0  6G04G07G09G14G20G30                  
  22699585.023 5 119287122.905 5  92951045.89747  22699596.07847
  19977533.117 6 104982644.319 6  81804691.20348  19977541.38748
  20921350.352 6 109942433.864 6  85669469.90649  20921361.05149
  23309778.633 5 122493719.522 5  95449700.84746  23309788.66846
  23055079.891 1 121155267.938 1  94406739.04646  23055091.20746
  21367631.711 6 112287661.896 6  87496905.21648  21367642.80148
 22  7  3 14 14 45.0000000  0  6G04G07G09G14G20G30                  
  22702337.172 5 119301583.467 5  92962313.86747  22702347.61347
  19978899.898 6 104989824.791 6  81810286.37948  19978908.11748
  20922733.805 6 109949705.061 6  85675135.76649  20922744.67649
  23307365.734 5 122481036.851 5  95439818.28747  23307375.51647
  23053820.000 1 121148653.746 1  94401585.15345  23053832.14145
  21367410.883 6 112286502.906 6  87496002.11148  21367421.96148
 22  7  3 14 14 50.0000000  0  6G04G07G09G14G20G30                  
  22705089.766 5 119316052.314 5  92973588.28947  22705100.92647
  19980268.133 6 104997017.520 6  81815891.09848  19980276.72348
  20924119.453 6 109956986.078 6  85680809.28549  20924129.96149
  23304953.391 5 122468360.515 5  95429940.62546  23304963.08246
  23052565.070 1 121142052.983 1  94396441.72445  23052576.09845
  21367192.133 6 112285355.093 6  87495107.71148  21367203.39548
 22  7  3 14 14 55.0000000  0  6G04G07G09G14G20G30                  
  22707844.680 5 119330529.148 5  92984868.92547  22707855.78147
  19981639.508 6 105004222.286 6  81821505.20448  19981647.60948
  20925506.906 6 109964276.729 6  85686490.31349  20925517.17649
  23302542.477 5 122455690.400 5  95420067.83646  23302552.18846
  23051311.211 1 121135465.51111  94391308.63255  23051322.60245
  21366976.211 6 112284218.247 6  87494221.87048  21366987.41448
 22  7  3 14 15  0.0000000  0  6G04G07G09G14G20G30                  
  22710601.367 5 119345014.509 5  92996156.22247  22710612.24647
  19983012.898 6 105011439.489 6  81827128.99648  19983021.01648
  20926896.305 6 109971577.461 6  85692179.18949  20926907.17249
  23300131.938 5 122443026.910 5  95410200.22246  23300142.64146
  23050062.344 1 121128891.714 1  94386186.18245  23050071.84845
  21366762.023 6 112283092.831 6  87493344.92648  21366773.21148
 22  7  3 14 15  5.0000000  0  6G04G07G09G14G20G30                  
  22713359.648 5 119359508.057 5  93007449.87646  22713369.87146
  19984388.563 6 105018668.889 6  81832762.30248  19984396.53148
  20928287.055 6 109978887.997 6  85697875.71549  20928297.54749
  23297723.906 5 122430369.801 5  95400337.55446  23297733.78546
  23048813.953 2 121122331.327 2  94381074.17845  23048823.41845
  21366550.063 6 112281978.568 6  87492476.66948  21366561.75048
 22  7  3 14 15 10.0000000  0  6G04G07G09G14G20G30                  
  22716119.227 5 119374010.121 5  93018750.18547  22716129.94147
  19985766.953 6 105025910.701 6  81838405.27248  19985774.26648
  20929680.266 6 109986208.606 6  85703580.08749  20929690.96549
  23295315.883 5 122417719.284 5  95390480.03146  23295326.59046
  23047569.031 2 121115784.643 2  94375972.89046  23047577.22746
  21366340.180 6 112280875.711 6  87491617.30748  21366351.50048
 22  7  3 14 15 15.0000000  0  6G04G07G09G14G20G30                  
  22718880.406 5 119388520.329 5  93030056.82747  22718891.28547
  19987146.727 6 105033164.659 6  81844057.70548  19987154.89848
  20931075.453 6 109993538.991 6  85709292.06549  20931085.84449
  23292910.477 5 122405075.191 5  95380627.51646  23292920.63346
  23046325.484 2 121109251.339 2  94370881.98546  23046333.76246
  21366132.336 6 112279783.926 6  87490766.57248  21366143.84048
 22  7  3 14 15 20.0000000  0  6G04G07G09G14G20G30                  
  22721643.031 5 119403038.568 5  93041369.72546  22721654.16846
  19988529.617 6 105040430.624 6  81849719.50248  19988537.81348
  20932472.078 6 110000879.040 6  85715011.58649  20932482.62549
  23290505.281 4 122392437.274 4  95370779.82346  23290515.78946
  23045085.219 3 121102731.313 3  94365801.44546  23045093.42246
  21365926.852 6 112278703.153 6  87489924.41548  21365938.05148
 22  7  3 14 15 25.0000000  0  6G04G07G09G14G20G30                  
  22724407.711 5 119417564.864 5  93052688.92246  22724418.56646
  19989914.430 6 105047708.535 6  81855390.59948  19989922.62948
  20933870.477 6 110008228.677 6  85720738.57749  20933881.36349
  23288101.320 4 122379805.616 4  95360936.97146  23288112.22746
  23043846.227 3 121096224.564 3  94360731.22946  23043855.34446
  21365723.023 6 112277633.280 6  87489090.75148  21365734.05948
 22  7  3 14 15 30.0000000  0  6G04G07G09G14G20G30                  
  22727173.250 5 119432099.557 5  93064014.63946  22727184.33646
  19991301.984 6 105054998.782 6  81861071.31248  19991309.94948
  20935271.055 6 110015588.357 6  85726473.39249  20935282.09449
  23285699.344 4 122367180.577 4  95351099.30746  23285710.04746
  23042610.164 3 121089731.431 3  94355671.68146  23042619.45346
  21365521.563 6 112276574.725 6  87488265.90848  21365532.82848
 22  7  3 14 15 35.0000000  0  6G04G07G09G14G20G30                  
  22729941.203 5 119446642.273 5  93075346.62947  22729951.40647
  19992691.336 6 105062300.953 6  81866761.31848  19992699.53548
  20936673.367 6 110022957.679 6  85732215.71749  20936683.99249
  23283297.945 4 122354561.764 4  95341266.48946  23283308.84446
  23041378.391 4 121083251.592 4  94350622.44746  23041386.57046
  21365322.523 6 112275527.115 6  87487449.59048  21365333.19548
 22  7  3 14 15 40.0000000  0  6G04G07G09G14G20G30                  
  22732709.484 5 119461192.776 5  93086684.66946  22732720.09046
  19994083.328 6 105069614.854 6  81872460.45748  19994091.67648
  20938077.672 6 110030336.402 6  85737965.37349  20938088.11349
  23280898.281 4 122341949.004 4  95331438.36746  23280908.59846
  23040146.602 3 121076784.813 3  94345583.38646  23040156.29746
  21365125.000 6 112274490.226 6  87486641.62948  21365136.00448
 22  7  3 14 15 45.0000000  0  6G04G07G09G14G20G30                  
  22735480.289 5 119475751.562 5  93098029.17446  22735490.89546
  19995477.648 6 105076940.919 6  81878169.07448  19995485.67648
  20939483.555 6 110037725.028 6  85743722.74149  20939494.17649
  23278499.633 4 122329342.786 4  95321615.38246  23278509.79346
  23038918.031 4 121070331.506 4  94340554.82346  23038927.99646
  21364929.984 6 112273464.483 6  87485842.35048  21364940.60548
 22  7  3 14 15 50.0000000  0  6G04G07G09G14G20G30                  
  22738252.273 5 119490318.302 5  93109379.86746  22738262.82446
  19996873.391 6 105084278.873 6  81883886.96048  19996882.20748
  20940891.820 6 110045123.235 6  85749487.57449  20940902.20349
  23276101.383 5 122316742.740 5  95311797.17246  23276112.19946
  23037693.008 3 121063891.527 3  94335536.68146  23037702.35546
  21364736.844 6 112272449.618 6  87485051.55648  21364747.97748
 22  7  3 14 15 55.0000000  0  6G04G07G09G14G20G30                  
  22741024.883 5 119504892.727 5  93120736.54647  22741035.93847
  19998272.930 6 105091628.406 6  81889613.86048  19998280.78148
  20942300.984 6 110052530.720 6  85755259.64349  20942311.55949
  23273704.492 5 122304148.660 5  95301983.63946  23273715.54746
  23036471.070 3 121057464.514 3  94330528.63046  23036479.18046
  21364545.422 6 112271445.312 6  87484268.97948  21364556.48448
 22  7  3 14 16  0.0000000  0  6G04G07G09G14G20G30                  
  22743800.453 5 119519475.313 5  93132099.60747  22743811.18447
  19999673.242 6 105098989.962 6  81895350.14148  19999681.62548
  20943712.883 6 110059948.015 6  85761039.35449  20943723.16849
  23271308.758 5 122291561.040 5  95292175.10846  23271320.18046
  23035250.133 3 121051050.894 3  94325530.95546  23035259.21946
  21364356.523 6 112270452.054 6  87483495.01048  21364367.42648
 22  7  3 14 16  5.0000000  0  6G04G07G09G14G20G30                  
  22746576.453 5 119534065.635 5  93143468.67446  22746587.62146
  20001076.422 6 105106363.112 6  81901095.45048  20001084.93448
  20945125.539 6 110067374.639 6  85766826.33149  20945136.23849
  23268914.797 5 122278979.378 5  95282371.23546  23268925.82846
  23034032.633 3 121044650.267 3  94320543.45546  23034041.07446
  21364169.852 6 112269469.383 6  87482729.28848  21364180.40248
 22  7  3 14 16 10.0000000  0  6G04G07G09G14G20G30                  
  22749354.164 5 119548663.568 5  93154843.68446  22749365.16046
  20002481.844 6 105113747.768 6  81906849.73248  20002489.85548
  20946540.547 6 110074810.538 6  85772620.54149  20946551.32049
  23266521.477 5 122266403.676 5  95272571.99746  23266533.18446
  23032816.563 2 121038262.618 2  94315566.08646  23032825.24246
  21363984.969 6 112268497.268 6  87481971.79748  21363995.45748
 22  7  3 14 16 15.0000000  0  6G04G07G09G14G20G30                  
  22752133.742 5 119563269.237 5  93166224.70946  22752144.66446
  20003889.477 6 105121144.029 6  81912613.05248  20003897.84048
  20947957.906 6 110082255.796 6  85778422.04749  20947967.98049
  23264129.555 5 122253834.044 5  95262777.50746  23264141.00446
  23031604.008 3 121031888.002 3  94310598.85446  23031612.18046
  21363801.773 6 112267535.750 6  87481222.55748  21363812.54748
 22  7  3 14 16 20.0000000  0  6G04G07G09G14G20G30                  
  22754915.547 4 119577882.536 4  93177611.69446  22754925.82446
  20005298.234 6 105128551.773 6  81918385.31248  20005306.92648
  20949376.180 6 110089710.338 6  85784230.77949  20949386.74249
  23261739.188 5 122241270.316 5  95252987.60546  23261750.03546
  23030394.531 3 121025526.312 3  94305641.68846  23030401.77346
  21363620.477 6 112266584.722 6  87480481.49548  21363631.47348
 22  7  3 14 16 25.0000000  0  6G04G07G09G14G20G30                  
  22757697.648 5 119592503.829 5  93189004.89146  22757707.74646
  20006710.766 6 105135971.311 6  81924166.77848  20006718.96948
  20950796.523 6 110097174.476 6  85790046.99249  20950806.87949
  23259349.914 5 122228712.926 5  95243202.65546  23259360.61346
  23029185.680 2 121019177.978 2  94300694.94246  23029193.59846
  21363441.438 6 112265644.490 6  87479748.85448  21363452.64548
 22  7  3 14 16 30.0000000  0  6G04G07G09G14G20G30                  
  22760481.227 5 119607133.209 5  93200404.40546  22760491.70346
  20008124.805 6 105143402.800 6  81929957.54648  20008133.23448
  20952219.055 6 110104648.372 6  85795870.81149  20952229.21149
  23256961.070 5 122216161.949 5  95233422.68846  23256971.84846
  23027979.977 2 121012843.082 2  94295758.63746  23027987.72346
  21363264.898 6 112264715.276 6  87479024.78748  21363276.07848
 22  7  3 14 16 35.0000000  0  6G04G07G09G14G20G30                  
  22763266.563 5 119621770.066 5  93211809.73946  22763277.15246
  20009541.227 6 105150845.590 6  81935757.12648  20009549.56648
  20953642.977 6 110112131.413 6  85801701.74649  20953653.48049
  23254573.766 5 122203616.825 5  95223647.27747  23254584.31347
  23026777.094 2 121006521.025 2  94290832.36146  23026784.95746
  21363089.805 6 112263796.384 6  87478308.77048  21363101.22748
 22  7  3 14 16 40.0000000  0  6G04G07G09G14G20G30                  
  22766053.211 5 119636414.635 5  93223221.08046  22766063.67246
  20010959.570 6 105158299.833 6  81941565.63348  20010967.83648
  20955068.344 6 110119623.780 6  85807539.95249  20955078.87549
  23252187.320 5 122191077.740 5  95213876.59246  23252198.66446
  23025577.133 2 121000212.005 2  94285916.21246  23025584.21146
  21362917.406 6 112262888.054 6  87477600.98148  21362928.44548
 22  7  3 14 16 45.0000000  0  6G04G07G09G14G20G30                  
  22768841.398 5 119651067.026 5  93234638.53146  22768851.80146
  20012380.148 6 105165765.729 6  81947383.21548  20012388.64848
  20956495.836 6 110127125.647 6  85813385.57249  20956506.40249
  23249802.234 5 122178544.896 5  95204110.75646  23249813.44946
  23024378.500 2 120993916.190 2  94281010.40045  23024386.10245
  21362746.305 6 112261990.379 6  87476901.49548  21362757.47748
 22  7  3 14 16 50.0000000  0  6G04G07G09G14G20G30                  
  22771631.734 5 119665726.926 5  93246061.82846  22771641.09846
  20013803.289 6 105173242.910 6  81953209.59448  20013811.25848
  20957925.172 6 110134636.627 6  85819238.27849  20957935.88349
  23247418.180 5 122166017.924 5  95194349.49647  23247429.61347
  23023183.484 2 120987633.241 2  94276114.58745  23023190.74245
  21362577.250 6 112261103.046 6  87476210.07048  21362588.19548
 22  7  3 14 16 55.0000000  0  6G04G07G09G14G20G30                  
  22774422.883 5 119680394.507 5  93257491.10746  22774432.36346
  20015228.070 6 105180731.553 6  81959044.88748  20015236.18048
  20959356.383 6 110142157.001 6  85825098.30849  20959367.16849
  23245035.961 5 122153496.990 5  95184592.95347  23245047.19147
  23021989.852 2 120981363.376 2  94271228.98946  23021997.80146
  21362410.203 6 112260226.278 6  87475526.87148  21362421.73448
 22  7  3 14 17  0.0000000  0  6G04G07G09G14G20G30                  
  22777215.484 5 119695069.602 5  93268926.24646  22777225.70746
  20016655.586 6 105188231.541 6  81964889.03648  20016663.75448
  20960789.195 6 110149686.569 6  85830965.50449  20960799.71949
  23242654.695 5 122140982.038 5  95174841.05446  23242665.66046
  23020799.172 2 120975106.392 2  94266353.40045  23020806.57445
  21362245.742 6 112259359.881 6  87474851.75548  21362256.71148
 22  7  3 14 17  5.0000000  0  6G04G07G09G14G20G30                  
  22780009.938 5 119709752.189 5  93280367.22647  22780019.61747
  20018084.641 6 105195742.729 6  81970741.91848  20018092.43448
  20962223.875 6 110157225.265 6  85836839.80949  20962234.17249
  23240274.500 5 122128472.960 5  95165093.73547  23240285.32447
  23019610.117 2 120968862.264 2  94261487.84545  23019618.54745
  21362082.180 6 112258503.767 6  87474184.64948  21362093.96548
 22  7  3 14 17 10.0000000  0  6G04G07G09G14G20G30                  
  22782804.750 5 119724442.249 5  93291814.01446  22782815.15646
  20019516.055 6 105203265.173 6  81976603.55448  20019523.94548
  20963659.797 6 110164773.109 6  85842721.25149  20963670.63349
  23237894.766 5 122115969.818 5  95155351.04147  23237905.85947
  23018424.070 2 120962631.063 2  94256632.35445  23018432.39845
  21361921.344 6 112257657.963 6  87473525.58248  21361932.87548
 22  7  3 14 17 15.0000000  0  6G04G07G09G14G20G30                  
  22785601.156 5 119739140.152 5  93303266.92246  22785612.26246
  20020949.992 6 105210799.197 6  81982474.22148  20020957.78548
  20965098.086 6 110172330.469 6  85848610.10549  20965108.55949
  23235516.969 5 122103472.926 5  95145613.23447  23235528.25047
  23017241.281 2 120956413.146 2  94251787.23145  23017249.20745
  21361762.977 6 112256822.813 6  87472874.81548  21361773.91448
 22  7  3 14 17 20.0000000  0  6G04G07G09G14G20G30                  
  22788399.219 5 119753845.397 5  93314725.54446  22788409.55146
  20022385.844 6 105218344.307 6  81988353.53748  20022393.35548
  20966538.266 6 110179896.828 6  85854505.96649  20966548.63349
  23233139.930 5 122090981.839 5  95135879.93347  23233151.31347
  23016060.367 3 120950207.996 3  94246952.02145  23016068.56645
  21361606.180 6 112255997.849 6  87472231.99748  21361616.78948
 22  7  3 14 17 25.0000000  0  6G04G07G09G14G20G30                  
  22791199.500 5 119768557.882 5  93326189.81046  22791209.75446
  20023823.469 6 105225900.420 6  81994241.41448  20023831.36748
  20967979.766 6 110187472.128 6  85860408.80649  20967990.06649
  23230764.086 5 122078496.404 5  95126151.02847  23230775.49647
  23014882.313 3 120944015.501 3  94242126.72346  23014890.07846
  21361451.055 6 112255182.951 6  87471597.01148  21361461.96148
 22  7  3 14 17 30.0000000  0  6G04G07G09G14G20G30                  
  22794001.023 5 119783277.840 5  93337659.91846  22794010.64846
  20025263.523 6 105233467.733 6  82000138.01748  20025271.34848
  20969422.773 6 110195056.577 6  85866318.76249  20969433.42649
  23228389.320 5 122066016.980 5  95116426.81947  23228400.86347
  23013705.961 3 120937835.923 3  94237311.43546  23013714.46946
  21361297.664 6 112254378.326 6  87470970.02548  21361308.60248
 22  7  3 14 17 35.0000000  0  6G04G07G09G14G20G30                  
  22796802.898 5 119798005.676 5  93349136.15346  22796813.09046
  20026705.695 6 105241046.668 6  82006043.67148  20026713.70748
  20970868.188 6 110202650.616 6  85872236.19049  20970878.25449
  23226016.055 6 122053543.920 6  95106707.56447  23226027.44947
  23012533.016 3 120931669.686 3  94232506.56246  23012541.19946
  21361146.773 6 112253584.424 6  87470351.40848  21361157.85248
 22  7  3 14 17 40.0000000  0  6G04G07G09G14G20G30                  
  22799607.148 5 119812740.908 5  93360618.13746  22799617.41046
  20028150.172 6 105248636.675 6  82011957.96948  20028157.89548
  20972314.742 6 110210253.722 6  85878160.68949  20972325.39849
  23223643.391 5 122041076.703 5  95096992.86547  23223655.60247
  23011361.898 3 120925516.275 3  94227711.73046  23011370.31346
  21360997.297 6 112252800.697 6  87469740.70948  21361008.32448
 22  7  3 14 17 45.0000000  0  6G04G07G09G14G20G30                  
  22802412.531 5 119827483.906 5  93372106.18446  22802422.92646
  20029596.484 6 105256238.259 6  82017881.28748  20029604.29348
  20973763.266 6 110217866.282 6  85884092.55749  20973773.84449
  23221272.086 6 122028615.765 6  95087283.05147  23221283.91047
  23010192.805 3 120919376.141 3  94222927.20846  23010202.36746
  21360850.656 6 112252027.530 6  87469138.23748  21360861.66848
 22  7  3 14 17 50.0000000  0  6G04G07G09G14G20G30                  
  22805219.750 5 119842234.549 5  93383600.19646  22805229.69546
  20031045.117 6 105263851.192 6  82023813.43848  20031053.25048
  20975214.234 6 110225488.200 6  85890031.71949  20975224.08649
  23218901.547 6 122016161.013 6  95077578.06347  23218914.06647
  23009028.281 4 120913249.084 4  94218152.87446  23009036.65646
  21360704.703 6 112251264.795 6  87468543.89548  21360716.34448
 22  7  3 14 17 55.0000000  0  6G04G07G09G14G20G30                  
  22808028.031 5 119856992.560 5  93395099.93846  22808038.49646
  20032496.336 6 105271475.129 6  82029754.16848  20032503.95348
  20976666.391 6 110233119.134 6  85895977.89949  20976676.16449
  23216532.938 6 122003712.120 6  95067877.63647  23216544.82447
  23007863.336 4 120907134.809 4  94213388.52146  23007873.20346
  21360561.992 6 112250512.249 6  87467957.49248  21360573.18048
 22  7  3 14 18  0.0000000  0  6G04G07G09G14G20G30                  
  22810837.680 5 119871757.526 5  93406605.09546  22810848.07446
  20033948.914 6 105279109.705 6  82035703.18548  20033956.80548
  20978119.711 6 110240758.748 6  85901930.84549  20978130.39549
  23214165.281 6 121991268.724 6  95058181.50047  23214176.85547
  23006702.578 4 120901033.005 4  94208633.84246  23006711.96146
  21360421.031 6 112249769.413 6  87467378.66048  21360431.69148
 22  7  3 14 18  5.0000000  0  6G04G07G09G14G20G30                  
  22813648.883 5 119886529.523 5  93418115.74946  22813659.50846
  20035404.016 6 105286755.017 6  82041660.58348  20035412.07448
  20979575.141 6 110248407.123 6  85907890.62249  20979585.52049
  23211797.930 6 121978830.933 6  95048489.72947  23211809.73847
  23005544.641 4 120894943.759 4  94203888.99046  23005553.64546
  21360281.492 6 112249036.404 6  87466807.48748  21360292.26248
 22  7  3 14 18 10.0000000  0  6G04G07G09G14G20G30                  
  22816461.047 5 119901308.945 5  93429632.18647  22816472.03147
  20036861.055 6 105294411.342 6  82047626.52848  20036868.48848
  20981032.297 6 110256064.625 6  85913857.50849  20981042.59449
  23209432.508 6 121966399.104 6  95038802.60347  23209444.05947
  23004388.250 4 120888867.492 4  94199154.23846  23004397.77746
  21360144.063 6 112248313.647 6  87466244.31048  21360155.05948
 22  7  3 14 18 15.0000000  0  6G04G07G09G14G20G30                  
  22819275.695 5 119916095.594 5  93441154.23547  22819285.84847
  20038319.813 6 105302078.535 6  82053600.96648  20038327.35248
  20982491.273 6 110263731.061 6  85919831.35949  20982501.67649
  23207068.523 6 121953973.089 6  95029120.00547  23207079.71947
  23003234.516 4 120882803.913 4  94194429.38146  23003243.88746
  21360008.000 6 112247600.852 6  87465688.88148  21360018.81348
 22  7  3 14 18 20.0000000  0  6G04G07G09G14G20G30                  
  22822090.922 5 119930889.735 5  93452682.12346  22822101.51246
  20039780.891 6 105309756.832 6  82059584.07748  20039788.75048
  20983952.117 6 110271406.683 6  85925812.36449  20983962.26249
  23204704.266 6 121941553.136 6  95019442.14147  23204715.80147
  23002083.484 4 120876753.304 4  94189714.60446  23002092.23046
  21359874.344 6 112246898.345 6  87465141.47548  21359885.39548
 22  7  3 14 18 25.0000000  0  6G04G07G09G14G20G30                  
  22824906.977 5 119945691.033 5  93464215.61147  22824917.65647
  20041244.359 6 105317445.960 6  82065575.59948  20041251.84048
  20985414.031 6 110279091.193 6  85931800.29049  20985424.43449
  23202342.625 6 121929138.896 6  95009768.71847  23202353.46147
  23000934.594 4 120870715.429 4  94185009.77846  23000943.10246
  21359742.609 6 112246205.711 6  87464601.75948  21359753.93048
 22  7  3 14 18 30.0000000  0  6G04G07G09G14G20G30                  
  22827724.992 5 119960499.522 5  93475754.69246  22827735.85546
  20042708.867 6 105325145.907 6  82071575.54748  20042717.00448
  20986878.414 6 110286784.607 6  85937795.16749  20986888.46149
  23199981.000 6 121916730.514 6  95000099.86747  23199991.80947
  22999788.078 4 120864690.280 4  94180314.87646  22999796.37546
  21359612.484 6 112245523.091 6  87464069.84547  21359623.17247
 22  7  3 14 18 35.0000000  0  6G04G07G09G14G20G30                  
  22830544.164 5 119975315.042 5  93487299.23747  22830554.75047
  20044176.500 6 105332856.450 6  82077583.75948  20044184.05548
  20988344.055 6 110294486.769 6  85943796.84749  20988354.54749
  23197620.898 6 121904327.709 6  94990435.35647  23197631.52347
  22998643.836 3 120858677.687 3  94175629.72046  22998652.12946
  21359484.484 6 112244850.229 6  87463545.53447  21359495.25047
 22  7  3 14 18 40.0000000  0  6G04G07G09G14G20G30                  
  22833364.688 5 119990137.672 5  93498849.33147  22833375.35547
  20045645.805 6 105340577.728 6  82083600.32948  20045653.23448
  20989811.141 6 110302197.773 6  85949805.42649  20989821.37149
  23195261.836 5 121891930.642 5  94980775.31347  23195273.12547
  22997501.984 2 120852677.824 2  94170954.51146  22997510.69146
  21359358.164 6 112244187.263 6  87463028.93847  21359368.87547
 22  7  3 14 18 45.0000000  0  6G04G07G09G14G20G30                  
  22836186.773 5 120004967.467 5  93510405.00246  22836197.77746
  20047117.617 6 105348309.734 6  82089625.26848  20047124.88748
  20991280.453 6 110309917.660 6  85955820.91949  20991290.57449
  23192903.516 6 121879539.392 6  94971119.81347  23192915.21147
  22996363.289 2 120846690.611 2  94166289.13246  22996371.30546
  21359233.898 6 112243534.170 6  87462520.03947  21359244.75847
 22  7  3 14 18 50.0000000  0  6G04G07G09G14G20G30                  
  22839009.977 5 120019804.675 5  93521966.46246  22839020.64146
  20048590.352 6 105356052.725 6  82095658.76748  20048598.14548
  20992751.281 6 110317646.718 6  85961843.56449  20992762.02749
  23190546.813 5 121867154.189 5  94961469.01747  23190557.94547
  22995226.039 1 120840716.405 1  94161633.92946  22995234.37546
  21359111.695 6 112242891.275 6  87462019.08047  21359122.21147
 22  7  3 14 18 55.0000000  0  6G04G07G09G14G20G30                  
  22841834.898 5 120034649.251 5  93533533.67446  22841845.80146
  20050065.953 6 105363806.666 6  82101700.78848  20050073.97748
  20994223.813 6 110325384.895 6  85967873.31249  20994233.66849
  23188191.086 5 121854775.048 5  94951822.95047  23188202.55547
  22994091.680 1 120834755.145 1  94156988.76946  22994099.81646
  21358991.563 6 112242258.491 6  87461526.00547  21359001.93847
 22  7  3 14 19  0.0000000  0  6G04G07G09G14G20G30                  
  22844660.945 5 120049500.998 5  93545106.45446  22844671.76646
  20051543.852 6 105371571.351 6  82107751.18448  20051551.70348
  20995698.000 6 110333131.953 6  85973909.97949  20995708.17249
  23185836.578 5 121842401.702 5  94942181.38847  23185847.76247
  22992959.336 1 120828806.590 1  94152353.52746  22992967.72346
  21358872.992 6 112241635.587 6  87461040.62647  21358883.60947
 22  7  3 14 19  5.0000000  0  6G04G07G09G14G20G30                  
  22847488.328 5 120064359.738 5  93556684.68646  22847499.13746
  20053023.547 6 105379346.578 6  82113809.80748  20053031.01648
  20997173.641 6 110340887.735 6  85979953.44849  20997183.56649
  23183483.359 5 121830034.041 5  94932544.24947  23183494.72347
  22991828.977 2 120822870.679 2  94147728.13346  22991837.80546
  21358755.961 6 112241022.451 6  87460562.86947  21358766.40647
 22  7  3 14 19 10.0000000  0  6G04G07G09G14G20G30                  
  22850317.602 5 120079225.895 5  93568268.70946  22850328.11346
  20054505.000 6 105387132.810 6  82119876.98848  20054512.68448
  20998651.758 6 110348652.712 6  85986004.07849  20998661.58649
  23181130.977 5 121817672.511 5  94922911.89447  23181142.03947
  22990700.844 2 120816947.795 2  94143112.91545  22990710.58645
  21358641.266 6 112240419.440 6  87460092.98748  21358651.64848
 22  7  3 14 19 15.0000000  0  6G04G07G09G14G20G30                  
  22853147.391 5 120094098.741 5  93579857.92547  22853157.93847
  20055988.547 6 105394929.279 6  82125952.16548  20055996.15648
  21000130.789 6 110356426.102 6  85992061.27249  21000140.99649
  23178780.789 5 121805316.368 5  94913283.72647  23178790.92647
  22989577.203 2 120811037.169 2  94138507.25546  22989586.07846
  21358528.531 6 112239825.831 6  87459630.44448  21358539.19148
 22  7  3 14 19 20.0000000  0  6G04G07G09G14G20G30                  
  22855979.461 5 120108978.465 5  93591452.50347  22855989.84047
  20057474.750 6 105402736.135 6  82132035.42748  20057481.84448
  21001611.617 6 110364208.132 6  85998125.19349  21001621.63749
  23176429.500 5 121792965.791 5  94903659.89847  23176440.92647
  22988453.883 3 120805138.933 3  94133911.22945  22988463.06345
  21358417.336 6 112239241.841 6  87459175.38848  21358428.36348
 22  7  3 14 19 25.0000000  0  6G04G07G09G14G20G30                  
  22858812.711 5 120123865.021 5  93603052.41046  22858822.56346
  20058961.742 6 105410553.325 6  82138126.75048  20058969.48048
  21003094.023 6 110371998.724 6  86004195.78449  21003104.25449
  23174080.773 5 121780620.719 5  94894040.37347  23174091.73047
  22987334.133 3 120799253.273 3  94129324.98545  22987343.15645
  21358308.094 6 112238667.366 6  87458727.73948  21358318.91848
 22  7  3 14 19 30.0000000  0  6G04G07G09G14G20G30                  
  22861646.695 5 120138758.610 5  93614657.80746  22861656.84046
  20060451.031 6 105418381.168 6  82144226.36448  20060459.11348
  21004578.359 6 110379798.138 6  86010273.25149  21004588.68849
  23171732.617 5 121768281.478 5  94884425.37847  23171743.14547
  22986216.492 3 120793380.276 3  94124748.64245  22986225.80545
  21358200.305 6 112238102.717 6  87458287.75048  21358211.33648
 22  7  3 14 19 35.0000000  0  6G04G07G09G14G20G30                  
  22864482.023 5 120153659.150 5  93626268.61446  22864491.91046
  20061942.813 6 105426219.480 6  82150334.13848  20061950.82848
  21006064.086 6 110387606.283 6  86016357.51349  21006074.25449
  23169386.086 5 121755947.924 5  94874814.82347  23169396.47347
  22985102.141 3 120787519.869 3  94120182.10946  22985110.64846
  21358094.953 6 112237547.694 6  87457855.26248  21358105.61748
 22  7  3 14 19 40.0000000  0  6G04G07G09G14G20G30                  
  22867319.250 5 120168567.116 5  93637885.20147  22867328.93847
  20063436.172 6 105434068.611 6  82156450.33948  20063444.49648
  21007551.789 6 110395423.570 6  86022448.90549  21007561.97749
  23167039.773 5 121743620.542 5  94865209.08647  23167050.56647
  22983989.281 3 120781672.632 3  94115625.81246  22983998.02046
  21357991.297 6 112237002.775 6  87457430.64948  21358002.35248
 22  7  3 14 19 45.0000000  0  6G04G07G09G14G20G30                  
  22870157.266 5 120183481.873 5  93649507.08147  22870167.36347
  20064932.188 6 105441928.074 6  82162574.60048  20064940.41048
  21009041.039 6 110403249.418 6  86028546.97349  21009051.37549
  23164694.898 5 121731298.678 5  94855607.64447  23164705.58247
  22982879.352 3 120775837.787 3  94111079.16946  22982887.79346
  21357889.266 6 112236467.365 6  87457013.44448  21357900.37548
 22  7  3 14 19 50.0000000  0  6G04G07G09G14G20G30                  
  22872996.727 5 120198403.463 5  93661134.27446  22873006.92246
  20066429.617 6 105449797.857 6  82168706.89348  20066437.78548
  21010531.320 6 110411083.902 6  86034651.76949  21010541.96549
  23162351.227 6 121718982.464 6  94846010.60147  23162361.73847
  22981771.469 3 120770015.497 3  94106542.29846  22981779.89146
  21357789.438 6 112235941.512 6  87456603.68848  21357800.93048
 22  7  3 14 19 55.0000000  0  6G04G07G09G14G20G30                  
  22875837.828 5 120213331.852 5  93672766.77946  22875847.82046
  20067929.203 6 105457677.920 6  82174847.20148  20067937.44148
  21012023.969 6 110418926.894 6  86040763.19549  21012034.39849
  23160008.648 6 121706671.790 6  94836417.88647  23160018.39147
  22980666.313 3 120764205.672 3  94102015.13246  22980674.13346
  21357691.547 6 112235425.085 6  87456201.26648  21357702.50848
 22  7  3 14 20  0.0000000  0  6G04G07G09G14G20G30                  
  22878679.820 5 120228267.517 5  93684404.97646  22878689.98846
  20069431.078 6 105465568.731 6  82180995.87348  20069439.28148
  21013518.625 6 110426779.013 6  86046881.72949  21013528.30149
  23157667.070 6 121694367.247 6  94826829.93346  23157676.52746
  22979563.563 3 120758408.816 3  94097498.12146  22979571.17246
  21357594.820 6 112234918.707 6  87455806.68748  21357605.75448
 22  7  3 14 20  5.0000000  0  6G04G07G09G14G20G30                  
  22881522.906 5 120243210.160 5  93696048.58746  22881533.56346
  20070934.539 6 105473470.028 6  82187152.72248  20070942.77348
  21015014.680 6 110434639.878 6  86053007.07449  21015024.27349
  23155326.570 6 121682068.480 6  94817246.49546  23155335.96946
  22978463.148 3 120752624.624 3  94092990.94546  22978470.77046
  21357500.031 6 112234421.963 6  87455419.61748  21357511.21548
 22  7  3 14 20 10.0000000  0  6G04G07G09G14G20G30                  
  22884367.602 4 120258159.432 4  93707697.35446  22884378.07046
  20072440.094 6 105481381.394 6  82193317.41848  20072448.26648
  21016511.875 7 110442509.178 7  86059138.99749  21016521.92649
  23152987.281 5 121669775.156 5  94807667.28846  23152996.16046
  22977364.953 2 120746852.730 2  94088493.36146  22977372.39546
  21357407.945 6 112233934.525 6  87455039.79948  21357418.42248
 22  7  3 14 20 15.0000000  0  6G04G07G09G14G20G30                  
  22887214.156 4 120273115.768 4  93719351.64646  22887224.34046
  20073947.703 6 105489303.233 6  82199490.27948  20073955.44948
  21018010.813 6 110450387.263 6  86065277.76849  21018020.70749
  23150648.992 5 121657487.706 5  94798092.67346  23150657.60946
  22976268.367 2 120741093.521 2  94084005.67046  22976277.15246
  21357316.336 6 112233456.841 6  87454667.57948  21357327.34448
 22  7  3 14 20 20.0000000  0  6G04G07G09G14G20G30                  
  22890061.219 4 120288078.881 4  93731011.21246  22890071.84046
  20075456.711 6 105497235.311 6  82205671.12048  20075464.76648
  21019511.742 6 110458273.951 6  86071423.24249  21019521.73449
  23148311.508 5 121645205.859 5  94788522.41746  23148320.62546
  22975174.438 1 120735346.895 1  94079527.79846  22975183.42646
  21357227.445 6 112232988.589 6  87454302.69948  21357238.47348
 22  7  3 14 20 25.0000000  0  6G04G07G09G14G20G30                  
  22892910.148 4 120303048.719 4  93742676.00746  22892919.80546
  20076968.469 6 105505177.521 6  82211859.85248  20076976.58648
  21021014.391 6 110466169.142 6  86077575.34249  21021024.37149
  23145975.313 5 121632929.627 5  94778956.54146  23145983.96946
  22974083.094 1 120729612.654 1  94075059.50146  22974091.75046
  21357140.414 6 112232529.738 6  87453945.15648  21357151.25448
 22  7  3 14 20 30.0000000  0  6G04G07G09G14G20G30                  
  22895760.836 4 120318026.048 4  93754346.64446  22895770.14546
  20078481.172 6 105513130.637 6  82218057.08348  20078489.74648
  21022518.406 6 110474073.615 6  86083734.66949  21022528.38749
  23143640.156 5 121620659.696 5  94769395.55946  23143648.91446
  22972991.836 1 120723891.729 1  94070601.69346  22973003.15246
  21357055.063 6 112232081.007 6  87453595.50548  21357065.68048
 22  7  3 14 20 35.0000000  0  6G04G07G09G14G20G30                  
  22898611.477 4 120333010.298 4  93766022.69746  22898621.34846
  20079997.039 6 105521094.104 6  82224262.37048  20080005.21148
  21024024.094 6 110481986.815 6  86089900.79849  21024034.29749
  23141306.555 5 121608395.593 5  94759839.14746  23141315.16046
  22971903.148 1                                  22971916.68446
  21356971.078 6 112231641.916 6  87453253.35648  21356981.94548
 22  7  3 14 20 40.0000000  0  6G04G07G09G14G20G30                  
  22901464.273 4 120348001.156 4  93777703.86346  22901474.14546
  20081514.398 6 105529067.577 6  82230475.47248  20081522.30148
  21025531.656 6 110489908.433 6  86096073.48249  21025541.66449
  23138973.406 5 121596136.976 5  94750286.98346  23138982.97346
  22970820.141 1 120712487.35311  94061715.17155  22970833.23845
  21356889.383 6 112231212.057 6  87452918.40448  21356900.37148
 22  7  3 14 20 45.0000000  0  6G04G07G09G14G20G30                  
  22904317.945 4 120362998.748 4  93789390.28746  22904327.73846
  20083033.930 6 105537051.175 6  82236696.44948  20083041.66848
  21027040.477 6 110497838.581 6  86102252.81449  21027050.57449
  23136641.508 5 121583883.984 5  94740739.20746  23136650.94546
  22969738.602 1 120706803.89411  94057286.51155  22969751.87945
  21356809.250 6 112230791.606 6  87452590.78348  21356820.28148
 22  7  3 14 20 50.0000000  0  5G04G07G09G14G30                     
  22907173.844 4 120378003.224 4  93801082.08346  22907183.14546
  20084554.477 6 105545045.031 6  82242925.42148  20084562.49248
  21028551.352 6 110505777.395 6  86108438.90349  21028561.70749
  23134311.070 5 121571636.757 5  94731195.93046  23134321.18846
  21356730.953 6 112230380.642 6  87452270.54848  21356742.35548
 22  7  3 14 20 55.0000000  0  5G04G07G09G14G30                     
  22910029.734 4 120393014.363 4  93812779.07946  22910039.61346
  20086078.438 6 105553048.999 6  82249162.27548  20086085.73048
  21030063.570 6 110513724.739 6  86114631.64649  21030073.65249
  23131982.172 5 121559395.154 5  94721657.04946  23131991.91046
  21356654.805 6 112229979.035 6  87451957.60548  21356665.73048
 22  7  3 14 21  0.0000000  0  5G04G07G09G14G30                     
  22912887.844 4 120408032.496 4  93824481.50746  22912897.77046
  20087603.203 6 105561063.233 6  82255407.13148  20087610.90648
  21031577.820 6 110521680.846 6  86120831.21249  21031587.41849
  23129653.055 5 121547159.446 5  94712122.73146  23129663.82846
  21356580.125 6 112229587.024 6  87451652.15048  21356591.03148
 22  7  3 14 21  5.0000000  0  5G04G07G09G14G30                     
  22915746.938 4 120423057.622 4  93836189.41746  22915756.75846
  20089129.750 6 105569087.876 6  82261660.10148  20089137.81648
  21033092.813 6 110529645.811 6  86127037.67149  21033103.15649
  23127326.539 5 121534929.691 5  94702593.06546  23127337.00446
  21356507.203 6 112229204.706 6  87451354.24248  21356518.57048
 22  7  3 14 21 10.0000000  0  6G04G07G09G14G20G30                  
  22918607.234 5 120438089.409 5  93847902.48646  22918617.29346
  20090658.734 6 105577122.495 6  82267920.84248  20090666.52048
  21034610.313 6 110537619.181 6  86133250.68649  21034620.70749
  23124999.898 5 121522705.536 5  94693067.77146  23125010.74646
  22964369.234 1 120678576.70311                
  21356437.008 6 112228831.599 6  87451063.51248  21356447.52748
 22  7  3 14 21 15.0000000  0  6G04G07G09G14G20G30                  
  22921469.234 5 120453127.811 5  93859620.72046  22921478.84446
  20092189.555 6 105585167.068 6  82274189.33948  20092197.44948
  21036129.313 6 110545601.073 6  86139470.34049  21036139.49249
  23122675.156 5 121510486.982 5  94683546.83346  23122685.90646
  22963303.023 2 120672968.797 2  94030916.77556  22963310.43846
  21356367.063 6 112228467.803 6  87450780.03448  21356378.44948
 22  7  3 14 21 20.0000000  0  6G04G07G09G14G20G30                  
  22924332.281 4 120468172.946 4  93871344.22046  22924341.62946
  20093722.539 6 105593221.692 6  82280465.66748  20093730.30148
  21037649.516 6 110553591.489 6  86145696.63349  21037659.75849
  23120350.859 5 121498274.100 5  94674030.30946  23120361.99646
  22962238.344 2 120667373.446 2  94026556.72946  22962246.87146
  21356299.781 6 112228113.350 6  87450503.82948  21356311.14548
 22  7  3 14 21 25.0000000  0  6G04G07G09G14G20G30                  
  22927196.461 5 120483225.232 5  93883073.23846  22927206.06646
  20095257.242 6 105601286.807 6  82286750.16848  20095264.96148
  21039172.016 6 110561590.876 6  86151929.92049  21039182.14549
  23118028.367 5 121486067.356 5  94664518.58946  23118039.24246
  22961175.516 2 120661790.975 2  94022206.79946  22961184.14846
  21356234.180 6 112227768.659 6  87450235.24148  21356245.07048
 22  7  3 14 21 30.0000000  0  6G04G07G09G14G20G30                  
  22930062.133 5 120498284.489 5  93894807.75346  22930071.96146
  20096794.164 6 105609362.158 6  82293042.65448  20096801.78148
  21040696.063 6 110569599.040 6  86158170.04849  21040706.05549
  23115706.484 5 121473866.561 5  94655011.50146  23115717.26646
  22960116.617 2 120656221.373 2  94017866.83046  22960124.91446
  21356170.547 6 112227433.482 6  87449974.07348  21356181.00048
 22  7  3 14 21 35.0000000  0  6G04G07G09G14G20G30                  
  22932929.734 5 120513350.148 5  93906547.20146  22932938.78146
  20098332.648 6 105617447.240 6  82299342.71348  20098340.14848
  21042221.664 6 110577615.481 6  86164416.62149  21042231.54749
  23113385.625 5 121461671.158 5  94645508.60547  23113396.15247
  22959058.781 3 120650664.017 3  94013536.43046  22959067.39546
  21356108.469 6 112227107.394 6  87449719.97648  21356119.43848
 22  7  3 14 21 40.0000000  0  6G04G07G09G14G20G30                  
  22935796.992 5 120528422.162 5  93918291.62346  22935807.20746
  20099872.883 6 105625542.008 6  82305650.31748  20099880.55948
  21043748.813 6 110585640.118 6  86170669.58649  21043758.52749
  23111066.672 5 121449481.166 5  94636009.92747  23111076.74647
  22958002.852 2 120645118.946 2  94009215.55946  22958012.28546
  21356047.695 6 112226790.247 6  87449472.85348  21356058.99248
 22  7  3 14 21 45.0000000  0  6G04G07G09G14G20G30                  
  22938667.313 5 120543501.013 5  93930041.38546  22938676.86346
  20101415.375 6 105633646.894 6  82311965.81348  20101422.98048
  21045277.398 6 110593673.420 6  86176929.30249  21045287.27749
  23108747.297 5 121437297.050 5  94626515.83746  23108757.45746
  22956949.789 2 120639586.425 2  94004904.51246  22956959.89146
  21355989.539 6 112226482.540 6  87449233.08248  21356000.35948
 22  7  3 14 21 50.0000000  0  6G04G07G09G14G20G30                  
  22941537.031 4 120558586.429 4  93941796.23846  22941547.01246
  20102959.734 6 105641761.688 6  82318289.03348  20102967.57048
  21046807.891 6 110601715.178 6  86183195.60349  21046817.60249
  23106429.727 5 121425118.533 5  94617026.09146  23106440.32846
  22955900.297 1 120634066.404 1  94000603.17146  22955909.32846
  21355932.438 6 112226184.041 6  87449000.48548  21355943.32048
 22  7  3 14 21 55.0000000  0  6G04G07G09G14G20G30                  
  22944409.289 5 120573678.424 5  93953556.22946  22944418.93446
  20104504.969 6 105649886.279 6  82324619.87748  20104513.28548
  21048339.625 6 110609765.304 6  86189468.42449  21048349.51649
  23104113.367 5 121412945.600 5  94607540.73446  23104123.27746
  22954851.977 2 120628558.779 2  93996311.54946  22954861.31346
  21355876.906 6 112225894.656 6  87448774.99948  21355888.38748
 22  7  3 14 22  0.0000000  0  6G04G07G09G14G20G30                  
  22947282.375 5 120588777.122 5  93965321.46546  22947292.00046
  20106053.328 6 105658020.849 6  82330958.50648  20106061.11748
  21049872.773 6 110617824.005 6  86195747.92949  21049883.12949
  23101797.820 5 121400778.457 5  94598059.87046  23101807.93046
  22953806.055 1 120623063.771 1  93992029.68945  22953815.52345
  21355824.102 6 112225614.568 6  87448556.75348  21355835.25848
 22  7  3 14 22  5.0000000  0  6G04G07G09G14G20G30                  
  22950156.953 5 120603882.762 5  93977092.08846  22950166.34846
  20107603.156 6 105666165.610 6  82337305.07048  20107610.98448
  21051408.125 6 110625891.505 6  86202034.29549  21051418.25849
  23099483.852 5 121388617.306 5  94588583.67246  23099494.12546
  22952760.820 1 120617581.584 1  93987757.86245  22952772.33645
  21355772.578 6 112225344.031 6  87448345.94948  21355783.64148
 22  7  3 14 22 10.0000000  0  6G04G07G09G14G20G30                  
  22953032.242 5 120618994.955 5  93988867.81246  22953042.41446
  20109155.102 6 105674320.177 6  82343659.27148  20109162.79748
  21052944.445 6 110633967.432 6  86208327.22549  21052955.16449
  23097170.867 5 121376461.834 5  94579111.89646  23097180.41446
  22951718.820 1 120612111.92411  93983495.82256  22951731.41446
  21355723.078 6 112225082.637 6  87448142.25548  21355733.79348
 22  7  3 14 22 15.0000000  0  5G04G07G09G14G30                     
  22955908.961 5 120634113.239 5  94000648.28846  22955919.85246
  20110708.609 6 105682484.048 6  82350020.72948  20110716.41848
  21054483.023 6 110642051.293 6  86214626.33249  21054493.27749
  23094859.258 5 121364311.514 5  94569644.14647  23094868.05147
  21355674.320 6 112224829.878 6  87447945.31248  21355685.19948
 22  7  3 14 22 20.0000000  0  5G04G07G09G14G30                     
  22958788.000 4 120649238.453 4  94012434.16746  22958798.14146
  20112263.813 6 105690658.144 6  82356390.15248  20112272.08248
  21056022.555 6 110650143.990 6  86220932.33049  21056033.25849
  23092548.445 5 121352167.251 5  94560181.09946  23092557.11746
  21355628.664 6 112224586.670 6  87447755.81048  21355639.66048
 22  7  3 14 22 25.0000000  0  5G04G07G09G14G30                     
  22961667.633 5 120664370.685 5  94024225.49946  22961677.31346
  20113821.891 6 105698842.406 6  82362767.50148  20113829.39848
  21057565.148 6 110658245.495 6  86227245.19049  21057574.87949
  23090238.109 5 121340029.085 5  94550722.82646  23090247.47346
  21355583.625 6 112224352.978 6  87447573.72248  21355595.20748
 22  7  3 14 22 30.0000000  0  5G04G07G09G14G30                     
  22964547.984 5 120679509.602 5  94036022.05046  22964558.19946
  20115381.289 6 105707036.662 6  82369152.61548  20115388.88748
  21059107.750 6 110666355.620 6  86233564.76549  21059118.26249
  23087929.133 5 121327896.781 5  94541269.09446  23087938.51246
  21355541.094 6 112224128.605 6  87447398.89148  21355552.34848
 22  7  3 14 22 35.0000000  0  5G04G07G09G14G30                     
  22967429.867 5 120694654.897 5  94047823.57046  22967439.92646
  20116942.047 6 105715240.475 6  82375545.22348  20116950.10548
  21060652.492 6 110674474.007 6  86239890.77349  21060662.91849
  23085621.477 5 121315769.979 5  94531819.66547  23085631.25847
  21355500.852 6 112223913.158 6  87447231.01148  21355511.63748
 22  7  3 14 22 40.0000000  0  6G04G07G09G14G20G30                  
  22970312.836 5 120709806.740 5  94059630.18646  22970323.62946
  20118504.555 6 105723454.049 6  82381945.40848  20118512.99248
  21062199.242 6 110682600.799 6  86246223.33449  21062209.55149
  23083314.828 5 121303648.830 5  94522374.63946  23083324.97346
  22945524.453 1 120579417.83911                
  21355461.422 6 112223706.809 6  87447070.21848  21355472.69948
 22  7  3 14 22 45.0000000  0  6G04G07G09G14G20G30                  
  22973198.430 5 120724965.200 5  94071441.98346  22973208.24646
  20120069.539 6 105731677.407 6  82388353.21648  20120078.27048
  21063747.328 6 110690736.100 6  86252562.52449  21063757.14149
  23081009.008 5 121291533.513 5  94512934.14746  23081019.46546
  22944503.180 1 120574035.883 1                
  21355423.313 6 112223509.653 6  87446916.59848  21355434.82448
 22  7  3 14 22 50.0000000  0  6G04G07G09G14G20G30                  
  22976083.555 5 120740130.514 5  94083259.11446  22976094.14146
  20121636.500 6 105739910.792 6  82394768.83348  20121644.87948
  21065297.313 6 110698880.168 6  86258908.54849  21065307.34849
  23078705.063 5 121279424.203 5  94503498.33947  23078715.41847
  22943481.070 2 120568666.617 2  93949757.00056  22943490.28546
  21355387.656 6 112223321.863 6  87446770.27248  21355398.89848
 22  7  3 14 22 55.0000000  0  6G04G07G09G14G20G30                  
  22978970.539 4 120755302.620 4  94095081.52646  22978981.44946
  20123205.250 6 105748154.139 6  82401192.22748  20123213.47748
  21066848.477 6 110707032.851 6  86265261.29149  21066858.58649
  23076401.703 5 121267320.839 5  94494067.18647  23076412.66447
  22942462.203 3 120563310.119 3  93945583.07446  22942471.24646
  21355353.938 6 112223143.433 6  87446631.23448  21355365.34848
 22  7  3 14 23  0.0000000  0  6G04G07G09G14G20G30                  
  22981859.211 4 120770481.153 4  94106908.94646  22981869.51646
  20124775.836 6 105756407.074 6  82407623.08648  20124784.09048
  21068401.758 6 110715193.886 6  86271620.53949  21068411.55949
  23074099.773 5 121255223.117 5  94484640.39647  23074110.48847
  22941444.852 4 120557966.033 4  93941418.86046  22941454.07046
  21355321.852 6 112222973.948 6  87446499.16348  21355332.74648
 22  7  3 14 23  5.0000000  0  6G04G07G09G14G20G30                  
  22984749.602 4 120785666.487 4  94118741.67346  22984759.39546
  20126348.016 6 105764669.973 6  82414061.70348  20126356.14148
  21069955.992 6 110723363.606 6  86277986.55949  21069966.06349
  23071798.492 5 121243131.398 5  94475218.31547  23071809.71947
  22940430.609 4 120552634.736 4  93937264.59846  22940439.65646
  21355290.891 6 112222813.836 6  87446374.40648  21355302.34048
 22  7  3 14 23 10.0000000  0  6G04G07G09G14G20G30                  
  22987640.336 5 120800858.789 5  94130579.81646  22987650.69146
  20127922.391 6 105772942.988 6  82420508.20848  20127930.64548
  21071512.797 6 110731542.210 6  86284359.48549  21071522.32049
  23069498.922 5 121231045.816 5  94465800.99647  23069509.96147
  22939418.680 4 120547316.368 4  93933120.39646  22939427.26246
  21355262.266 6 112222663.188 6  87446257.02048  21355273.56648
 22  7  3 14 23 15.0000000  0  6G04G07G09G14G20G30                  
  22990532.109 5 120816057.703 5  94142423.12446  22990542.64846
  20129498.313 6 105781225.770 6  82426962.32148  20129506.77048
  21073071.016 6 110739729.322 6  86290739.05249  21073080.76249
  23067200.539 5 121218966.149 5  94456388.28447  23067210.92247
  22938408.914 4 120542010.628 4  93928986.03846  22938417.72346
  21355235.383 6 112222521.703 6  87446146.77148  21355246.45748
 22  7  3 14 23 20.0000000  0  6G04G07G09G14G20G30                  
  22993424.883 5 120831263.057 5  94154271.43846  22993436.28546
  20131076.227 6 105789518.113 6  82433423.88648  20131084.60948
  21074630.164 6 110747924.771 6  86297125.12049  21074640.44149
  23064903.016 5 121206892.092 5  94446979.94847  23064913.15647
  22937401.781 3 120536717.350 3  93924861.42746  22937410.68046
  21355210.500 6 112222389.159 6  87446043.49448  21355221.41848
 22  7  3 14 23 25.0000000  0  6G04G07G09G14G20G30                  
  22996320.922 4 120846475.100 4  94166124.98946  22996330.79746
  20132656.359 6 105797820.326 6  82439893.13948  20132664.55948
  21076191.328 6 110756128.847 6  86303517.89649  21076201.70349
  23062605.875 5 121194823.988 5  94437576.26847  23062617.12147
  22936396.414 3 120531436.829 3  93920746.74046  22936405.48446
  21355186.867 6 112222265.892 6  87445947.44548  21355197.38348
 22  7  3 14 23 30.0000000  0  6G04G07G09G14G20G30                  
  22999216.547 4 120861694.048 4  94177983.87646  22999227.07846
  20134238.023 6 105806132.509 6  82446370.16948  20134246.39548
  21077754.211 6 110764341.707 6  86309917.52549  21077764.11749
  23060311.148 5 121182762.090 5  94428177.39647  23060321.78147
  22935393.367 3 120526169.111 3  93916642.04546  22935403.37146
  21355164.828 6 112222152.004 6  87445858.69848  21355176.17648
 22  7  3 14 23 35.0000000  0  6G04G07G09G14G20G30                  
  23002113.516 4 120876919.679 4  94189848.02446  23002123.96946
  20135821.680 6 105814454.490 6  82452854.83048  20135830.02048
  21079318.859 6 110772563.158 6  86316323.85449  21079328.48449
  23058016.820 5 121170706.132 5  94418783.17847  23058027.73047
  22934394.023 2 120520914.228 2  93912547.31246  22934403.69946
  21355144.555 6 112222047.303 6  87445777.11848  21355156.64848
 22  7  3 14 23 40.0000000  0  6G04G07G09G14G20G30                  
  23005013.031 4 120892152.121 4  94201717.42246  23005023.00446
  20137407.492 6 105822786.394 6  82459347.21648  20137415.47748
  21080884.938 6 110780793.364 6  86322736.99849  21080894.90249
  23055723.695 5 121158656.218 5  94409393.65947  23055734.19547
  22933394.547 2 120515672.051 2  93908462.46845  22933405.80945
  21355127.094 6 112221951.884 6  87445702.78048  21355137.50448
 22  7  3 14 23 45.0000000  0  6G04G07G09G14G20G30                  
  23007912.234 4 120907391.373 4  94213592.16446  23007922.67246
  20138994.500 6 105831128.177 6  82465847.30648  20139002.86348
  21082452.516 6 110789032.272 6  86329156.93249  21082462.64549
  23053431.203 5 121146612.434 5  94400008.92947  23053442.15247
  22932401.805 1 120510442.836 1  93904387.79445  22932410.72345
  21355110.570 6 112221865.796 6  87445635.69348  21355121.72748
 22  7  3 14 23 50.0000000  0  6G04G07G09G14G20G30                  
  23010814.445 5 120922637.251 5  94225472.05346  23010824.08246
  20140584.008 6 105839479.722 6  82472355.01148  20140591.96948
  21084022.453 6 110797279.747 6  86335583.53149  21084032.38749
  23051140.523 5 121134574.565 5  94390628.79947  23051150.93847
  22931406.867 1 120505226.267 1  93900322.94045  22931418.03545
  21355096.180 6 112221788.875 6  87445575.75648  21355106.88348
 22  7  3 14 23 55.0000000  0  6G04G07G09G14G20G30                  
  23013716.789 5 120937890.016 5  94237357.31646  23013726.13346
  20142175.086 6 105847841.212 6  82478870.45048  20142183.42248
  21085593.633 6 110805536.038 6  86342017.00249  21085602.98049
  23048851.531 5 121122542.930 5  94381253.52347  23048861.73047
  22930417.859 1 120500022.645 1  93896268.20445  22930427.99645
  21355082.688 6 112221721.315 6  87445523.12248  21355094.21548
 22  7  3 14 24  0.0000000  0  6G04G07G09G14G20G30                  
  23016620.539 5 120953149.348 5  94249247.71646  23016629.71546
  20143768.250 6 105856212.314 6  82485393.39148  20143776.39548
  21087166.125 6 110813800.836 6  86348457.10449  21087175.94149
  23046563.102 5 121110517.171 5  94371882.82847  23046573.22747
  22929430.797 1 120494831.711 1  93892223.30445  22929440.39545
  21355071.953 6 112221662.815 6  87445477.53648  21355083.38348
 22  7  3 14 24  5.0000000  0  6G04G07G09G14G20G30                  
  23019524.781 5 120968415.297 5  94261143.25846  23019535.23846
  20145362.688 6 105864593.116 6  82491923.88748  20145371.28148
  21088740.156 6 110822074.174 6  86354903.85849  21088750.43849
  23044275.867 5 121098497.370 5  94362516.77146  23044285.83246
  22928444.930 1 120489653.411 1  93888188.31245  22928455.16045
  21355062.180 6 112221613.398 6  87445439.02948  21355073.41448
 22  7  3 14 24 10.0000000  0  6G04G07G09G14G20G30                  
  23022431.195 5 120983688.146 5  94273044.18846  23022441.44946
  20146959.563 6 105872983.873 6  82498462.13248  20146968.19948
  21090316.102 6 110830356.354 6  86361357.49749  21090326.56349
  23041989.703 5 121086483.824 5  94353155.59847  23041999.55947
  22927462.523 1 120484488.167 1  93884163.44145  22927471.98845
  21355055.414 6 112221573.428 6  87445407.88348  21355065.97348
 22  7  3 14 24 15.0000000  0  6G04G07G09G14G20G30                  
  23025339.133 5 120998967.846 5  94284950.43346  23025349.68046
  20148557.781 6 105881384.458 6  82505008.04448  20148566.83248
  21091893.930 6 110838647.312 6  86367817.99049  21091903.80549
  23039704.797 5 121074476.476 5  94343799.25147  23039714.70747
  22926480.867 3 120479335.769 3  93880148.61946  22926491.94146
  21355049.148 6 112221542.711 6  87445383.96248  21355060.20348
 22  7  3 14 24 20.0000000  0  6G04G07G09G14G20G30                  
  23028247.648 4 121014254.046 4  94296861.75546  23028258.39846
  20150158.336 6 105889794.623 6  82511561.42148  20150166.69548
  21093473.391 6 110846946.732 6  86374285.06349  21093483.52349
  23037420.945 5 121062474.995 5  94334447.45547  23037430.70347
  22925504.047 3 120474196.056 3  93876143.68446  22925513.94146
  21355044.797 6 112221521.017 6  87445367.05448  21355055.90248
 22  7  3 14 24 25.0000000  0  6G04G07G09G14G20G30                  
  23031157.992 4 121029547.229 4  94308778.51346  23031168.32046
  20151761.008 6 105898214.755 6  82518122.56748  20151768.87948
  21095054.211 6 110855255.081 6  86380759.10349  21095064.47749
  23035138.500 5 121050479.869 5  94325100.64647  23035148.26647
  22924528.383 3 120469069.446 3  93872148.92946  22924538.38346
  21355042.820 6 112221508.770 6  87445357.51548  21355053.62948
 22  7  3 14 24 30.0000000  0  6G04G07G09G14G20G30                  
  23034069.313 5 121044847.104 5  94320700.48846  23034079.87946
  20153365.133 6 105906644.598 6  82524691.27148  20153373.09048
  21096636.820 6 110863572.070 6  86387239.86849  21096647.14149
  23032856.500 5 121038490.850 5  94315758.56547  23032866.49647
  22923555.906 3 120463955.555 3  93868164.07046  22923565.48046
  21355042.203 6 112221505.643 6  87445355.08248  21355052.78948
 22  7  3 14 24 35.0000000  0  6G04G07G09G14G20G30                  
  23036982.781 5 121060153.604 5  94332627.63046  23036992.80546
  20154971.063 6 105915084.029 6  82531267.46248  20154979.18448
  21098221.156 6 110871897.613 6  86393727.30349  21098231.43049
  23030576.422 5 121026507.832 5  94306421.17647  23030586.30947
  22922584.500 4 120458854.427 4  93864189.17746  22922594.63746
  21355043.086 6 112221511.604 6  87445359.73648  21355054.08648
 22  7  3 14 24 40.0000000  0  6G04G07G09G14G20G30                  
  23039896.305 4 121075466.488 4  94344559.73046  23039906.52746
  20156578.516 6 105923532.870 6  82537850.96848  20156587.18848
  21099807.070 6 110880231.516 6  86400221.24949  21099817.02749
  23028297.188 5 121014530.622 5  94297088.30047  23028306.93047
  22921616.156 4 120453765.797 4  93860224.03646  22921626.35246
  21355046.289 6 112221526.435 6  87445371.28948  21355056.83648
 22  7  3 14 24 45.0000000  0  6G04G07G09G14G20G30                  
  23042811.906 5 121090786.174 5  94356497.13046  23042821.60246
  20158188.008 6 105931991.486 6  82544442.09748  20158196.48848
  21101394.883 6 110888574.151 6  86406721.99949  21101405.20349
  23026019.102 5 121002559.625 5  94287760.27947  23026028.85947
  22920650.516 4 120448690.124 4  93856268.94846  22920660.16046
  21355051.109 6 112221550.487 6  87445390.04748  21355061.97748
 22  7  3 14 24 50.0000000  0  6G04G07G09G14G20G30                  
  23045729.141 5 121106112.519 5  94368439.73846  23045738.52346
  20159799.766 6 105940459.804 6  82551040.78848  20159807.92648
  21102983.898 6 110896925.458 6  86413229.51249  21102993.99649
  23023742.492 5 120990594.754 5  94278437.02347  23023752.31347
  22919687.008 4 120443627.246 4  93852323.85946  22919696.95746
  21355057.609 6 112221583.702 6  87445415.93348  21355068.09448
 22  7  3 14 24 55.0000000  0  6G04G07G09G14G20G30                  
  23048646.297 5 121121445.666 5  94380387.64546  23048656.04746
  20161413.523 6 105948937.836 6  82557647.05048  20161421.33248
  21104574.945 6 110905285.489 6  86419743.82049  21104585.46549
  23021466.859 5 120978636.112 5  94269118.61847  23021476.31647
  22918726.063 4 120438577.211 4  93848388.75946  22918735.47746
  21355064.844 6 112221626.084 6  87445448.95847  21355075.54347
 22  7  3 14 25  0.0000000  0  6G04G07G09G14G20G30                  
  23051565.266 5 121136785.885 5  94392341.05746  23051575.11746
  20163028.320 6 105957425.941 6  82564261.16448  20163036.64148
  21106167.125 6 110913654.604 6  86426265.20049  21106177.57049
  23019191.852 5 120966684.012 5  94259805.31647  23019202.09847
  22917767.703 4 120433540.480 4  93844464.02746  22917777.23846
  21355075.344 6 112221678.031 6  87445489.44148  21355085.82448
 22  7  3 14 25  5.0000000  0  6G04G07G09G14G20G30                  
  23054485.648 5 121152132.957 5  94404299.81146  23054495.59446
  20164645.586 6 105965923.859 6  82570882.92248  20164653.72748
  21107761.813 6 110922032.524 6  86432793.44949  21107772.49249
  23016918.898 5 120954738.232 5  94250496.93647  23016928.90247
  22916811.977 4 120428516.821 4  93840549.49046  22916821.34046
  21355086.859 6 112221739.291 6  87445537.17548  21355096.80148
 22  7  3 14 25 10.0000000  0  6G04G07G09G14G20G30                  
  23057407.016 5 121167486.433 5  94416263.56746  23057416.98046
  20166264.063 6 105974431.105 6  82577511.93848  20166272.15648
  21109358.023 6 110930418.827 6  86439328.23249  21109367.72749
  23014646.625 5 120942798.347 5  94241193.15147  23014656.62947
  22915857.617 3 120423505.736 3  93836644.74646  22915867.39546
  21355099.867 6 112221809.366 6  87445591.78448  21355110.52748
 22  7  3 14 25 15.0000000  0  6G04G07G09G14G20G30                  
  23060330.258 5 121182846.238 5  94428232.22846  23060340.06346
  20167884.836 6 105982947.599 6  82584148.17348  20167893.48448
  21110955.500 6 110938813.438 6  86445869.47649  21110965.22749
  23012376.211 5 120930864.253 5  94231893.87247  23012385.95347
  22914905.859 3 120418507.144 3  93832749.73146  22914916.20746
  21355115.141 6 112221888.173 6  87445653.19648  21355125.31648
 22  7  3 14 25 20.0000000  0  6G04G07G09G14G20G30                  
  23063254.734 5 121198212.589 5  94440206.03546  23063264.42246
  20169507.445 6 105991473.590 6  82590791.80648  20169516.11348
  21112554.156 6 110947216.586 6  86452417.37949  21112564.27049
  23010106.539 5 120918936.232 5  94222599.33947  23010116.21147
  22913958.031 3 120413521.341 3  93828864.68145  22913966.76245
  21355132.039 6 112221975.986 6  87445721.63448  21355142.34448
 22  7  3 14 25 25.0000000  0  6G04G07G09G14G20G30                  
  23066179.617 5 121213585.753 5  94452185.08446  23066189.43846
  20171131.641 6 106000009.326 6  82597443.02248  20171139.91048
  21114155.086 6 110955628.540 6  86458972.14549  21114165.16449
  23007837.508 5 120907014.556 5  94213309.72947  23007847.65647
  22913011.422 3 120408548.473 3  93824989.69246  22913020.45346
  21355150.422 6 112222073.024 6  87445797.25448  21355160.44548
 22  7  3 14 25 30.0000000  0  6G04G07G09G14G20G30                  
  23069106.508 5 121228965.698 5  94464169.47146  23069116.54746
  20172757.891 6 106008554.750 6  82604101.79648  20172766.16848
  21115757.078 6 110964049.265 6  86465533.75049  21115767.42249
  23005569.789 6 120895099.183 6  94204025.04447  23005580.41047
  22912067.281 3 120403588.658 3  93821124.91645  22912076.68445
  21355170.430 6 112222179.273 6  87445880.04348  21355181.15648
 22  7  3 14 25 35.0000000  0  6G04G07G09G14G20G30                  
  23072034.391 5 121244352.276 5  94476159.02346  23072044.68446
  20174386.141 6 106017109.694 6  82610767.98248  20174393.95348
  21117360.914 6 110972478.595 6  86472102.05349  21117371.28949
  23003304.086 5 120883189.952 5  94194745.13747  23003313.87547
  22911127.055 3 120398641.636 3  93817270.11545  22911135.43445
  21355192.523 6 112222294.536 6  87445969.86448  21355203.16448
 22  7  3 14 25 40.0000000  0  6G04G07G09G14G20G30                  
  23074963.438 5 121259745.825 5  94488154.00246  23074973.68846
  20176015.789 6 106025674.496 6  82617441.85648  20176024.21548
  21118967.398 6 110980916.900 6  86478677.35249  21118977.19549
  23001038.984 5 120871287.253 5  94185470.31747  23001048.55147
  22910187.773 3 120393707.831 3  93813425.60446  22910196.64846
  21355217.141 6 112222419.170 6  87446066.99348  21355226.96148
 22  7  3 14 25 45.0000000  0  6G04G07G09G14G20G30                  
  23077894.750 4 121275145.938 4  94500154.07746  23077904.30546
  20177647.203 6 106034248.783 6  82624123.11648  20177655.61748
  21120574.086 6 110989363.740 6  86485259.30549  21120584.33649
  22998775.234 5 120859390.647 5  94176200.24747  22998784.76247
  22909251.359 3 120388786.829 3  93809591.06446  22909260.27346
  21355241.773 6 112222552.775 6  87446171.11148  21355252.32048
 22  7  3 14 25 50.0000000  0  6G04G07G09G14G20G30                  
  23080826.078 4 121290552.830 4  94512159.43346  23080836.54346
  20179280.539 6 106042832.746 6  82630811.92148  20179289.13348
  21122183.797 6 110997819.399 6  86491848.12749  21122193.82849
  22996512.281 5 120847500.411 5  94166935.15247  22996522.25047
  22908317.086 3 120383878.803 3  93805766.61046  22908325.85246
  21355268.641 6 112222695.568 6  87446282.38448  21355279.50048
 22  7  3 14 25 55.0000000  0  6G04G07G09G14G20G30                  
  23083759.750 4 121305966.510 4  94524170.08846  23083769.70346
  20180916.133 6 106051426.353 6  82637508.23648  20180924.63748
  21123794.414 6 111006283.837 6  86498443.78249  21123804.32049
  22994251.516 5 120835616.526 5  94157674.99147  22994260.84847
  22907385.406 3 120378983.754 3  93801952.31946  22907394.69546
  21355297.273 6 112222847.532 6  87446400.79148  21355308.32048
 22  7  3 14 26  0.0000000  0  6G04G07G09G14G20G30                  
  23086693.063 4 121321386.584 4  94536185.71746  23086703.82446
  20182553.016 6 106060029.168 6  82644211.72948  20182561.53948
  21125406.625 6 111014756.655 6  86505045.97149  21125416.59049
  22991990.609 6 120823738.642 6  94148419.52447  22992000.23447
  22906455.938 4 120374101.390 4  93798147.85746  22906465.66046
  21355327.836 6 112223008.258 6  87446526.03348  21355339.23448
 22  7  3 14 26  5.0000000  0  6G04G07G09G14G20G30                  
  23089630.367 4 121336813.539 4  94548206.70746  23089640.12946
  20184192.219 6 106068641.750 6  82650922.83448  20184200.62948
  21127020.992 6 111023238.406 6  86511655.12549  21127030.51249
  22989731.586 6 120811867.230 6  94139169.09647  22989741.41847
  22905530.234 4 120369232.183 4  93794353.69746  22905539.31646
  21355360.125 6 112223178.282 6  87446658.53147  21355371.62147
 22  7  3 14 26 10.0000000  0  6G04G07G09G14G20G30                  
  23092566.828 4 121352247.058 4  94560232.82946  23092576.71146
  20185832.563 6 106077263.735 6  82657641.26448  20185841.22748
  21128636.141 6 111031728.688 6  86518270.93249  21128646.40249
  22987473.766 5 120800001.987 5  94129923.48147  22987483.43447
  22904606.445 4 120364375.864 4  93790569.55946  22904615.21146
  21355394.250 6 112223357.262 6  87446797.98848  21355405.69548
 22  7  3 14 26 15.0000000  0  6G04G07G09G14G20G30                  
  23095504.586 4 121367687.505 4  94572264.33246  23095514.59046
  20187475.250 6 106085895.480 6  82664367.30148  20187483.43448
  21130253.266 6 111040227.928 6  86524893.71449  21130263.30949
  22985216.992 5 120788143.336 5  94120683.00547  22985227.51647
  22903684.063 4 120359532.715 4  93786795.69446  22903693.34446
  21355429.633 6 112223545.510 6  87446944.67147  21355441.27347
 22  7  3 14 26 20.0000000  0  6G04G07G09G14G20G30                  
  23098444.031 4 121383134.888 4  94584301.23346  23098454.37146
  20189119.617 6 106094537.016 6  82671100.96648  20189127.94148
  21131872.164 6 111048736.203 6  86531523.53749  21131882.57049
  22982961.688 5 120776291.255 5  94111447.63947  22982971.12147
  22902765.727 4 120354702.859 4  93783032.15046  22902774.52046
  21355467.859 6 112223743.138 6  87447098.67247  21355479.10947
 22  7  3 14 26 25.0000000  0  6G04G07G09G14G20G30                  
  23101385.617 4 121398589.015 4  94596343.40246  23101395.60546
  20190765.883 6 106103188.103 6  82677842.07448  20190774.21948
  21133493.266 6 111057253.188 6  86538160.14049  21133502.88349
  22980707.141 5 120764445.544 5  94102217.24047  22980716.85947
  22901850.133 4 120349885.999 4  93779278.79046  22901858.03946
  21355507.523 6 112223949.842 6  87447259.73547  21355518.32047
 22  7  3 14 26 30.0000000  0  6G04G07G09G14G20G30                  
  23104327.711 4 121414049.835 4  94608390.80446  23104337.61346
  20192413.922 6 106111848.674 6  82684590.57548  20192422.37948
  21135116.078 6 111065778.854 6  86544803.50749  21135125.49249
  22978454.031 5 120752606.142 5  94092991.76747  22978463.77047
  22900935.664 4 120345082.135 4  93775535.52146  22900943.69546
  21355548.602 6 112224165.524 6  87447427.80447  21355559.09847
 22  7  3 14 26 35.0000000  0  6G04G07G09G14G20G30                  
  23107270.180 5 121429517.536 5  94620443.55246  23107280.90646
  20194063.602 6 106120518.982 6  82691346.65948  20194072.25048
  21136739.531 6 111074313.497 6  86551453.87149  21136749.54349
  22976202.383 5 120740773.377 5  94083771.44847  22976212.41447
  22900023.758 4 120340291.541 4  93771802.56646  22900031.67646
  21355590.734 5 112224390.547 5  87447603.15548  21355601.91448
 22  7  3 14 26 40.0000000  0  6G04G07G09G14G20G30                  
  23110215.109 5 121444992.203 5  94632501.70746  23110225.61346
  20195715.484 6 106129198.979 6  82698110.29248  20195723.95348
  21138365.883 6 111082857.118 6  86558111.24549  21138375.43449
  22973951.539 5 120728947.188 5  94074556.26447  22973961.16447
  22899114.305 4 120335514.092 4  93768079.88046  22899122.81646
  21355635.844 6 112224624.831 6  87447785.71447  21355646.45347
 22  7  3 14 26 45.0000000  0  6G04G07G09G14G20G30                  
  23113160.672 5 121460473.904 5  94644565.38746  23113171.83246
  20197368.977 6 106137888.815 6  82704881.59848  20197377.62948
  21139992.813 6 111091409.800 6  86564775.66949  21140003.01249
  22971702.805 5 120717127.771 5  94065346.35847  22971712.16447
  22898208.539 4 120330750.073 4  93764367.65646  22898216.02746
  21355682.063 6 112224868.565 6  87447975.63448  21355692.69148
 22  7  3 14 26 50.0000000  0  6G04G07G09G14G20G30                  
  23116108.094 5 121475962.261 5  94656634.22746  23116118.68846
  20199025.078 6 106146588.183 6  82711660.32548  20199033.21548
  21141622.500 6 111099971.229 6  86571446.91749  21141632.32049
  22969454.820 5 120705314.725 5  94056141.40647  22969464.50447
  22897304.148 4 120325999.076 4  93760665.59746  22897311.85246
  21355730.000 6 112225121.276 6  87448172.55847  21355740.82047
 22  7  3 14 26 55.0000000  0  6G04G07G09G14G20G30                  
  23119056.430 5 121491457.499 5  94668708.42946  23119067.14146
  20200681.820 6 106155297.152 6  82718446.53948  20200690.32848
  21143253.086 6 111108541.566 6  86578125.09349  21143263.32449
  22967207.977 5 120693508.249 5  94046941.58847  22967217.64547
  22896402.125 4 120321261.179 4  93756973.73546  22896410.43446
  21355780.281 6 112225383.226 6  87448376.68548  21355790.50448
 22  7  3 14 27  0.0000000  0  6G04G07G09G14G20G30                  
  23122006.789 4 121506959.691 4  94680788.06946  23122017.28946
  20202341.047 6 106164015.876 6  82725240.33948  20202349.32848
  21144885.938 6 111117120.884 6  86584810.27349  21144895.71949
  22964961.859 5 120681708.449 5  94037746.96747  22964972.27347
  22895503.273 4 120316536.615 4  93753292.22846  22895510.72346
  21355832.000 6 112225654.449 6  87448588.03148  21355842.09848
 22  7  3 14 27  5.0000000  0  6G04G07G09G14G20G30                  
  23124957.867 4 121522468.728 4  94692873.00746  23124968.61346
  20204002.266 6 106172744.180 6  82732041.61748  20204010.20348
  21146520.031 6 111125709.098 6  86591502.38349  21146529.88349
  22962718.852 5 120669915.275 5  94028557.50047  22962728.39147
  22894606.195 4 120311825.235 4  93749621.03746  22894614.08246
  21355884.438 6 112225934.855 6  87448806.53248  21355895.36348
 22  7  3 14 27 10.0000000  0  6G04G07G09G14G20G30                  
  23127910.305 3 121537984.365 3  94704963.12846  23127920.79346
  20205664.750 6 106181481.820 6  82738850.16248  20205673.04748
  21148156.094 6 111134305.998 6  86598201.25849  21148166.04749
  22960475.883 5 120658128.398 5  94019372.94647  22960485.61347
  22893712.164 3 120307126.889 3  93745959.97246  22893720.12146
  21355939.914 6 112226224.236 6  87449032.02048  21355950.38748
 22  7  3 14 27 15.0000000  0  6G04G07G09G14G20G30                  
  23130864.695 3 121553506.627 3  94717058.38146  23130875.49646
  20207329.625 6 106190228.818 6  82745666.01548  20207337.35948
  21149793.391 6 111142911.549 6  86604906.87649  21149803.96149
  22958234.375 5 120646347.903 5  94010193.36047  22958243.73847
  22892819.906 4 120302441.423 4  93742308.97545  22892828.36345
  21355996.414 6 112226522.509 6  87449264.43948  21356007.43048
 22  7  3 14 27 20.0000000  0  6G04G07G09G14G20G30                  
  23133819.750 4 121569035.700 4  94729158.94946  23133830.52346
  20208995.750 6 106198985.375 6  82752489.29748  20209004.11748
  21151433.156 6 111151525.958 6  86611619.40749  21151443.04349
  22955993.531 5 120634573.986 5  94001018.91147  22956003.10547
  22891930.477 4 120297769.188 4  93738668.25745  22891939.43845
  21356054.883 6 112226829.914 6  87449503.97948  21356065.82048
 22  7  3 14 27 25.0000000  0  6G04G07G09G14G20G30                  
  23136776.563 4 121584571.524 4  94741264.77446  23136786.59446
  20210663.234 6 106207751.380 6  82759319.95448  20210671.66848
  21153073.734 6 111160149.195 6  86618338.80849  21153084.21149
  22953753.969 5 120622806.597 5  93991849.54047  22953764.21147
  22891044.172 4 120293110.190 4  93735037.89445  22891052.75845
  21356115.258 6 112227146.352 6  87449750.56848  21356126.28948
 22  7  3 14 27 30.0000000  0  6G04G07G09G14G20G30                  
  23139734.008 4 121600113.932 4  94753375.73646  23139744.48046
  20212333.656 6 106216526.742 6  82766157.89848  20212341.59048
  21154716.453 6 111168781.113 6  86625064.97449  21154726.53549
  22951515.797 5 120611045.634 5  93982685.17647  22951525.94947
  22890160.219 3 120288464.176 3  93731417.62046  22890168.86746
  21356177.602 6 112227471.791 6  87450004.15148  21356188.37148
 22  7  3 14 27 35.0000000  0  6G04G07G09G14G20G30                  
  23142692.930 4 121615662.849 4  94765491.77746  23142703.24646
  20214005.203 6 106225311.276 6  82773002.98748  20214013.48048
  21156360.297 6 111177421.594 6  86631797.80949  21156370.84849
  22949279.000 5 120599290.947 5  93973525.71047  22949289.55947
  22889279.000 4 120283830.985 4  93727807.34646  22889286.77346
  21356241.094 6 112227805.998 6  87450264.56948  21356251.78548
 22  7  3 14 27 40.0000000  0  6G04G07G09G14G20G30                  
  23145652.875 4 121631218.766 4  94777613.22746  23145663.43846
  20215678.805 6 106234105.526 6  82779855.64748  20215686.54748
  21158006.570 6 111186071.139 6  86638537.71349  21158016.87149
  22947043.055 5 120587543.063 5  93964371.53347  22947054.09847
  22888399.484 3 120279211.196 3  93724207.51146  22888407.76646
  21356307.047 6 112228149.493 6  87450532.22848  21356317.33648
 22  7  3 14 27 45.0000000  0  6G04G07G09G14G20G30                  
  23148614.367 4 121646781.930 4  94789740.39046  23148625.53146
  20217354.469 6 106242909.737 6  82786716.06948  20217362.18048
  21159654.555 6 111194729.998 6  86645284.88249  21159664.77349
  22944809.039 5 120575802.271 5  93955222.89047  22944820.30947
  22887523.047 4 120274605.118 4  93720618.36946  22887531.58646
  21356373.852 6 112228502.570 6  87450807.35348  21356384.54748
 22  7  3 14 27 50.0000000  0  6G04G07G09G14G20G30                  
  23151577.406 4 121662351.982 4  94801872.86846  23151588.10946
  20219031.484 6 106251723.516 6  82793583.95748  20219039.17648
  21161303.859 6 111203397.880 6  86652039.06949  21161313.92249
  22942576.305 5 120564068.227 5  93946079.50947  22942587.11347
  22886649.391 4 120270012.341 4  93717039.58346  22886657.48046
  21356442.781 6 112228864.827 6  87451089.63648  21356453.77048
 22  7  3 14 27 55.0000000  0  6G04G07G09G14G20G30                  
  23154541.797 4 121677928.764 4  94814010.61546  23154552.08246
  20220710.211 6 106260546.614 6  82800459.09648  20220717.96548
  21162954.852 6 111212074.509 6  86658800.07349  21162965.12149
  22940343.742 4 120552340.700 4  93936941.19447  22940355.25447
  22885777.516 4 120265432.674 4  93713471.01246  22885785.64146
  21356513.820 6 112229236.055 6  87451378.90248  21356524.47348
 22  7  3 14 28  0.0000000  0  6G04G07G09G14G20G30                  
  23157506.664 3 121693512.651 3  94826153.90746  23157517.43046
  20222391.344 6 106269379.554 6  82807341.90648  20222398.94148
  21164607.734 6 111220760.391 6  86665568.29849  21164618.03949
  22938113.648 4 120540620.206 4  93927808.37346  22938124.92246
  22884909.266 4 120260866.604 4  93709913.04046  22884916.66846
  21356585.680 6 112229616.771 6  87451675.55848  21356596.59448
 22  7  3 14 28  5.0000000  0  6G04G07G09G14G20G30                  
  23160473.375 3 121709103.262 3  94838302.43746  23160484.26646
  20224073.906 6 106278221.830 6  82814231.99748  20224081.62148
  21166261.727 6 111229455.065 6  86672343.36249  21166272.73049
  22935885.250 4 120528906.274 4  93918680.64646  22935895.71546
  22884043.344 4 120256313.673 4  93706365.27346  22884050.77746
  21356660.227 6 112230006.419 6  87451979.17648  21356670.79348
 22  7  3 14 28 10.0000000  0  6G04G07G09G14G20G30                  
  23163441.445 3 121724700.391 3  94850456.03346  23163452.40246
  20225758.430 6 106287073.329 6  82821129.26948  20225765.93848
  21167918.539 6 111238158.412 6  86679125.19149  21167928.88349
  22933657.352 4 120517198.822 4  93909557.96746  22933668.05146
  22883179.609 4 120251773.729 4  93702827.66746  22883186.79746
  21356735.688 6 112230404.937 6  87452289.71948  21356747.02748
 22  7  3 14 28 15.0000000  0  6G04G07G09G14G20G30                  
  23166410.602 3 121740304.234 3  94862614.86546  23166421.36746
  20227444.617 6 106295934.135 6  82828033.79148  20227452.28948
  21169576.430 6 111246870.498 6  86685913.82249  21169586.95349
  22931430.555 3 120505497.876 3  93900440.35946  22931441.02346
  22882317.539 5 120247246.934 5  93699300.31446  22882325.57046
  21356813.125 6 112230812.381 6  87452607.20748  21356824.05548
 22  7  3 14 28 20.0000000  0  6G04G07G09G14G20G30                  
  23169381.313 3 121755915.126 3  94874779.20146  23169391.70346
  20229132.227 6 106304804.648 6  82834945.88448  20229140.22348
  21171235.969 6 111255591.793 6  86692709.63749  21171246.55549
  22929204.719 4 120493803.947 4  93891328.22946  22929215.83246
  22881458.563 4 120242733.627 4  93695783.44046  22881466.91046
  21356892.617 6 112231229.199 6  87452931.99048  21356903.39148
 22  7  3 14 28 25.0000000  0  6G04G07G09G14G20G30                  
  23172353.406 3 121771532.994 3  94886948.96846  23172363.91046
  20230822.375 6 106313684.736 6  82841865.43548  20230830.27348
  21172897.055 6 111264322.104 6  86699512.46949  21172907.85249
  22926980.602 4 120482116.871 4  93882221.42846  22926991.54346
  22880602.484 4 120238233.816 4  93692277.10346  22880610.75046
  21356973.398 6 112231655.240 6  87453263.97048  21356984.55948
 22  7  3 14 28 30.0000000  0  6G04G07G09G14G20G30                  
  23175327.242 3 121787157.635 3  94899123.99746  23175337.25846
  20232514.148 6 106322574.264 6  82848792.33748  20232521.84848
  21174560.344 6 111273061.354 6  86706322.27549  21174570.92249
  22924758.328 3 120470436.521 3  93873119.87846  22924768.62546
  22879748.438 4 120233747.220 4  93688781.06746  22879756.96546
  21357056.188 6 112232090.333 6  87453602.99848  21357067.36348
 22  7  3 14 28 35.0000000  0  6G04G07G09G14G20G30                  
  23178301.195 3 121802788.889 3  94911304.19246  23178311.97746
  20234207.383 6 106331472.992 6  82855726.40948  20234215.34848
  21176225.086 6 111281809.293 6  86713138.84649  21176235.27049
  22922536.805 4 120458762.693 4  93864023.43446  22922547.18846
  22878895.758 4 120229273.749 4  93685295.25746  22878905.76646
  21357140.953 6 112232534.293 6  87453948.94048  21357151.59448
 22  7  3 14 28 40.0000000  0  6G04G07G09G14G20G30                  
  23181277.781 3 121818427.446 3  94923490.06946  23181287.46546
  20235902.336 6 106340381.579 6  82862668.17048  20235910.27348
  21177891.922 6 111290566.604 6  86719962.72749  21177902.02049
  22920316.180 3 120447096.107 3  93854932.60646  22920327.12146
  22878047.703 4 120224813.982 4  93681820.12946  22878056.77746
  21357227.156 6 112232987.737 6  87454302.27348  21357237.94548
 22  7  3 14 28 45.0000000  0  6G04G07G09G14G20G30                  
  23184253.680 3 121834073.045 3  94935681.44246  23184265.09846
  20237599.648 6 106349299.888 6  82869617.49948  20237607.69948
  21179559.445 6 111299333.162 6  86726793.80549  21179569.94549
  22918097.422 4 120435436.535 4  93845847.25146  22918108.31646
  22877201.547 3 120220367.827 3  93678355.61046  22877210.95746
  21357315.570 6 112233450.563 6  87454662.91648  21357325.97348
 22  7  3 14 28 50.0000000  0  6G04G07G09G14G20G30                  
  23187231.906 2 121849725.729 2  94947878.31846  23187243.73446
  20239298.414 6 106358227.756 6  82876574.28048  20239306.78548
  21181229.836 6 111308108.875 6  86733632.01949  21181240.09849
  22915880.391 4 120423784.025 4  93836767.40446  22915891.40646
  22876358.125 2 120215935.200 2  93674901.59946  22876367.68846
  21357404.992 6 112233922.662 6  87455030.78648  21357416.03948
 22  7  3 14 28 55.0000000  0  6G04G07G09G14G20G30                  
  23190212.664 3 121865385.281 3  94960080.54446  23190223.43846
  20240999.336 6 106367165.101 6  82883538.44348  20241007.50848
  21182901.680 6 111316893.574 6  86740477.23749  21182911.91049
  22913663.586 4 120412138.380 4  93827692.90146  22913674.97746
  22875517.188 2 120211516.068 2  93671458.14546  22875526.64846
  21357496.313 6 112234403.904 6  87455405.78348  21357507.32048
 22  7  3 14 29  0.0000000  0  6G04G07G09G14G20G30                  
  23193193.438 3 121881051.510 3  94972287.98946  23193205.20746
  20242701.797 6 106376111.730 6  82890509.85148  20242710.16048
  21184574.586 6 111325687.104 6  86747329.34149  21184585.13349
  22911448.906 4 120400499.427 4  93818623.60446  22911460.38746
  22874680.156 1 120207110.114 1  93668024.93246  22874688.12946
  21357590.109 6 112234894.080 6  87455787.74248  21357600.74248
 22  7  3 14 29  5.0000000  0  6G04G07G09G14G20G30                  
  23196175.969 3 121896724.628 3  94984500.77946  23196187.52746
  20244405.930 6 106385067.746 6  82897488.56548  20244414.27748
  21186250.180 6 111334489.632 6  86754188.45449  21186260.28149
  22909235.500 4 120388867.326 4  93809559.65446  22909246.82846
  22873843.852 1 120202717.459 1  93664602.13346  22873852.18446
  21357684.867 6 112235393.315 6  87456176.76448  21357695.54748
 22  7  3 14 29 10.0000000  0  6G04G07G09G14G20G30                  
  23199160.148 3 121912404.516 3  94996718.88446  23199171.50046
  20246112.234 6 106394033.068 6  82904474.52248  20246120.15248
  21187926.758 6 111343301.063 6  86761054.50449  21187936.94549
  22907023.727 4 120377241.988 4  93800500.96746  22907034.53946
  22873009.648 2 120198338.228 2  93661189.72646  22873018.25846
  21357781.734 6 112235901.580 6  87456572.81148  21357792.63748
 22  7  3 14 29 15.0000000  0  6G04G07G09G14G20G30                  
  23202145.055 2 121928091.130 2  95008942.21246  23202156.26246
  20247819.813 6 106403007.771 6  82911467.79648  20247828.01648
  21189605.188 6 111352121.429 6  86767927.50649  21189615.27049
  22904811.492 5 120365623.475 5  93791447.60046  22904823.47746
  22872180.266 3 120193972.291 3  93657787.69846  22872188.03946
  21357880.070 6 112236418.869 6  87456975.88548  21357890.93448
 22  7  3 14 29 20.0000000  0  6G04G07G09G14G20G30                  
  23205132.102 2 121943784.541 2  95021170.84346  23205142.87546
  20249529.688 6 106411991.764 6  82918468.31248  20249537.79348
  21191285.586 6 111360950.669 6  86774807.43049  21191295.38749
  22902603.523 4 120354011.802 4  93782399.58346  22902614.14546
  22871351.922 3 120189619.681 3  93654396.04846  22871359.57046
  21357979.977 6 112236945.113 6  87457385.93848  21357990.54348
 22  7  3 14 29 25.0000000  0  6G04G07G09G14G20G30                  
  23208119.680 3 121959484.909 3  95033404.88146  23208130.60246
  20251240.938 6 106420985.249 6  82925476.21948  20251249.34448
  21192967.133 6 111369789.034 6  86781694.46949  21192977.41449
  22900393.789 4 120342407.085 4  93773356.96246  22900405.59046
  22870526.063 3 120185280.624 3  93651014.96146  22870533.73046
  21358081.500 6 112237480.537 6  87457803.15448  21358092.83248
 22  7  3 14 29 30.0000000  0  6G04G07G09G14G20G30                  
  23211107.727 3 121975191.991 3  95045644.16746  23211119.66446
  20252954.250 6 106429988.012 6  82932491.35948  20252962.41848
  21194650.688 6 111378636.273 6  86788588.42149  21194660.56649
  22898187.078 4 120330809.158 4  93764319.63646  22898198.50446
  22869703.102 4 120180954.923 4  93647644.26046  22869710.59046
  21358185.438 6 112238024.922 6  87458227.34948  21358196.54748
 22  7  3 14 29 35.0000000  0  6G04G07G09G14G20G30                  
  23214097.898 3 121990905.866 3  95057888.74346  23214109.61346
  20254668.445 6 106439000.019 6  82939513.70548  20254677.28548
  21196336.117 6 111387492.424 6  86795489.31149  21196345.84049
  22895982.273 4 120319218.090 4  93755287.66346  22895992.69146
  22868882.391 4 120176642.517 4  93644283.95246  22868890.08646
  21358290.914 6 112238578.307 6  87458658.55548  21358301.92248
 22  7  3 14 29 40.0000000  0  6G04G07G09G14G20G30                  
  23217091.094 3 122006626.332 3  95070138.45046  23217100.68046
  20256385.344 6 106448021.205 6  82946543.19548  20256393.83648
  21198022.984 6 111396357.402 6  86802397.08449  21198033.18449
  22893777.313 4 120307633.815 4  93746260.97746  22893788.19546
  22868064.328 4 120172343.347 4  93640933.94946  22868072.07846
  21358398.078 6 112239140.517 6  87459096.64048  21358408.77348
 22  7  3 14 29 45.0000000  0  6G04G07G09G14G20G30                  
  23220083.242 3 122022353.873 3  95082393.66746  23220093.78946
  20258103.945 6 106457051.847 6  82953580.06348  20258112.73048
  21199711.258 6 111405231.502 6  86809311.96549  21199721.48049
  22891574.055 4 120296056.552 4  93737239.75846  22891584.85946
  22867249.008 4 120168057.792 4  93637594.54846  22867257.03546
  21358506.367 6 112239711.895 6  87459541.87548  21358517.24248
 22  7  3 14 29 50.0000000  0  6G04G07G09G14G20G30                  
  23223077.398 2 122038088.439 2  95094654.34246  23223087.82846
  20259824.063 6 106466092.055 6  82960624.38048  20259832.64848
  21201402.203 6 111414114.824 6  86816234.03749  21201412.19149
  22889372.031 4 120284486.512 4  93728224.15446  22889383.31346
  22866435.141 4 120163785.855 4  93634265.76846  22866443.70746
  21358617.500 6 112240292.551 6  87459994.33248  21358628.44548
 22  7  3 14 29 55.0000000  0  6G04G07G09G14G20G30                  
  23226072.688 2 122053829.867 2  95106920.40246  23226083.72746
  20261546.703 6 106475141.635 6  82967675.99148  20261554.86348
  21203094.078 6 111423007.187 6  86823163.15049  21203104.44149
  22887171.867 5 120272923.450 5  93719213.99846  22887183.21946
  22865624.211 4 120159527.430 4  93630947.52046  22865633.65646
  21358729.266 6 112240882.296 6  87460453.87948  21358740.06348
 22  7  3 14 30  0.0000000  0  6G04G07G09G14G20G30                  
  23229070.281 2 122069578.132 2  95119191.75646  23229080.45346
  20263270.016 6 106484200.521 6  82974734.85948  20263278.55148
  21204788.219 6 111431908.554 6  86830099.28649  21204798.36749
  22884973.039 4 120261367.374 4  93710209.26946  22884983.55546
  22864816.305 3 120155282.508 3  93627639.76246  22864826.07446
  21358843.211 6 112241481.049 6  87460920.43848  21358854.25848
 22  7  3 14 30  5.0000000  0  6G04G07G09G14G20G30                  
  23232069.008 2 122085333.146 2  95131468.38846  23232078.51246
  20264996.070 6 106493268.616 6  82981800.91048  20265004.03948
  21206483.836 6 111440818.817 6  86837042.34749  21206494.13749
  22882775.188 5 120249818.097 5  93701209.84346  22882786.29746
  22864011.523 2 120151050.830 2  93624342.38446  22864021.10946
  21358959.000 6 112242088.698 6  87461393.92248  21358969.93048
 22  7  3 14 30 10.0000000  0  6G04G07G09G14G20G30                  
  23235068.055 2 122101095.028 2  95143750.35146  23235078.13346
  20266722.859 6 106502346.077 6  82988874.24848  20266731.46148
  21208181.133 6 111449738.096 6  86843992.43249  21208191.25449
  22880579.070 5 120238275.871 5  93692215.91346  22880590.03146
  22863208.836 2 120146832.738 2  93621055.53946  22863218.52346
  21359076.023 6 112242705.392 6  87461874.46548  21359087.06348
 22  7  3 14 30 15.0000000  0  6G04G07G09G14G20G30                  
  23238067.445 2 122116863.675 2  95156037.60446  23238078.63346
  20268452.477 6 106511432.754 6  82995954.78248  20268460.72348
  21209880.133 6 111458666.383 6  86850949.54349  21209890.13749
  22878383.891 5 120226740.614 5  93683227.42646  22878395.02046
  22862408.273 2 120142628.050 2  93617779.20746  22862418.30946
  21359195.180 6 112243331.086 6  87462362.02048  21359206.16048
 22  7  3 14 30 20.0000000  0  6G04G07G09G14G20G30                  
  23241069.969 2 122132639.179 2  95168330.18246  23241080.64846
  20270183.156 6 106520528.662 6  83003042.49248  20270190.96548
  21211580.961 6 111467603.715 6  86857913.69549  21211591.13749
  22876189.172 5 120215212.373 5  93674244.41147  22876201.31647
  22861611.172 1 120138436.812 1  93614513.32046  22861620.25446
  21359315.953 6 112243965.795 6  87462856.59448  21359326.88348
 22  7  3 14 30 25.0000000  0  6G04G07G09G14G20G30                  
  23244073.141 2 122148420.895 2  95180627.63146  23244084.28946
  20271915.609 6 106529633.265 6  83010136.98948  20271923.56648
  21213283.102 6 111476549.443 6  86864884.38949  21213293.37549
  22873997.078 5 120203690.602 5  93665266.40647  22874008.58247
  22860814.445 1 120134258.516 1  93611257.53246  22860825.41446
  21359438.313 6 112244608.895 6  87463357.71648  21359449.18448
 22  7  3 14 30 30.0000000  0  6G04G07G09G14G20G30                  
  23247078.109 3 122164209.907 3  95192930.74146  23247088.66046
  20273649.711 6 106538747.576 6  83017239.05648  20273658.18048
  21214987.070 6 111485504.628 6  86871862.45949  21214997.38749
  22871806.289 5 120192176.280 5  93656294.22847  22871817.41447
  22860023.039 1 120130094.093 1  93608012.54546  22860032.94546
  21359562.945 6 112245261.478 6  87463866.21648  21359573.15648
 22  7  3 14 30 35.0000000  0  6G04G07G09G14G20G30                  
  23250083.008 2 122180005.710 2  95205239.16746  23250094.63746
  20275386.094 6 106547871.066 6  83024348.26048  20275394.74248
  21216692.820 6 111494468.812 6  86878847.53249  21216703.14149
  22869616.297 5 120180668.986 5  93647327.53047  22869627.83647
  22859233.727 1 120125943.185 1  93604778.11046  22859242.99246
  21359688.422 6 112245922.979 6  87464381.66648  21359698.84448
 22  7  3 14 30 40.0000000  0  6G04G07G09G14G20G30                  
  23253090.453 2 122195808.073 2  95217552.68146  23253101.76646
  20277124.313 6 106557003.514 6  83031464.44648  20277132.20348
  21218400.359 6 111503441.765 6  86885839.43849  21218410.87949
  22867428.023 5 120169168.437 5  93638366.08347  22867439.47747
  22858446.328 2 120121805.478 2  93601553.91546  22858455.52346
  21359815.969 6 112246593.199 6  87464903.91948  21359826.42648
 22  7  3 14 30 45.0000000  0  6G04G07G09G14G20G30                  
  23256099.445 2 122211617.206 2  95229871.47546  23256110.03946
  20278863.922 6 106566145.138 6  83038587.79148  20278871.80148
  21220109.531 6 111512423.657 6  86892838.31049  21220119.73849
  22865241.164 5 120157674.880 5  93629410.07947  22865252.37947
  22857661.469 3 120117681.277 3  93598340.26046  22857670.76646
  21359945.391 6 112247272.344 6  87465433.11648  21359955.71948
 22  7  3 14 30 50.0000000  0  7G04G07G08G09G14G20G30               
  23259109.867 2 122227433.165 2  95242195.59846  23259119.62946
  20280605.719 6 106575295.957 6  83045718.30548  20280613.14848
  24470330.109 4 128592428.66814 100201957.94258  24470345.34848
  21221820.422 6 111521414.581 6  86899844.22949  21221830.91449
  22863056.102 5 120146188.427 5  93620459.61447  22863066.76247
  22856879.453 3 120113570.593 3  93595137.13246  22856888.52746
  21360076.273 6 112247960.466 6  87465969.30948  21360086.80548
 22  7  3 14 30 55.0000000  0  7G04G07G08G09G14G20G30               
  23262120.883 2 122243255.770 2  95254524.91646  23262130.73046
  20282348.086 6 106584455.761 6  83052855.81348  20282356.39148
  24469887.484 4 128590098.186 4 100200141.98748  24469901.25448
  21223532.977 6 111530414.371 6  86906857.04049  21223543.56649
  22860870.508 5 120134708.815 5  93611514.48347  22860881.72347
  22856099.516 4 120109473.272 4  93591944.38746  22856108.90246
  21360209.203 6 112248657.343 6  87466512.33348  21360219.41048
 22  7  3 14 31  0.0000000  0  7G04G07G08G09G14G20G30               
  23265131.375 2 122259085.129 2  95266859.43746  23265142.66846
  20284093.047 6 106593624.773 6  83060000.50448  20284101.04348
  24469445.359 3 128587775.331 3 100198331.97947  24469459.19147
  21225247.445 6 111539423.118 6  86913876.84349  21225258.32049
  22858688.328 5 120123236.272 5  93602574.85447  22858698.71547
  22855323.867 4 120105389.410 4  93588762.16046  22855331.42646
  21360343.125 6 112249363.175 6  87467062.33348  21360353.48048
 22  7  3 14 31  5.0000000  0  7G04G07G08G09G14G20G30               
  23268145.070 2 122274921.091 2  95279199.17046  23268156.28146
  20285839.617 6 106602802.721 6  83067152.14748  20285847.60948
  24469005.117 4 128585460.010 4 100196527.83847  24469019.02347
  21226963.328 6 111548440.706 6  86920903.53449  21226973.99649
  22856507.055 5 120111770.654 5  93593640.63247  22856516.75847
  22854548.906 4 120101318.901 4  93585590.33346  22854556.58246
  21360479.648 6 112250077.711 6  87467619.11848  21360489.71948
 22  7  3 14 31 10.0000000  0  7G04G07G08G09G14G20G30               
  23271159.664 3 122290764.160 3  95291544.38346  23271171.31346
  20287587.500 6 106611990.100 6  83074311.13748  20287595.82848
  24468565.063 3 128583152.682 3 100194729.93647  24468579.89547
  21228681.352 6 111557467.534 6  86927937.43149  21228691.26649
  22854325.672 5 120100312.334 5  93584712.10147  22854335.94147
  22853776.414 3 120097262.164 3  93582429.22746  22853784.88346
  21360616.969 6 112250801.462 6  87468183.08748  21360627.19548
 22  7  3 14 31 15.0000000  0  7G04G07G08G09G14G20G30               
  23274175.773 3 122306613.952 3  95303894.88046  23274187.16446
  20289337.898 6 106621186.598 6  83081477.24148  20289345.97748
  24468127.742 4 128580853.062 4 100192938.05047  24468142.02047
  21230400.906 6 111566503.370 6  86934978.33849  21230411.04749
  22852146.758 5 120088861.083 5  93575789.06747  22852156.57047
  22853006.836 3 120093218.925 3  93579278.63346  22853015.03546
  21360756.477 6 112251534.095 6  87468753.96348  21360767.03948
 22  7  3 14 31 20.0000000  0  7G04G07G08G09G14G20G30               
  23277193.594 2 122322470.557 2  95316250.64846  23277204.85246
  20291089.703 6 106630392.193 6  83088650.43148  20291098.00448
  24467691.906 4 128578561.049 4 100191152.08247  24467705.93447
  21232121.586 6 111575548.170 6  86942026.23549  21232131.93849
  22849969.047 5 120077416.924 5  93566871.55347  22849978.77747
  22852239.648 3 120089189.152 3  93576138.53446  22852248.65246
  21360897.422 6 112252275.607 6  87469331.77348  21360907.72748
 22  7  3 14 31 25.0000000  0  7G04G07G08G09G14G20G30               
  23280211.914 3 122338333.836 3  95328611.64246  23280223.59446
  20292842.984 6 106639606.924 6  83095830.73648  20292851.21948
  24467257.195 3 128576276.732 3 100189372.12447  24467271.68847
  21233844.773 6 111584601.961 6  86949081.14349  21233855.39849
  22847792.695 6 120065979.846 6  93557959.57847  22847801.85247
  22851475.672 2 120085172.805 2  93573008.91846  22851484.01246
  21361040.547 6 112253025.980 6  87469916.47948  21361050.96548
 22  7  3 14 31 30.0000000  0  7G04G07G08G09G14G20G30               
  23283231.734 3 122354203.799 3  95340977.84446  23283243.95346
  20294597.992 6 106648830.690 6  83103018.09048  20294605.93048
  24466824.469 3 128574000.118 3 100187598.15447  24466838.68047
  21235569.313 6 111593664.642 6  86956142.97149  21235579.65649
  22845617.617 5 120054549.752 5  93549053.03447  22845627.18447
  22850712.930 2 120081169.985 2  93569889.84046  22850722.25446
  21361184.797 6 112253785.145 6  87470508.03548  21361195.02048
 22  7  3 14 31 35.0000000  0  7G04G07G08G09G14G20G30               
  23286253.648 3 122370080.722 3  95353349.45646  23286264.73846
  20296355.430 6 106658063.660 6  83110212.61148  20296363.28148
  24466393.063 3 128571731.528 3 100185830.43347  24466406.26247
  21237295.453 6 111602736.441 6  86963211.90149  21237305.72749
  22843443.750 6 120043126.872 6  93540152.11547  22843453.57447
  22849955.125 1 120077180.666 1  93566781.29346  22849963.27346
  21361331.023 6 112254553.308 6  87471106.59748  21361341.10248
 22  7  3 14 31 40.0000000  0  7G04G07G08G09G14G20G30               
  23289275.406 3 122385964.160 3  95365726.15646  23289287.75846
  20298113.898 6 106667305.503 6  83117414.05448  20298121.68048
  24465962.055 2 128569470.416 2 100184068.54147  24465976.02047
  21239023.563 6 111611817.078 6  86970287.72249  21239034.03949
  22841271.133 5 120031710.996 5  93531256.66047  22841281.27047
  22849195.664 1 120073204.74711  93563683.18856  22849206.67646
  21361478.555 6 112255330.196 6  87471711.96848  21361489.45748
 22  7  3 14 31 45.0000000  0  7G04G07G08G09G14G20G30               
  23292299.305 3 122401854.445 3  95378108.16946  23292311.34846
  20299874.695 6 106676556.473 6  83124622.59748  20299882.56648
  24465534.367 3 128567217.195 3 100182312.78447  24465546.82847
  21240753.680 6 111620906.773 6  86977370.59949  21240763.60949
  22839100.070 6 120020302.277 6  93522366.75947  22839110.09447
  22848439.609 1 120069242.466 1  93560595.71646  22848452.79746
  21361628.156 6 112256115.975 6  87472324.26148  21361638.47748
 22  7  3 14 31 50.0000000  0  7G04G07G08G09G14G20G30               
  23295325.703 3 122417751.247 3  95390495.26846  23295336.37946
  20301636.289 6 106685816.241 6  83131838.00148  20301644.27748
  24465107.250 2 128564971.551 2 100180562.94447  24465119.58647
  21242484.539 6 111630005.194 6  86984460.27149  21242494.93449
  22836930.258 6 120008900.442 6  93513482.24647  22836940.09447
  22847687.273 1 120065293.31111  93557518.47456  22847701.00046
  21361779.344 6 112256910.351 6  87472943.25448  21361789.83648
 22  7  3 14 31 55.0000000  0  7G04G07G08G09G14G20G30               
  23298351.523 3 122433654.288 3  95402887.25746  23298362.63346
  20303400.016 6 106695084.577 6  83139060.08148  20303408.12948
  24464681.297 2 128562733.118 2 100178818.74047  24464693.63747
  21244217.844 6 111639112.168 6  86991556.61149  21244227.74249
  22834761.594 6 119997505.250 6  93504602.90747  22834771.71947
  22846940.289 1 120061357.448 1  93554451.60346  22846952.44946
  21361932.008 6 112257713.086 6  87473568.75748  21361942.63348
 22  7  3 14 32  0.0000000  0  7G04G07G08G09G14G20G30               
  23301378.406 3 122449563.784 3  95415284.26446  23301390.36746
  20305165.289 6 106704361.609 6  83146288.94148  20305173.56348
  24464255.805 3 128560502.060 3 100177080.27547  24464268.87147
  21245952.336 6 111648227.763 6  86998659.67249  21245962.04349
  22832594.828 6 119986116.881 6  93495728.86247  22832604.84847
  22846195.102 1 120057434.705 1  93551394.93646  22846205.88746
  21362086.586 6 112258524.382 6  87474200.93648  21362096.92648
 22  7  3 14 32  5.0000000  0  7G04G07G08G09G14G20G30               
  23304407.453 3 122465480.005 3  95427686.50146  23304419.18846
  20306932.133 6 106713647.656 6  83153524.82048  20306940.67248
  24463832.367 4 128558278.785 4 100175347.85947  24463845.72347
  21247688.578 6 111657352.447 6  87005769.81149  21247699.06649
  22830429.313 6 119974735.754 6  93486860.47947  22830439.03147
  22845453.023 2 120053525.554 2  93548348.83546  22845461.84846
  21362242.992 6 112259344.529 6  87474840.00748  21362252.93048
 22  7  3 14 32 10.0000000  0  7G04G07G08G09G14G20G30               
  23307438.234 3 122481402.943 3  95440093.99246  23307448.70746
  20308701.734 6 106722942.650 6  83160767.67348  20308709.39148
  24463411.844 3 128556063.366 3 100173621.58547  24463424.54347
  21249426.789 6 111666486.004 6  87012886.86349  21249437.22749
  22828264.758 6 119963361.676 6  93477997.58247  22828275.08647
  22844711.617 2 120049629.957 2  93545313.31746  22844721.22346
  21362400.461 6 112260173.392 6  87475485.87748  21362410.88748
 22  7  3 14 32 15.0000000  0  7G04G07G08G09G14G20G30               
  23310468.633 3 122497332.420 3  95452506.57746  23310479.38746
  20310472.039 6 106732246.452 6  83168017.38948  20310479.67248
  24462991.305 3 128553855.646 3 100171901.29647  24463004.35547
  21251166.438 6 111675628.407 6  87020010.80949  21251176.50049
  22826101.766 6 119951994.618 6  93469140.15347  22826111.69947
  22843972.969 3 120045747.681 3  93542288.16846  22843982.09846
  21362560.336 6 112261010.937 6  87476138.50948  21362569.81348
 22  7  3 14 32 20.0000000  0  7G04G07G08G09G14G20G30               
  23313501.680 3 122513268.556 3  95464924.31446  23313512.31646
  20312243.656 6 106741559.127 6  83175274.01748  20312252.36348
  24462571.977 3 128551655.788 3 100170187.11747  24462585.97747
  21252907.680 6 111684779.688 6  87027141.68949  21252918.25049
  22823939.906 6 119940634.651 6  93460288.24147  22823949.69147
  22843237.617 4 120041878.870 4  93539273.51346  22843245.66846
  21362720.555 6 112261857.169 6  87476797.90448  21362731.18448
 22  7  3 14 32 25.0000000  0  7G04G07G08G09G14G20G30               
  23316535.586 3 122529211.399 3  95477347.29746  23316546.42246
  20314018.070 6 106750880.714 6  83182537.58948  20314025.68448
  24462154.992 3 128549463.655 3 100168478.95847  24462168.50047
  21254651.063 6 111693939.949 6  87034279.55149  21254661.21549
  22821779.867 6 119929281.813 6  93451441.89847  22821789.42647
  22842504.211 4 120038023.581 4  93536269.40046  22842512.44546
  21362883.117 6 112262712.147 6  87477464.11848  21362893.83248
 22  7  3 14 32 30.0000000  0  7G04G07G08G09G14G20G30               
  23319571.289 3 122545160.534 3  95489775.18846  23319580.86346
  20315793.320 6 106760210.890 6  83189807.86048  20315801.62148
  24461739.438 3 128547278.788 3 100166776.48447  24461753.34047
  21256395.586 6 111703108.814 6  87041424.11949  21256406.08649
  22819620.422 6 119917935.825 6  93442600.88347  22819630.00047
  22841772.602 4 120034181.438 4  93533275.51846  22841781.19946
  21363047.586 6 112263575.560 6  87478136.90248  21363058.24248
 22  7  3 14 32 35.0000000  0  7G04G07G08G09G14G20G30               
  23322606.961 3 122561116.992 3  95502208.80446  23322616.88346
  20317570.508 6 106769550.544 6  83197085.50848  20317578.33648
  24461324.766 3 128545102.470 3 100165080.66347  24461339.10547
  21258142.438 6 111712287.254 6  87048576.15149  21258152.57049
  22817463.273 6 119906597.562 6  93433765.89547  22817472.65247
  22841044.289 4 120030353.479 4  93530292.69046  22841053.25446
  21363213.594 6 112264448.285 6  87478816.95048  21363224.16848
 22  7  3 14 32 40.0000000  0  7G04G07G08G09G14G20G30               
  23325645.367 3 122577080.241 3  95514647.70546  23325654.89146
  20319349.352 6 106778899.250 6  83204370.21748  20319357.21548
  24460912.820 3 128542934.156 3 100163391.09347  24460925.79747
  21259890.586 6 111721474.738 6  87055735.22649  21259901.31649
  22815306.320 6 119895266.619 6  93424936.61347  22815315.95747
  22840318.586 4 120026539.184 4  93527320.49046  22840326.94146
  21363381.656 6 112265329.906 6  87479503.92848  21363391.93448
 22  7  3 14 32 45.0000000  0  7G04G07G08G09G14G20G30               
  23328683.547 3 122593049.673 3  95527091.41246  23328693.32046
  20321130.469 6 106788256.345 6  83211661.46148  20321138.11348
  24460500.828 3 128540773.228 3 100161707.29047  24460514.72747
  21261640.977 6 111730670.755 6  87062900.95349  21261650.95349
  22813152.148 6 119883942.405 6  93416112.58047  22813161.26647
  22839594.383 3 120022737.951 3  93524358.49546  22839603.28546
  21363551.203 6 112266219.806 6  87480197.35148  21363561.19548
 22  7  3 14 32 50.0000000  0  7G04G07G08G09G14G20G30               
  23331724.164 4 122609026.408 4  95539540.80946  23331733.84846
  20322912.570 6 106797622.903 6  83218960.07448  20322920.53148
  24460091.898 3 128538620.652 3 100160029.97947  24460105.12947
  21263392.570 6 111739876.307 6  87070074.10849  21263402.52349
  22810998.477 6 119872625.992 6  93407294.61347  22811007.93847
  22838873.859 3 120018950.850 3  93521407.51346  22838882.70346
  21363721.594 6 112267119.004 6  87480898.02248  21363732.31648
 22  7  3 14 32 55.0000000  0  7G04G07G08G09G14G20G30               
  23334766.172 4 122625009.818 4  95551995.42146  23334775.86346
  20324696.758 6 106806998.312 6  83226265.58748  20324704.87148
  24459683.680 3 128536475.859 3 100158358.73547  24459696.71147
  21265145.672 6 111749090.800 6  87077254.23749  21265156.25449
  22808846.516 6 119861316.741 6  93398482.23247  22808855.39847
  22838154.648 2 120015177.225 2  93518467.03046  22838165.09846
  21363894.414 6 112268026.926 6  87481605.48948  21363905.64548
 22  7  3 14 33  0.0000000  0  7G04G07G08G09G14G20G30               
  23337808.016 4 122641000.219 4  95564455.47946  23337818.47746
  20326482.445 6 106816382.923 6  83233578.27348  20326490.80948
  24459277.016 3 128534339.367 3 100156693.95447  24459289.91447
  21266901.375 6 111758314.606 6  87084441.61649  21266911.65249
  22806696.164 6 119850015.053 6  93389675.76347  22806704.59447
  22837439.023 2 120011417.511 2  93515537.39246  22837449.18846
  21364069.109 6 112268943.842 6  87482319.96848  21364079.78148
 22  7  3 14 33  5.0000000  0  7G04G07G08G09G14G20G30               
  23340852.641 4 122656997.059 4  95576920.52146  23340862.91446
  20328270.203 6 106825776.168 6  83240897.68848  20328278.26648
  24458871.719 3 128532210.557 3 100155035.14947  24458884.66847
  21268658.453 6 111767547.130 6  87091635.79049  21268668.51249
  22804546.234 6 119838720.358 6  93380874.70747  22804555.08247
  22836726.016 1 120007671.112 1  93512618.14946  22836735.90646
  21364245.742 6 112269869.257 6  87483041.07548  21364256.21148
 22  7  3 14 33 10.0000000  0  7G04G07G08G09G14G20G30               
  23343898.250 4 122673000.666 4  95589390.86846  23343908.42646
  20330059.500 6 106835178.347 6  83248224.05548  20330067.41448
  24458467.391 3 128530089.729 3 100153382.57247  24458480.78147
  21270416.734 6 111776788.743 6  87098837.04149  21270427.07449
  22802398.250 6 119827432.955 6  93372079.36847  22802407.61347
  22836012.820 1 120003938.306 1  93509709.45846  22836025.86746
  21364423.422 6 112270803.509 6  87483769.06148  21364434.02348
 22  7  3 14 33 15.0000000  0  7G04G07G08G09G14G20G30               
  23346944.758 4 122689010.675 4  95601866.19946  23346954.84846
  20331850.164 6 106844589.102 6  83255557.11848  20331858.30548
  24458065.969 4 128527976.392 4 100151735.82147  24458078.54347
  21272176.906 6 111786039.021 6  87106045.05149  21272187.44949
  22800252.117 6 119816152.570 6  93363289.47347  22800260.76247
  22835305.938 1 120000218.790 1  93506811.20746  22835317.74246
  21364602.445 6 112271746.197 6  87484503.61148  21364613.35548
 22  7  3 14 33 20.0000000  0  7G04G07G08G09G14G20G30               
  23349992.789 4 122705027.327 4  95614346.69846  23350002.71546
  20333642.375 6 106854008.625 6  83262897.00748  20333650.44548
  24457664.609 4 128525871.004 4 100150095.27847  24457677.90647
  21273939.180 6 111795298.271 6  87113260.04249  21273949.37549
  22798106.555 6 119804879.412 6  93354505.22147  22798115.13347
  22834602.797 1 119996512.967 1  93503923.56446  22834612.72746
  21364783.164 6 112272697.513 6  87485244.89048  21364794.35548
 22  7  3 14 33 25.0000000  0  7G04G07G08G09G14G20G30               
  23353041.078 5 122721050.716 5  95626832.44246  23353051.62946
  20335436.328 6 106863437.022 6  83270243.81148  20335445.00848
  24457264.789 4 128523773.466 4 100148460.85547  24457279.04747
  21275702.586 6 111804566.550 6  87120482.08049  21275713.10949
  22795963.016 5 119793613.554 5  93345726.65247  22795971.35947
  22833902.008 2 119992820.693 2  93501046.48446  22833910.46546
  21364966.445 6 112273657.611 6  87485993.02148  21364976.94948
 22  7  3 14 33 30.0000000  0  7G04G07G08G09G14G20G30               
  23356091.789 5 122737080.543 5  95639323.21846  23356101.78546
  20337232.594 6 106872874.003 6  83277597.30448  20337240.91848
  24456868.609 4 128521683.802 4 100146832.57247  24456881.93447
  21277467.750 6 111813843.605 6  87127710.95249  21277478.51649
  22793820.430 5 119782354.811 5  93336953.61147  22793828.93047
  22833202.844 3 119989141.949 3  93498179.91746  22833210.38746
  21365150.836 6 112274626.144 6  87486747.71748  21365161.60548
 22  7  3 14 33 35.0000000  0  7G04G07G08G09G14G20G30               
  23359143.633 5 122753116.886 5  95651819.08846  23359153.68846
  20339030.367 6 106882319.648 6  83284957.54148  20339038.32048
  24456471.656 3 128519601.836 3 100145210.27647  24456485.83247
  21279235.102 6 111823129.482 6  87134946.69949  21279245.80949
  22791679.508 5 119771103.186 5  93328186.13347  22791688.15647
  22832504.719 4 119985476.588 4  93495323.77846  22832512.73446
  21365336.555 6 112275603.244 6  87487509.08248  21365347.19548
 22  7  3 14 33 40.0000000  0  7G04G07G08G09G14G20G30               
  23362195.930 5 122769159.991 5  95664320.19946  23362206.31346
  20340828.938 6 106891774.160 6  83292324.69148  20340837.32448
  24456076.125 4 128517527.917 4 100143594.23847  24456090.49647
  21281003.625 6 111832424.449 6  87142189.52549  21281014.56349
  22789539.570 5 119759858.948 5  93319424.41147  22789548.36347
  22831809.672 4 119981824.936 4  93492478.33046  22831817.89546
  21365524.078 6 112276589.121 6  87488277.30048  21365535.19148
 22  7  3 14 33 45.0000000  0  7G04G07G08G09G14G20G30               
  23365250.602 4 122785209.521 4  95676826.34146  23365259.76246
  20342629.641 6 106901237.180 6  83299698.48048  20342638.50048
  24455684.398 3 128515461.583 3 100141984.11247  24455697.81347
  21282773.922 6 111841728.147 6  87149439.16049  21282784.64149
  22787401.156 5 119748621.730 5  93310668.15847  22787410.06347
  22831117.258 5 119978186.616 5  93489643.25846  22831125.28946
  21365713.531 6 112277583.382 6  87489052.03948  21365723.84048
 22  7  3 14 33 50.0000000  0  7G04G07G08G09G14G20G30               
  23368305.484 4 122801265.932 4  95689337.83546  23368315.37546
  20344432.328 6 106910709.148 6  83307079.23548  20344440.66848
  24455292.305 3 128513403.673 3 100140380.56447  24455306.47347
  21284546.578 6 111851041.040 6  87156695.96349  21284557.22749
  22785264.063 5 119737392.073 5  93301917.77847  22785273.13747
  22830427.313 4 119974562.149 4  93486818.99446  22830435.96146
  21365904.094 6 112278586.530 6  87489833.71448  21365914.52348
 22  7  3 14 33 55.0000000  0  7G04G07G08G09G14G20G30               
  23371362.711 4 122817328.939 4  95701854.45346  23371372.04746
  20346236.156 6 106920189.871 6  83314466.80848  20346244.88748
  24454901.945 2 128511353.637 2 100138783.17547  24454916.08647
  21286320.516 6 111860362.853 6  87163959.71149  21286330.95749
  22783128.172 5 119726169.714 5  93293173.10447  22783137.70347
  22829740.961 5 119970951.316 5  93484005.37646  22829748.96546
  21366096.805 6 112279598.290 6  87490622.10048  21366107.60548
 22  7  3 14 34  0.0000000  0  7G04G07G08G09G14G20G30               
  23374420.906 4 122833398.558 4  95714376.23546  23374430.23446
  20348041.672 6 106929679.318 6  83321861.18348  20348050.44548
  24454513.336 2 128509311.456 2 100137191.89947  24454527.43847
  21288095.633 6 111869693.626 6  87171230.44649  21288106.77349
  22780993.992 5 119714954.637 5  93284434.10847  22781003.75847
  22829056.414 5 119967354.047 5  93481202.28046  22829064.21546
  21366291.203 6 112280618.688 6  87491417.20847  21366301.45747
 22  7  3 14 34  5.0000000  0  7G04G07G08G09G14G20G30               
  23377479.977 5 122849474.678 5  95726903.06146  23377489.11746
  20349849.469 6 106939177.334 6  83329262.23348  20349857.78948
  24454126.500 2 128507277.122 2 100135606.72947  24454140.22347
  21289873.367 6 111879033.214 6  87178508.04449  21289883.71949
  22778861.289 5 119703746.716 5  93275700.67247  22778870.75447
  22828373.758 4 119963770.213 4  93478409.68946  22828382.55146
  21366487.336 6 112281647.532 6  87492218.90347  21366497.33647
 22  7  3 14 34 10.0000000  0  7G04G07G08G09G14G20G30               
  23380540.141 4 122865557.673 4  95739435.28546  23380549.55146
  20351658.781 6 106948684.298 6  83336670.25848  20351666.66448
  24453741.531 3 128505250.949 3 100134027.91047  24453754.09847
  21291651.875 6 111888382.012 6  87185792.82449  21291662.85949
  22776729.844 5 119692546.345 5  93266973.13747  22776739.73447
  22827694.086 5 119960200.272 5  93475627.91346  22827702.92246
  21366684.023 6 112282685.214 6  87493027.48848  21366694.84848
 22  7  3 14 34 15.0000000  0  7G04G07G08G09G14G20G30               
  23383602.734 4 122881647.309 4  95751972.64946  23383610.96146
  20353469.172 6 106958199.964 6  83344085.05548  20353477.66048
  24453357.102 3 128503232.861 3 100132455.37747  24453370.28147
  21293432.844 6 111897739.838 6  87193084.63749  21293443.58649
  22774600.094 5 119681353.359 5  93258251.34547  22774609.30947
  22827017.555 4 119956643.938 4  93472856.75046  22827026.36346
  21366883.281 6 112283731.554 6  87493842.80447  21366893.62547
 22  7  3 14 34 20.0000000  0  7G04G07G08G09G14G20G30               
  23386666.008 4 122897743.502 4  95764515.12246  23386674.11746
  20355281.883 6 106967724.228 6  83351506.55148  20355290.02348
  24452974.297 3 128501222.609 3 100130888.96247  24452987.77047
  21295215.938 6 111907106.495 6  87200383.32049  21295225.64549
  22772471.203 5 119670167.656 5  93249535.23747  22772481.28547
  22826342.805 4 119953101.120 4  93470096.10746  22826351.74246
  21367083.648 6 112284786.385 6  87494664.74047  21367093.84847
 22  7  3 14 34 25.0000000  0  7G04G07G08G09G14G20G30               
  23389730.844 5 122913846.211 5  95777062.69446  23389738.28546
  20357095.875 6 106977257.052 6  83358934.72148  20357103.82848
  24452591.797 3 128499220.338 3 100129328.76247  24452607.21947
  21296999.461 6 111916482.023 6  87207688.93249  21297010.14149
  22770343.609 5 119658989.158 5  93240824.73847  22770354.05947
  22825670.445 3 119949571.803 3  93467346.02146  22825680.46946
  21367285.875 6 112285849.712 6  87495493.30948  21367296.30548
 22  7  3 14 34 30.0000000  0  7G04G07G08G09G14G20G30               
  23392795.508 5 122929955.354 5  95789615.27746  23392804.39146
  20358911.453 6 106986798.467 6  83366369.59748  20358919.29748
  24452213.703 3 128497225.946 3 100127774.69847  24452227.43047
  21298785.109 6 111925866.392 6  87215001.42849  21298795.60249
  22768218.211 5 119647817.928 5  93232119.89347  22768228.21947
  22825001.711 3 119946056.015 3  93464606.44846  22825011.57446
  21367490.219 6 112286921.488 6  87496328.45648  21367500.38348
 22  7  3 14 34 35.0000000  0  7G04G07G08G09G14G20G30               
  23395861.570 5 122946071.138 5  95802173.02346  23395870.91446
  20360728.453 6 106996348.651 6  83373811.29048  20360736.96548
  24451835.563 3 128495239.497 3 100126226.82647  24451849.61347
  21300572.789 6 111935259.712 6  87222320.89749  21300583.24249
  22766093.836 5 119636654.048 5  93223420.79547  22766103.65247
  22824335.195 2 119942553.787 2  93461877.47246  22824345.07846
  21367695.711 6 112288001.811 6  87497170.26648  21367706.12148
 22  7  3 14 34 40.0000000  0  7G04G07G08G09G14G20G30               
  23398929.133 5 122962193.236 5  95814735.68746  23398939.08246
  20362547.500 6 107005907.143 6  83381259.47348  20362555.43048
  24451458.523 2 128493260.717 2 100124684.95547  24451472.88747
  21302362.031 6 111944661.722 6  87229647.14149  21302372.64549
  22763970.125 5 119625497.258 5  93214727.21747  22763980.54347
  22823671.344 3 119939065.000 3  93459158.94746  22823680.96546
  21367902.961 6 112289090.434 6  87498018.54248  21367913.73448
 22  7  3 14 34 45.0000000  0  7G04G07G08G09G14G20G30               
  23401998.680 5 122978321.981 5  95827303.56346  23402008.57446
  20364368.234 6 107015474.329 6  83388714.42148  20364376.04348
  24451083.570 2 128491290.104 2 100123149.43347  24451097.94547
  21304152.734 6 111954072.716 6  87236980.37849  21304162.91849
  22761849.305 5 119614347.887 5  93206039.40747  22761858.97747
  22823010.484 4 119935589.843 4  93456451.05346  22823019.20746
  21368111.500 6 112290187.673 6  87498873.52848  21368122.57448
 22  7  3 14 34 50.0000000  0  7G04G07G08G09G14G20G30               
  23405069.508 5 122994456.978 5  95839876.28046  23405078.87146
  20366190.406 6 107025049.734 6  83396175.77648  20366198.02048
  24450710.516 2 128489327.185 2 100121619.90747  24450724.46547
  21305945.297 6 111963492.354 6  87244320.35349  21305955.68449
  22759728.773 5 119603205.574 5  93197357.10847  22759738.50447
  22822351.852 4 119932128.037 4  93453753.52946  22822360.59046
  21368322.063 6 112291293.117 6  87499734.91048  21368333.04748
 22  7  3 14 34 55.0000000  0  7G04G07G08G09G14G20G30               
  23408141.313 5 123010598.939 5  95852454.43346  23408150.71146
  20368014.484 6 107034634.079 6  83403644.09948  20368021.82448
  24450338.727 2 128487372.622 2 100120096.90747  24450352.64847
  21307739.438 6 111972921.305 6  87251667.58449  21307749.91449
  22757608.930 5 119592071.042 5  93188680.85747  22757619.86747
  22821695.711 4 119928680.217 4  93451066.95146  22821704.40246
  21368533.742 6 112292407.443 6  87500603.21248  21368545.16048
 22  7  3 14 35  0.0000000  0  7G04G07G08G09G14G20G30               
  23411214.047 5 123026747.610 5  95865037.82046  23411223.07846
  20369839.883 6 107044227.098 6  83411119.17147  20369847.44547
  24449968.719 3 128485426.249 3 100118580.26447  24449982.66447
  21309535.289 6 111982359.330 6  87259021.88549  21309545.90249
  22755492.078 5 119580944.003 5  93180010.46347  22755502.79347
  22821041.758 4 119925246.156 4  93448391.05746  22821050.98446
  21368748.078 6 112293530.426 6  87501478.27247  21368758.43847
 22  7  3 14 35  5.0000000  0  7G04G07G08G09G14G20G30               
  23414288.031 5 123042902.641 5  95877626.14646  23414297.77746
  20371666.539 6 107053828.520 6  83418600.80047  20371674.33647
  24449598.531 4 128483487.737 4 100117069.75647  24449613.74647
  21311333.219 6 111991806.103 6  87266383.00449  21311343.61749
  22753375.531 5 119569824.188 5  93171345.68147  22753386.91447
  22820391.289 4 119921825.547 4  93445725.62246  22820399.48846
  21368962.969 6 112294661.746 6  87502359.81348  21368973.72348
 22  7  3 14 35 10.0000000  0  7G04G07G08G09G14G20G30               
  23417362.891 5 123059064.156 5  95890219.54046  23417373.32846
  20373495.141 6 107063438.375 6  83426088.99947  20373503.09047
  24449231.477 3 128481557.229 3 100115565.47247  24449246.41447
  21313132.453 6 112001261.747 6  87273751.04449  21313142.94149
  22751261.313 5 119558711.673 5  93162686.61347  22751271.81647
  22819743.633 4 119918418.501 4  93443070.78346  22819751.04746
  21369180.219 6 112295801.436 6  87503247.87748  21369190.62548
 22  7  3 14 35 15.0000000  0  7G04G07G08G09G14G20G30               
  23420439.734 5 123075232.318 5  95902818.09646  23420449.99646
  20375325.727 6 107073056.844 6  83433583.90448  20375333.70348
  24448864.969 3 128479634.878 3 100114067.56247  24448880.55947
  21314933.094 6 112010726.400 6  87281126.09649  21314944.26649
  22749147.633 5 119547606.636 5  93154033.34247  22749159.05147
  22819097.500 4 119915025.092 4  93440426.54446  22819105.32846
  21369398.453 6 112296949.728 6  87504142.65748  21369409.78548
 22  7  3 14 35 20.0000000  0  7G04G07G08G09G14G20G30               
  23423517.914 4 123091407.401 4  95915422.06546  23423527.72746
  20377157.914 6 107082684.224 6  83441085.76248  20377165.66848
  24448501.102 2 128477720.975 2 100112576.23447  24448515.99247
  21316736.359 6 112020200.404 6  87288508.43849  21316747.20349
  22747036.430 5 119536509.437 5  93145386.18847  22747047.63347
  22818455.313 4 119911645.771 4  93437793.28446  22818462.57846
  21369619.156 6 112298106.895 6  87505044.33948  21369629.90648
 22  7  3 14 35 25.0000000  0  7G04G07G08G09G14G20G30               
  23426598.039 5 123107588.979 5  95928031.10246  23426607.14546
  20378991.117 6 107092320.000 6  83448594.15247  20378999.14547
  24448139.773 2 128475815.012 2 100111091.09147  24448153.49647
  21318540.992 6 112029683.237 6  87295897.66149  21318551.46149
  22744926.422 4 119525419.519 4  93136744.71447  22744936.89547
  22817813.828 5 119908279.954 5  93435170.56446  22817821.95746
  21369840.656 6 112299272.412 6  87505952.54748  21369851.46548
 22  7  3 14 35 30.0000000  0  7G04G07G08G09G14G20G30               
  23429678.445 5 123123776.981 5  95940645.11746  23429687.43446
  20380826.305 6 107101964.211 6  83456109.13047  20380834.14147
  24447777.141 2 128473916.981 2 100109612.13247  24447791.91047
  21320347.188 6 112039174.974 6  87303293.81349  21320358.01249
  22742816.719 5 119514337.019 5  93128109.00447  22742827.91847
  22817176.031 5 119904927.729 5  93432558.42646  22817183.75446
  21370063.914 6 112300446.359 6  87506867.31248  21370074.87148
 22  7  3 14 35 35.0000000  0  7G04G07G08G09G14G20G30               
  23432759.977 5 123139971.328 5  95953264.08546  23432769.39146
  20382663.500 6 107111616.632 6  83463630.49247  20382670.90247
  24447418.500 2 128472026.726 2 100108139.21547  24447432.17647
  21322155.023 6 112048675.345 6  87310696.69949  21322165.71949
  22740709.328 5 119503261.682 5  93119478.87747  22740720.72747
  22816540.891 4 119901588.925 4  93429956.78046  22816549.19546
  21370288.570 6 112301628.500 6  87507788.46048  21370299.84848
 22  7  3 14 35 40.0000000  0  7G04G07G08G09G14G20G30               
  23435841.906 5 123156172.102 5  95965888.06346  23435852.01246
  20384501.469 6 107121277.457 6  83471158.41147  20384509.89547
  24447060.188 2 128470144.590 2 100106672.63447  24447074.10947
  21323964.359 6 112058184.575 6  87318106.49249  21323974.93049
  22738603.102 5 119492193.743 5  93110854.52447  22738614.34847
  22815907.758 5 119898263.648 5  93427365.64546  22815916.00846
  21370515.289 6 112302819.001 6  87508716.13148  21370526.23848
 22  7  3 14 35 45.0000000  0  7G04G07G08G09G14G20G30               
  23438926.563 5 123172379.800 5  95978517.43646  23438936.53946
  20386342.320 6 107130947.156 6  83478693.24447  20386350.01247
  24446703.031 2 128468270.837 2 100105212.60347  24446717.34447
  21325775.531 6 112067703.165 6  87325523.57349  21325786.71949
  22736498.734 4 119481133.601 4  93102236.22947  22736510.06647
  22815276.781 4 119894952.379 4  93424785.44846  22815285.91446
  21370743.578 6 112304018.337 6  87509650.69648  21370754.45748
 22  7  3 14 35 50.0000000  0  7G04G07G08G09G14G20G30               
  23442011.773 5 123188594.114 5  95991151.97446  23442021.54746
  20388183.234 6 107140625.349 6  83486234.69347  20388191.64847
  24446348.391 3 128466405.198 3 100103758.87647  24446361.95347
  21327589.281 6 112077230.730 6  87332947.64949  21327599.67249
  22734395.523 5 119470080.973 5  93093623.79047  22734406.59047
  22814650.063 4 119891654.876 4  93422215.97046  22814658.87546
  21370973.664 6 112305226.183 6  87510591.87448  21370984.09448
 22  7  3 14 35 55.0000000  0  7G04G07G08G09G14G20G30               
  23445098.875 5 123204814.359 5  96003791.10346  23445108.69546
  20390026.844 6 107150311.401 6  83493782.26047  20390034.63747
  24445995.234 3 128464547.266 3 100102311.14848  24446008.62948
  21329403.109 6 112086766.715 6  87340378.28849  21329414.36349
  22732293.688 5 119459035.282 5  93085016.77947  22732304.61347
  22814024.453 4 119888370.459 4  93419656.70246  22814033.51646
  21371204.367 6 112306441.882 6  87511539.17648  21371215.14548
 22  7  3 14 36  0.0000000  0  7G04G07G08G09G14G20G30               
  23448186.938 5 123221041.214 5  96016435.41646  23448196.80946
  20391871.461 6 107160005.896 6  83501336.42048  20391879.09448
  24445642.852 3 128462697.556 3 100100869.84148  24445656.66448
  21331220.180 6 112096311.598 6  87347815.85849  21331231.20349
  22730193.188 5 119447997.086 5  93076415.59347  22730204.55147
  22813402.477 4 119885099.701 4  93417108.07446  22813411.38746
  21371437.688 6 112307665.999 6  87512493.04148  21371448.21148
 22  7  3 14 36  5.0000000  0  7G04G07G08G09G14G20G30               
  23451276.344 5 123237274.481 5  96029084.71946  23451285.61346
  20393717.531 6 107169708.757 6  83508897.09147  20393726.10247
  24445292.203 4 128460855.886 4 100099434.77148  24445306.43848
  21333037.828 6 112105865.376 6  87355260.36349  21333048.71149
  22728094.086 5 119436966.263 5  93067820.14547  22728105.05147
  22812782.414 4 119881842.516 4  93414570.02446  22812791.07846
  21371672.367 6 112308898.506 6  87513453.43948  21371682.99248
 22  7  3 14 36 10.0000000  0  7G04G07G08G09G14G20G30               
  23454366.922 4 123253514.303 4  96041739.13246  23454376.36746
  20395565.867 6 107179420.023 6  83516464.34248  20395573.96548
  24444943.266 4 128459022.409 4 100098006.10448  24444957.11748
  21334857.867 6 112115428.130 6  87362711.85749  21334868.41049
  22725996.266 5 119425943.043 5  93059230.65447  22726007.24247
  22812164.813 4 119878599.052 4  93412042.66346  22812174.73846
  21371908.930 6 112310139.424 6  87514420.39648  21371918.62548
 22  7  3 14 36 15.0000000  0  7G04G07G08G09G14G20G30               
  23457458.117 5 123269760.792 5  96054398.74546  23457467.94146
  20397415.844 6 107189139.851 6  83524038.23048  20397423.71948
  24444595.227 3 128457197.186 3 100096583.87448  24444610.59848
  21336679.094 6 112124999.982 6  87370170.44449  21336689.52049
  22723899.703 5 119414927.433 5  93050647.06647  22723910.82047
  22811551.055 4 119875369.396 4  93409526.05046  22811559.77746
  21372145.820 6 112311388.919 6  87515394.02748  21372156.37148
 22  7  3 14 36 20.0000000  0  7G04G07G08G09G14G20G30               
  23460550.102 5 123286013.768 5  96067063.41146  23460561.11746
  20399266.844 6 107198868.065 6  83531618.66147  20399274.91047
  24444249.852 3 128455380.049 3 100095167.94248  24444264.34848
  21338502.141 6 112134580.731 6  87377635.96149  21338513.23849
  22721805.023 5 119403919.320 5  93042069.33746  22721815.78146
  22810938.141 4 119872153.466 4  93407020.14846  22810947.50046
  21372385.586 6 112312646.750 6  87516374.16248  21372396.09048
 22  7  3 14 36 25.0000000  0  7G04G07G08G09G14G20G30               
  23463645.203 4 123302273.184 4  96079733.07146  23463655.19146
  20401119.641 6 107208604.544 6  83539205.53747  20401127.84447
  24443905.836 3 128453571.052 3 100093758.34848  24443920.31648
  21340327.258 6 112144170.330 6  87385108.37549  21340337.79749
  22719711.977 4 119392918.604 4  93033497.37746  22719722.38346
  22810329.648 4 119868951.118 4  93404524.81846  22810337.93046
  21372626.188 6 112313912.911 6  87517360.79448  21372636.93848
 22  7  3 14 36 30.0000000  0  7G04G07G08G09G14G20G30               
  23466739.414 4 123318538.896 4  96092407.65746  23466750.44946
  20402974.250 6 107218349.203 6  83546798.78248  20402982.10548
  24443563.680 2 128451769.887 2 100092354.85548  24443577.68048
  21342153.898 6 112153768.677 6  87392587.60749  21342163.93049
  22717619.938 4 119381925.252 4  93024931.14646  22717630.40646
  22809723.055 4 119865762.292 4  93402040.02446  22809731.27346
  21372868.766 6 112315187.225 6  87518353.76148  21372879.89148
 22  7  3 14 36 35.0000000  0  7G04G07G08G09G14G20G30               
  23469836.109 4 123334811.157 4  96105087.32046  23469847.14546
  20404829.883 6 107228102.268 6  83554398.57748  20404837.66048
  24443223.063 3 128449977.041 3 100090957.85148  24443236.17648
  21343981.578 6 112163376.016 6  87400073.84449  21343992.33249
  22715528.461 5 119370939.506 5  93016370.84446  22715539.20346
  22809119.406 5 119862587.204 5  93399565.93746  22809126.99246
  21373113.242 6 112316469.979 6  87519353.32148  21373123.90648
 22  7  3 14 36 40.0000000  0  7G04G07G08G09G14G20G30               
  23472934.594 4 123351089.944 4  96117772.09546  23472944.62146
  20406687.461 6 107237863.683 6  83562004.87648  20406695.50448
  24442882.984 2 128448192.473 2 100089567.26048  24442896.89148
  21345811.531 6 112172992.282 6  87407567.03949  21345821.94949
  22713439.469 5 119359961.240 5  93007816.36047  22713449.92247
  22808517.711 5 119859425.849 5  93397102.50546  22808525.04746
  21373359.188 6 112317761.099 6  87520359.39248  21373369.28548
 22  7  3 14 36 45.0000000  0  7G04G07G08G09G14G20G30               
  23176241.500 4 121791958.327 4  94902864.32546  23176251.71946
  20108754.234 6 105672215.255 6  82342019.08347  20108762.33647
  24142752.023 2 126870995.577 2  98860582.70347  24142766.19947
  21047851.195 6 110607199.271 6  86187468.58949  21047861.87549
  22411560.211 5 117773568.284 5  91771666.03147  22411569.27747
  22508125.906 5 118280857.352 5  92167049.14246  22508133.53146
  21073813.656 6 110743640.684 6  86293772.05248  21073824.13348
 22  7  3 14 36 50.0000000  0  7G04G07G08G09G14G20G30               
  23179341.227 5 121808249.478 5  94915558.73746  23179351.53546
  20110615.570 6 105681992.728 6  82349637.89348  20110623.23848
  24142416.023 2 126869226.849 2  98859204.48448  24142429.33248
  21049684.352 6 110616832.817 6  86194975.24149  21049694.81349
  22409473.234 5 117762604.561 5  91763122.87146  22409482.82446
  22507529.820 5 118277722.729 5  92164606.56446  22507537.05146
  21074062.477 6 110744947.884 6  86294790.65648  21074072.97348
 22  7  3 14 36 55.0000000  0  7G04G07G08G09G14G20G30               
  23182443.344 5 121824546.963 5  94928258.05746  23182453.13346
  20112477.453 6 105691778.308 6  82357263.02147  20112485.22747
  24142080.172 1 126867466.087 1  98857832.46347  24142094.30547
  21051519.781 6 110626475.146 6  86202488.74749  21051529.67249
  22407388.516 5 117751648.263 5  91754585.52546  22407397.34446
  22506935.227 5 118274601.659 5  92162174.55346  22506942.76646
  21074312.703 6 110746263.272 6  86295815.63948  21074323.59048
 22  7  3 14 37  0.0000000  0  7G04G07G08G09G14G20G30               
  23185546.266 5 121840850.820 5  94940962.38746  23185555.94546
  20114340.734 6 105701572.120 6  82364894.56347  20114349.03547
  24141747.414 1 126865713.368 1  98856466.72947  24141760.53147
  21053356.156 6 110636126.319 6  86210009.13949  21053366.44549
  22405304.711 5 117740699.440 5  91746053.99546  22405314.23846
  22506344.156 5 118271494.133 5  92159753.09546  22506351.72346
  21074564.742 6 110747586.888 6  86296847.02848  21074575.56348
 22  7  3 14 37  5.0000000  0  7G04G07G08G09G14G20G30               
  23188649.039 5 121857160.928 5  94953671.57046  23188659.52346
  20116205.773 6 105711373.979 6  82372532.37147  20116213.94947
  24141415.305 2 126863968.699 2  98855107.27247  24141428.73047
  21055194.625 6 110645786.188 6  86217536.30949  21055204.41849
  22403222.813 5 117729757.951 5  91737528.16847  22403232.12947
  22505754.781 5 118268400.166 5  92157342.22646  22505762.78146
  21074817.742 6 110748918.607 6  86297884.73548  21074829.11748
 22  7  3 14 37 10.0000000  0  7G04G07G08G09G14G20G30               
  23191754.578 5 121873477.942 5  94966386.11446  23191764.79346
  20118072.914 6 105721184.518 6  82380176.94547  20118081.13747
  24141085.078 2 126862232.656 2  98853754.52548  24141098.00848
  21057034.164 6 110655455.413 6  86225070.77349  21057044.07049
  22401141.664 5 117718824.497 5  91729008.60647  22401151.82447
  22505169.289 5 118265320.319 5  92154942.34046  22505176.83246
  21075072.883 6 110750259.045 6  86298929.23748  21075084.07048
 22  7  3 14 37 15.0000000  0  7G04G07G08G09G14G20G30               
  23194860.750 4 121889801.451 4  94979105.73246  23194870.29346
  20119941.523 6 105731003.378 6  82387828.00147  20119949.25447
  24140755.398 2 126860504.842 2  98852408.19848  24140769.23448
  21058875.922 6 110665133.602 6  86232612.21349  21058886.32049
  22399063.195 5 117707898.641 5  91720494.96147  22399072.56647
  22504585.227 4 118262254.188 4  92152553.15846  22504593.55946
  21075329.781 6 110751607.813 6  86299980.22448  21075340.61348
 22  7  3 14 37 20.0000000  0  7G04G07G08G09G14G20G30               
  23197968.852 5 121906131.051 5  94991830.08446  23197977.92246
  20121811.336 6 105740830.092 6  82395485.17448  20121819.44548
  24140428.828 2 126858785.107 2  98851068.15947  24140442.10947
  21060719.500 6 110674820.321 6  86240160.30549  21060729.87149
  22396985.297 5 117696980.008 5  91711986.96047  22396995.02347
  22504004.523 4 118259201.414 4  92150174.36046  22504012.35246
  21075587.969 6 110752964.500 6  86301037.39248  21075598.95348
 22  7  3 14 37 25.0000000  0  7G04G07G08G09G14G20G30               
  23201076.914 4 121922467.280 4  95004559.61846  23201086.74246
  20123682.664 6 105750665.174 6  82403148.87447  20123691.07047
  24140102.484 2 126857073.665 2  98849734.58647  24140116.01647
  21062564.078 6 110684516.175 6  86247715.52049  21062574.33649
  22394909.180 5 117686069.172 5  91703485.02047  22394919.25847
  22503425.430 4 118256162.495 4  92147806.38646  22503434.12146
  21075848.258 6 110754329.651 6  86302101.14048  21075858.45348
 22  7  3 14 37 30.0000000  0  7G04G07G08G09G14G20G30               
  23204186.906 5 121938809.833 5  95017294.06846  23204196.82046
  20125555.719 6 105760508.375 6  82410818.90647  20125564.10547
  24139778.117 2 126855370.443 2  98848407.42747  24139791.87547
  21064410.797 6 110694220.836 6  86255277.58949  21064421.30149
  22392834.125 5 117675165.855 5  91694988.95247  22392844.80947
  22502849.766 4 118253137.199 4  92145449.00946  22502858.55546
  21076109.148 6 110755702.946 6  86303171.25048  21076119.79748
 22  7  3 14 37 35.0000000  0  7G04G07G08G09G14G20G30               
  23207296.914 4 121955159.070 4  95030033.75346  23207307.91446
  20127431.227 6 105770360.011 6  82418495.50247  20127439.10247
  24139456.625 2 126853675.679 2  98847086.84348  24139469.68448
  21066259.445 6 110703934.660 6  86262846.80349  21066269.52049
  22390760.602 5 117664270.370 5  91686498.96547  22390770.97347
  22502277.609 4 118250125.850 4  92143102.51246  22502285.53146
  21076371.969 6 110757084.750 6  86304247.97648  21076382.69148
 22  7  3 14 37 40.0000000  0  7G04G07G08G09G14G20G30               
  23210409.594 4 121971514.402 4  95042778.14146  23210420.05146
  20129307.008 6 105780219.516 6  82426178.23047  20129314.81647
  24139135.273 2 126851988.902 2  98845772.49448  24139149.10248
  21068109.367 6 110713657.009 6  86270422.67149  21068120.12149
  22388688.953 5 117653382.158 5  91678014.66247  22388699.75047
  22501706.945 4 118247127.893 4  92140766.46346  22501715.46146
  21076635.875 6 110758474.480 6  86305330.88748  21076647.14548
 22  7  3 14 37 45.0000000  0  7G04G07G08G09G14G20G30               
  23213522.992 4 121987876.400 4  95055527.75146  23213533.52346
  20131184.875 6 105790087.342 6  82433867.45547  20131192.89847
  24138815.773 2 126850310.542 2  98844464.69748  24138829.77048
  21069961.469 6 110723388.536 6  86278005.67749  21069971.50849
  22386618.531 5 117642501.772 5  91669536.45947  22386628.99647
  22501138.859 4 118244143.807 4  92138441.20046  22501147.63346
  21076903.078 6 110759872.624 6  86306420.35448  21076913.33648
 22  7  3 14 37 50.0000000  0  7G04G07G08G09G14G20G30               
  23216637.750 4 122004244.604 4  95068282.18946  23216648.77346
  20133064.055 6 105799963.198 6  82441562.91648  20133072.47348
  24138498.719 2 126848640.252 2  98843163.18448  24138511.93848
  21071815.219 6 110733128.759 6  86285595.45549  21071824.92649
  22384549.438 5 117631628.819 5  91661064.02947  22384560.23447
  22500574.219 4 118241173.321 4  92136126.55046  22500582.62946
  21077169.617 6 110761278.827 6  86307516.10848  21077180.84448
 22  7  3 14 37 55.0000000  0  7G04G07G08G09G14G20G30               
  23219753.625 3 122020618.942 3  95081041.39646  23219764.55546
  20134945.117 6 105809846.901 6  82449264.50948  20134952.94148
  24138181.664 2 126846978.046 2  98841867.98748  24138195.37948
  21073670.063 6 110742877.608 6  86293191.96149  21073680.48449
  22382481.531 5 117620763.243 5  91652597.35747  22382492.01247
  22500010.680 4 118238216.196 4  92133822.30346  22500019.97746
  21077439.313 6 110762692.958 6  86308618.03248  21077449.76248
 22  7  3 14 38  0.0000000  0  7G04G07G08G09G14G20G30               
  23222870.906 4 122036999.625 4  95093805.54146  23222881.95746
  20136827.422 6 105819738.675 6  82456972.38448  20136835.46148
  24137866.438 2 126845324.181 2  98840579.26648  24137880.30948
  21075526.766 6 110752635.280 6  86300795.33649  21075537.01649
  22380415.992 5 117609905.210 5  91644136.56047  22380425.62547
  22499450.242 4 118235272.738 4  92131528.69446  22499459.31646
  21077709.789 6 110764115.211 6  86309726.29048  21077720.48048
 22  7  3 14 38  5.0000000  0  7G04G07G08G09G14G20G30               
  23225989.273 3 122053386.744 3  95106574.71346  23226000.22346
  20138711.234 6 105829638.635 6  82464686.64248  20138719.28948
  24137554.492 2 126843678.494 2  98839296.93348  24137567.08248
  21077385.195 6 110762401.885 6  86308405.67049  21077395.64149
  22378351.148 5 117599054.856 5  91635681.75847  22378360.47747
  22498892.922 4 118232342.974 4  92129245.77146  22498902.01246
  21077982.094 6 110765545.704 6  86310840.97048  21077992.79748
 22  7  3 14 38 10.0000000  0  7G04G07G08G09G14G20G30               
  23229108.156 3 122069780.041 3  95119348.70146  23229119.55546
  20140596.734 6 105839546.478 6  82472407.04048  20140604.67248
  24137242.914 2 126842040.689 2  98838020.72048  24137255.16448
  21079245.133 6 110772177.146 6  86316022.76249  21079255.86349
  22376287.109 5 117588211.920 5  91627232.71647  22376297.30547
  22498338.508 4 118229426.717 4  92126973.36246  22498347.13746
  21078255.344 6 110766984.154 6  86311961.84148  21078266.29748
 22  7  3 14 38 15.0000000  0  7G04G07G08G09G14G20G30               
  23232228.922 4 122086179.755 4  95132127.70546  23232240.44946
  20142483.609 6 105849462.472 6  82480133.77948  20142491.43048
  24136932.047 2 126840411.374 2  98836751.13348  24136945.24648
  21081107.359 6 110781961.402 6  86323646.85749  21081117.88749
  22374225.375 6 117577376.725 6  91618789.72047  22374235.47747
  22497786.016 4 118226524.228 4  92124711.71046  22497794.68446
  21078530.789 6 110768430.846 6  86313089.14248  21078541.55948
 22  7  3 14 38 20.0000000  0  7G04G07G08G09G14G20G30               
  23235351.938 4 122102585.516 4  95144911.41646  23235362.33646
  20144372.164 6 105859386.185 6  82487866.55248  20144379.96948
  24136625.141 2 126838789.912 2  98835487.67848  24136636.71148
  21082970.969 6 110791754.188 6  86331277.59149  21082981.21149
  22372165.477 5 117566548.867 5  91610352.43047  22372174.62947
  22497236.063 4 118223635.165 4  92122460.48946  22497244.87946
  21078807.609 6 110769885.381 6  86314222.54548  21078818.60248
 22  7  3 14 38 25.0000000  0  7G04G07G08G09G14G20G30               
  23238473.961 4 122118997.945 4  95157700.34346  23238484.53946
  20146262.109 6 105869318.258 6  82495605.83148  20146269.55148
  24136317.547 2 126837177.215 2  98834231.04848  24136329.37948
  21084835.930 6 110801556.152 6  86338915.48449  21084846.52749
  22370106.359 5 117555728.953 5  91601921.34747  22370115.77047
  22496689.000 4 118220760.116 4  92120220.20946  22496697.43046
  21079086.016 6 110771348.352 6  86315362.53448  21079096.92648
 22  7  3 14 38 30.0000000  0  7G04G07G08G09G14G20G30               
  23241599.250 3 122135416.417 3  95170493.93746  23241609.56646
  20148153.703 6 105879258.041 6  82503351.10648  20148161.15648
  24136011.492 2 126835572.325 2  98832980.51148  24136024.39548
  21086703.133 6 110811366.678 6  86346560.04749  21086713.05549
  22368048.773 5 117544916.333 5  91593495.93847  22368057.51247
  22496144.211 4 118217898.373 4  92117990.26346  22496152.87546
  21079365.953 6 110772819.107 6  86316508.58148  21079376.91448
 22  7  3 14 38 35.0000000  0  7G04G07G08G09G14G20G30               
  23244723.930 2 122151841.443 2  95183292.65846  23244734.95746
  20150046.477 6 105889206.043 6  82511102.79748  20150054.56348
  24135708.367 3 126833976.013 3  98831736.65748  24135720.71148
  21088571.172 6 110821186.220 6  86354211.63549  21088582.00449
  22365993.211 5 117534111.592 5  91585076.66247  22366001.62547
  22495602.813 3 118215050.569 3  92115771.18046  22495610.71546
  21079647.211 6 110774298.199 6  86317661.12448  21079658.14148
 22  7  3 14 38 40.0000000  0  7G04G07G08G09G14G20G30               
  23247851.320 2 122168272.868 2  95196096.34446  23247861.51246
  20151941.188 6 105899162.121 6  82518860.78448  20151949.10548
  24135405.703 3 126832388.115 3  98830499.35948  24135418.82848
  21090441.648 6 110831014.768 6  86361870.24849  21090452.23449
  22363938.852 5 117523314.590 5  91576663.44047  22363947.07447
  22495063.961 3 118212216.551 3  92113562.85446  22495071.57446
  21079930.391 6 110775785.488 6  86318820.05348  21079941.65248
 22  7  3 14 38 45.0000000  0  7G04G07G08G09G14G20G30               
  23250979.344 2 122184710.833 2  95208905.17046  23250990.08246
  20153837.086 6 105909126.395 6  82526625.15448  20153844.93048
  24135104.930 2 126830808.833 2  98829268.76348  24135118.18848
  21092314.273 6 110840852.317 6  86369535.86649  21092324.51649
  22361885.047 5 117512525.426 5  91568256.31347  22361894.09847
  22494526.367 3 118209396.285 3  92111365.25246  22494534.75446
  21080214.711 6 110777281.025 6  86319985.41248  21080225.76648
 22  7  3 14 38 50.0000000  0  7G04G07G08G09G14G20G30               
  23254108.047 2 122201155.252 2  95221719.01246  23254119.34046
  20155734.500 6 105919098.768 6  82534395.83048  20155743.19548
  24134805.234 4 126829237.724 4  98828044.54148  24134818.74648
  21094187.563 6 110850698.845 6  86377208.48049  21094197.84049
  22359833.930 6 117501744.104 6  91559855.28847  22359842.85247
  22493992.914 3 118206589.907 3  92109178.48346  22494000.81346
  21080501.047 6 110778784.824 6  86321157.20048  21080512.28148
 22  7  3 14 38 55.0000000  0  7G04G07G08G09G14G20G30               
  23257238.797 2 122217606.174 2  95234537.89646  23257249.96546
  20157634.305 6 105929079.299 6  82542172.87548  20157642.20348
  24134508.523 3 126827675.178 3  98826826.96648  24134521.84848
  21096062.977 6 110860554.468 6  86384888.18649  21096073.51249
  22357783.039 5 117490970.616 5  91551460.39547  22357792.92247
  22493460.656 3 118203797.428 3  92107002.53046  22493469.79346
  21080788.750 6 110780296.842 6  86322335.39648  21080799.89548
 22  7  3 14 39  0.0000000  0  7G04G07G08G09G14G20G30               
  23260369.586 2 122234063.629 2  95247361.86746  23260381.75446
  20159535.180 6 105939067.987 6  82549956.26748  20159542.66848
  24134213.031 3 126826121.196 3  98825616.08948  24134226.45748
  21097940.461 6 110870419.123 6  86392574.92649  21097950.60249
  22355734.648 6 117480205.021 6  91543071.62947  22355744.66047
  22492932.055 4 118201018.830 4  92104837.40246  22492941.23046
  21081077.781 6 110781817.166 6  86323520.06648  21081089.35548
 22  7  3 14 39  5.0000000  0  7G04G07G08G09G14G20G30               
  23263503.352 2 122250527.647 2  95260190.98345  23263514.40245
  20161437.117 6 105949064.857 6  82557746.03048  20161444.92648
  24133918.719 3 126824575.752 3  98824411.85648  24133932.11748
  21099819.203 6 110880292.873 6  86400268.75849  21099829.68049
  22353687.898 6 117469447.407 6  91534689.09147  22353698.00047
  22492406.672 4 118198254.298 4  92102683.22346  22492415.28546
  21081368.852 6 110783345.799 6  86324711.21148  21081380.55948
 22  7  3 14 39 10.0000000  0  7G04G07G08G09G14G20G30               
  23266637.328 2 122266997.646 2  95273024.70045  23266649.01645
  20163341.328 6 105959069.319 6  82565541.73148  20163348.74648
  24133626.469 4 126823038.341 4  98823213.87548  24133639.53948
  21101699.391 6 110890175.156 6  86407969.23749  21101709.62149
  22351641.789 5 117458697.134 5  91526312.26347  22351652.28947
  22491882.602 4 118195503.102 4  92100539.45446  22491891.63746
  21081661.484 6 110784882.156 6  86325908.36948  21081673.01248
 22  7  3 14 39 15.0000000  0  7G04G07G08G09G14G20G30               
  23269772.609 2 122283474.077 2  95285863.47845  23269784.01645
  20165246.477 6 105969081.747 6  82573343.62448  20165253.89148
  24133334.547 4 126821509.399 4  98822022.49848  24133348.43048
  21103582.203 6 110900066.357 6  86415676.66049  21103592.64849
  22349597.453 5 117447954.653 5  91517941.50047  22349608.27747
  22491361.453 4 118192765.697 4  92098406.40846  22491371.01246
  21081955.781 6 110786426.621 6  86327111.85348  21081966.43048
 22  7  3 14 39 20.0000000  0  7G04G07G08G09G14G20G30               
  23272908.969 1 122299956.800 1  95298707.13646  23272920.89846
  20167152.938 6 105979102.152 6  82581151.72348  20167161.00448
  24133045.805 4 126819988.859 4  98820837.68548  24133059.65248
  21105465.836 6 110909966.446 6  86423391.01149  21105476.20349
  22347554.477 5 117437219.921 5  91509576.78647  22347565.53147
  22490843.391 4 118190042.042 4  92096284.09546  22490852.62946
  21082251.313 6 110787979.161 6  86328321.62348  21082261.92248
 22  7  3 14 39 25.0000000  0  7G04G07G08G09G14G20G30               
  23276047.586 1 122316445.562 1  95311555.53046  23276058.31646
  20169060.969 6 105989130.218 6  82588965.81248  20169068.89148
  24132757.641 3 126818476.469 3  98819659.21248  24132771.51648
  21107351.711 6 110919875.207 6  86431112.12849  21107361.89849
  22345513.328 6 117426492.729 6  91501217.94447  22345524.38747
  22490327.336 4 118187331.917 4  92094172.32146  22490336.87546
  21082547.750 6 110789539.526 6  86329537.49748  21082558.71548
 22  7  3 14 39 30.0000000  0  7G04G07G08G09G14G20G30               
  23279187.367 2 122332940.336 2  95324408.59646  23279196.80146
  20170970.961 6 105999165.897 6  82596785.82447  20170978.74647
  24132472.188 4 126816972.082 4  98818486.97448  24132484.85548
  21109238.445 6 110929792.434 6  86438839.83249  21109248.79749
  22343473.234 5 117415772.898 5  91492864.83947  22343484.46147
  22489815.172 4 118184635.156 4  92092070.95046  22489823.96546
  21082846.234 6 110791107.564 6  86330759.34748  21082856.91048
 22  7  3 14 39 35.0000000  0  7G04G07G08G09G14G20G30               
  23282326.172 2 122349441.158 2  95337266.38046  23282336.68046
  20172881.977 6 106009209.223 6  82604611.79047  20172890.22747
  24132186.992 4 126815475.857 4  98817321.09148  24132200.08248
  21111127.266 6 110939718.339 6  86446574.29949  21111137.73049
  22341434.813 5 117405060.615 5  91484517.60447  22341445.53547
  22489303.844 4 118181951.900 4  92089980.10346  22489312.75846
  21083146.570 6 110792683.410 6  86331987.28248  21083156.82448
 22  7  3 14 39 40.0000000  0  7G04G07G08G09G14G20G30               
  23285466.578 2 122365948.506 2  95350129.26146  23285477.84446
  20174794.578 6 106019260.563 6  82612444.00647  20174802.41847
  24131904.641 4 126813988.222 4  98816161.89748  24131917.08248
  21113017.797 6 110949653.259 6  86454315.80049  21113028.24649
  22339397.773 6 117394356.250 6  91476176.55047  22339408.75847
  22488795.602 4 118179282.613 4  92087900.14846  22488805.65246
  21083447.914 6 110794267.452 6  86333221.61048  21083458.27348
 22  7  3 14 39 45.0000000  0  7G04G07G08G09G14G20G30               
  23288609.805 2 122382462.155 2  95362997.03446  23288620.95746
  20176709.063 6 106029319.876 6  82620282.44247  20176717.02747
  24131623.055 4 126812509.097 4  98815009.37148  24131635.54348
  21114910.203 6 110959597.104 6  86462064.25249  21114921.05549
  22337362.625 6 117383659.734 6  91467841.61347  22337373.26247
  22488290.617 4 118176627.070 4  92085830.88046  22488299.88346
  21083750.266 6 110795859.563 6  86334462.22148  21083761.59848
 22  7  3 14 39 50.0000000  0  7G04G07G08G09G14G20G30               
  23291752.922 2 122398982.164 2  95375869.73846  23291764.16446
  20178624.734 6 106039386.982 6  82628126.93147  20178632.93447
  24131342.680 4 126811038.356 4  98813863.34448  24131355.68848
  21116804.281 6 110969549.832 6  86469819.62049  21116814.89149
  22335328.453 6 117372970.971 6  91459512.70347  22335339.44947
  22487788.398 4 118173985.345 4  92083772.39746  22487796.79746
  21084054.992 6 110797459.684 6  86335709.07248  21084065.58248
 22  7  3 14 39 55.0000000  0  7G04G07G08G09G14G20G30               
  23294898.172 2 122415508.343 2  95388747.26146  23294909.07046
  20180542.008 6 106049461.883 6  82635977.50547  20180550.24647
  24131063.664 4 126809575.934 4  98812723.81348  24131077.60248
  21118699.914 6 110979511.321 6  86477581.81849  21118710.61749
  22333296.359 6 117362289.936 6  91451189.82547  22333306.75847
  22487288.328 4 118171357.148 4  92081724.46546  22487296.67246
  21084360.789 6 110799067.724 6  86336962.10348  21084371.29348
 22  7  3 14 40  0.0000000  0  7G04G07G08G09G14G20G30               
  23298044.563 2 122432040.390 2  95401629.36746  23298055.14546
  20182460.703 6 106059544.174 6  82643833.83147  20182468.87547
  24130787.234 4 126808121.533 4  98811590.52648  24130800.49648
  21120596.891 6 110989481.252 6  86485350.59049  21120607.93849
  22331265.227 6 117351616.278 6  91442872.70047  22331275.62947
  22486790.695 4 118168742.308 4  92079686.90946  22486799.12146
  21084668.305 6 110800683.298 6  86338220.99648  21084679.01648
 22  7  3 14 40  5.0000000  0  7G04G07G08G09G14G20G30               
  23301191.563 3 122448578.679 3  95414516.36946  23301202.14146
  20184380.875 6 106069634.250 6  82651696.22947  20184388.61347
  24130512.969 3 126806675.545 3  98810463.78348  24130525.20748
  21122496.648 6 110999460.020 6  86493126.24449  21122506.92649
  22329235.586 6 117340950.379 6  91434561.61947  22329245.65247
  22486295.352 4 118166141.209 4  92077660.10046  22486304.03946
  21084977.352 6 110802306.850 6  86339486.10348  21084987.85248
 22  7  3 14 40 10.0000000  0  7G04G07G08G09G14G20G30               
  23304339.641 3 122465123.027 3  95427408.07246  23304351.02346
  20186302.273 6 106079731.956 6  82659564.57447  20186310.51247
  24130238.789 4 126805237.869 4  98809343.50848  24130251.56348
  21124396.430 6 111009447.459 6  86500908.66449  21124407.15649
  22327207.313 6 117330292.085 6  91426256.46147  22327217.77747
  22485803.125 4 118163553.682 4  92075643.85746  22485811.80546
  21085287.727 6 110803938.217 6  86340757.31248  21085298.77048
 22  7  3 14 40 15.0000000  0  7G04G07G08G09G14G20G30               
  23307488.586 3 122481673.709 3  95440304.69646  23307500.24246
  20188225.414 6 106089837.478 6  82667439.00547  20188233.83247
  24129967.086 4 126803808.591 4  98808229.79748  24129979.62548
  21126298.969 6 111019443.735 6  86508697.96249  21126309.51649
  22325180.859 6 117319641.572 6  91417957.37847  22325190.91847
  22485313.391 4 118160979.956 4  92073638.34146  22485322.01646
  21085599.797 6 110805577.482 6  86342034.67448  21085610.35548
 22  7  3 14 40 20.0000000  0  7G04G07G08G09G14G20G30               
  23310639.336 3 122498230.487 3  95453206.06146  23310650.55546
  20190149.750 6 106099950.636 6  82675319.39048  20190157.55548
  24129696.789 4 126802387.599 4  98807122.52748  24129709.03548
  21128203.094 6 111029448.796 6  86516494.11249  21128213.40249
  22323155.609 6 117308998.805 6  91409664.33147  22323165.53547
  22484825.836 4 118158419.854 4  92071643.45246  22484834.18046
  21085913.367 6 110807224.632 6  86343318.16348  21085924.15648
 22  7  3 14 40 25.0000000  0  7G04G07G08G09G14G20G30               
  23313791.219 2 122514793.212 2  95466112.04946  23313802.42246
  20192075.563 6 106110071.170 6  82683205.51848  20192083.99648
  24129427.359 4 126800974.732 4  98806021.59148  24129440.36748
  21130107.805 6 111039462.282 6  86524296.82849  21130118.68849
  22321131.742 6 117298363.509 6  91401377.09747  22321141.46147
  22484341.016 4 118155873.128 4  92069658.98946  22484349.86346
  21086227.688 6 110808879.335 6  86344607.55148  21086239.08648
 22  7  3 14 40 30.0000000  0  7G04G07G08G09G14G20G30               
  23316944.195 2 122531362.046 2  95479022.84345  23316955.58245
  20194003.031 6 106120199.387 6  82691097.63848  20194011.41048
  24129160.094 4 126799570.302 4  98804927.24448  24129172.88748
  21132015.492 6 111049484.591 6  86532106.40549  21132026.07049
  22319109.406 6 117287735.909 6  91393095.87447  22319118.89847
  22483858.250 4 118153340.097 4  92067685.20446  22483867.90246
  21086544.727 6 110810541.883 6  86345903.04148  21086555.23448
 22  7  3 14 40 35.0000000  0  7G04G07G08G09G14G20G30               
  23320098.914 2 122547936.916 2  95491938.31646  23320109.83246
  20195931.781 6 106130335.089 6  82698995.58948  20195939.50448
  24128894.875 4 126798174.146 4  98803839.34248  24128907.49248
  21133923.844 6 111059515.452 6  86539922.65949  21133934.93449
  22317087.930 6 117277115.922 6  91384820.57347  22317098.27347
  22483379.297 4 118150820.557 4  92065721.92146  22483388.11346
  21086862.445 6 110812212.077 6  86347204.50048  21086873.40648
 22  7  3 14 40 40.0000000  0  7G04G07G08G09G14G20G30               
  23323255.305 2 122564517.680 2  95504858.39946  23323264.59446
  20197861.922 6 106140478.206 6  82706899.32348  20197869.67648
  24128630.727 4 126796786.101 4  98802757.76248  24128643.37948
  21135834.180 6 111069554.867 6  86547745.57349  21135845.49649
  22315069.133 6 117266503.456 6  91376551.13347  22315078.64547
  22482902.289 4 118148314.467 4  92063769.12346  22482911.72346
  21087181.383 6 110813889.922 6  86348511.91948  21087192.25048
 22  7  3 14 40 45.0000000  0  7G04G07G08G09G14G20G30               
  23326410.516 2 122581104.691 2  95517783.34046  23326421.23046
  20199793.484 6 106150628.997 6  82714809.02548  20199801.65648
  24128368.297 4 126795406.507 4  98801682.76448  24128381.01248
  21137746.273 6 111079603.074 6  86555575.34249  21137757.30949
  22313050.695 6 117255898.799 6  91368287.77347  22313060.40647
  22482428.039 4 118145822.089 4  92061827.00646  22482437.37546
  21087502.281 6 110815575.582 6  86349825.42548  21087513.51248
 22  7  3 14 40 50.0000000  0  7G04G07G08G09G14G20G30               
  23329568.367 2 122597697.482 2  95530712.76346  23329578.62146
  20201726.945 6 106160787.105 6  82722724.44248  20201734.73448
  24128107.195 4 126794034.979 4  98800614.05548  24128120.12948
  21139660.586 6 111089659.737 6  86563411.69649  21139671.02049
  22311033.641 6 117245301.618 6  91360030.24847  22311043.73847
  22481957.148 5 118143343.138 5  92059895.37346  22481965.93446
  21087824.625 6 110817268.775 6  86351144.80948  21087835.25448
 22  7  3 14 40 55.0000000  0  7G04G07G08G09G14G20G30               
  23332727.555 3 122614296.465 3  95543647.03446  23332737.13346
  20203661.367 6 106170952.790 6  82730645.74647  20203669.15247
  24127848.063 4 126792671.811 4  98799551.84148  24127860.37548
  21141575.773 6 111099725.109 6  86571254.83949  21141586.23849
  22309019.203 6 117234712.171 6  91351778.72947  22309028.32847
  22481487.742 4 118140877.761 4  92057974.28146  22481497.00046
  21088148.063 6 110818969.725 6  86352470.23648  21088158.94948
 22  7  3 14 41  0.0000000  0  7G04G07G08G09G14G20G30               
  23335885.922 3 122630901.708 3  95556586.17146  23335897.03146
  20205597.555 6 106181126.269 6  82738573.13648  20205605.49648
  24127590.922 4 126791317.325 4  98798496.41248  24127602.92248
  21143492.742 6 111109799.460 6  86579104.96949  21143503.53149
  22307005.438 6 117224130.692 6  91343533.42147  22307014.80147
  22481020.836 4 118138426.265 4  92056064.03646  22481030.25446
  21088473.328 6 110820678.661 6  86353801.87748  21088484.21948
 22  7  3 14 41  5.0000000  0  7G04G07G08G09G14G20G30               
  23339047.211 3 122647512.733 3  95569529.82546  23339058.03546
  20207534.578 6 106191306.966 6  82746506.14347  20207542.59047
  24127333.609 5 126789970.961 5  98797447.29848  24127346.34448
  21145411.867 6 111119882.185 6  86586961.63449  21145422.64549
  22304993.227 6 117213556.636 6  91335293.91147  22305002.82847
  22480557.594 4 118135988.074 4  92054164.14246  22480566.61746
  21088800.195 6 110822395.018 6  86355139.30648  21088810.89548
 22  7  3 14 41 10.0000000  0  7G04G07G08G09G14G20G30               
  23342209.172 3 122664130.229 3  95582478.52546  23342220.18046
  20209473.516 6 106201495.599 6  82754445.34247  20209481.00447
  24127079.328 4 126788633.565 4  98796405.18348  24127091.56648
  21147332.336 6 111129974.015 6  86594825.39249  21147342.50849
  22302982.617 6 117202990.781 6  91327060.78447  22302991.70347
  22480097.063 4 118133563.957 4  92052275.22646  22480105.26246
  21089128.297 6 110824119.518 6  86356483.07648  21089139.30148
 22  7  3 14 41 15.0000000  0  7G04G07G08G09G14G20G30               
  23345373.227 3 122680754.100 3  95595432.19246  23345383.10546
  20211413.258 6 106211692.010 6  82762390.59847  20211421.48047
  24126826.367 4 126787304.804 4  98795369.78548  24126838.82848
  21149253.820 6 111140074.845 6  86602696.16849  21149264.53949
  22300973.281 6 117192432.930 6  91318833.89647  22300983.21147
  22479637.820 4 118131153.762 4  92050397.14946  22479646.68846
  21089457.852 6 110825852.035 6  86357833.09848  21089468.68848
 22  7  3 14 41 20.0000000  0  7G04G07G08G09G14G20G30               
  23348538.117 4 122697384.160 4  95608390.70146  23348548.04346
  20213354.867 6 106221896.035 6  82770341.78547  20213363.63747
  24126575.438 4 126785984.430 4  98794340.92748  24126587.68848
  21151177.383 6 111150184.482 6  86610573.80049  21151188.13749
  22298965.930 6 117181882.987 6  91310613.17247  22298975.61747
  22479181.367 4 118128757.337 4  92048529.80246  22479190.62946
  21089788.594 6 110827592.368 6  86359189.19948  21089799.53948
 22  7  3 14 41 25.0000000  0  7G04G07G08G09G14G20G30               
  23351703.406 4 122714019.964 4  95621353.64246  23351713.77346
  20215298.344 6 106232107.243 6  82778298.56747  20215306.69947
  24126325.117 5 126784672.163 5  98793318.38748  24126338.23848
  21153102.594 6 111160302.515 6  86618457.97949  21153113.39549
  22296959.867 6 117171340.483 6  91302398.24747  22296969.16447
  22478727.805 4 118126374.257 4  92046672.85746  22478737.16846
  21090121.609 6 110829340.084 6  86360551.05948  21090132.41448
 22  7  3 14 41 30.0000000  0  7G04G07G08G09G14G20G30               
  23354869.617 3 122730662.167 3  95634321.57746  23354880.53146
  20217242.430 6 106242326.282 6  82786261.45947  20217250.93847
  24126077.227 4 126783368.526 4  98792302.57648  24126089.66848
  21155030.398 6 111170429.585 6  86626349.19949  21155040.68449
  22294955.219 6 117160806.083 6  91294189.63147  22294965.22747
  22478276.945 4 118124005.127 4  92044826.77846  22478286.27046
  21090455.867 6 110831095.840 6  86361919.18648  21090466.52348
 22  7  3 14 41 35.0000000  0  7G04G07G08G09G14G20G30               
  23358037.711 3 122747310.656 3  95647294.40946  23358048.46546
  20219189.227 6 106252552.964 6  82794230.29747  20219197.14547
  24125829.953 5 126782073.456 5  98791293.43848  24125843.41448
  21156959.180 6 111180565.537 6  86634247.34249  21156969.81649
  22292952.070 6 117150279.662 6  91285987.24147  22292961.96547
  22477828.688 4 118121649.899 4  92042991.55646  22477837.83646
  21090791.422 6 110832859.456 6  86363293.44348  21090802.40648
 22  7  3 14 41 40.0000000  0  7G04G07G08G09G14G20G30               
  23361207.336 3 122763965.166 3  95660271.95546  23361217.65646
  20221136.594 6 106262787.016 6  82802204.87848  20221144.55148
  24125586.195 4 126780786.840 4  98790290.88648  24125598.01648
  21158889.719 6 111190710.153 6  86642152.23349  21158900.20749
  22290949.984 6 117139761.010 6  91277790.90947  22290960.46947
  22477382.828 4 118119308.165 4  92041166.82346  22477392.06346
  21091128.742 6 110834630.715 6  86364673.65348  21091139.04748
 22  7  3 14 41 45.0000000  0  7G04G07G08G09G14G20G30               
  23364378.391 3 122780625.964 3  95673254.39246  23364388.85946
  20223085.828 6 106273028.854 6  82810185.53247  20223093.41447
  24125342.969 5 126779509.088 5  98789295.24048  24125355.18048
  21160821.656 6 111200863.778 6  86650064.14549  21160832.39149
  22288949.953 6 117129250.457 6  91269600.88347  22288960.33647
  22476939.852 4 118116980.472 4  92039353.05046  22476949.28946
  21091467.320 6 110836409.978 6  86366060.09448  21091477.74248
 22  7  3 14 41 50.0000000  0  7G04G07G08G09G14G20G30               
  23367550.078 3 122797293.215 3  95686241.85746  23367560.74646
  20225035.844 6 106283278.543 6  82818172.29647  20225043.75447
  24125100.734 5 126778240.012 5  98788306.35648  24125113.89148
  21162755.750 6 111211026.507 6  86657983.14849  21162766.10949
  22286952.227 6 117118748.109 6  91261417.25447  22286961.76647
  22476499.719 4 118114666.854 4  92037550.23546  22476508.78546
  21091807.234 6 110838197.301 6  86367452.81348  21091817.78948
 22  7  3 14 41 55.0000000  0  7G04G07G08G09G14G20G30               
  23370723.180 4 122813966.407 4  95699233.96246  23370733.83646
  20226988.047 6 106293535.505 6  82826164.73647  20226995.53947
  24124861.367 5 126776979.407 5  98787324.08548  24124873.85248
  21164690.930 6 111221197.813 6  86665908.82949  21164702.00449
  22284954.844 6 117108253.473 6  91253239.62747  22284964.31347
  22476061.578 4 118112366.711 4  92035757.91046  22476071.18846
  21092148.922 6 110839992.149 6  86368851.39748  21092159.16848
 22  7  3 14 42  0.0000000  0  7G04G07G08G09G14G20G30               
  23373896.523 4 122830646.187 4  95712231.18446  23373907.31346
  20228940.953 6 106303800.439 6  82834163.37747  20228949.09847
  24124623.680 5 126775727.709 5  98786348.74648  24124635.92648
  21166628.570 6 111231378.362 6  86673841.72049  21166638.73849
  22282959.156 6 117097767.194 6  91245068.52147  22282969.26647
  22475626.930 4 118110080.845 4  92033976.70646  22475636.23846
  21092492.250 6 110841795.194 6  86370256.38248  21092502.50048
 22  7  3 14 42  5.0000000  0  7G04G07G08G09G14G20G30               
  23377071.805 4 122847332.074 4  95725233.16346  23377082.50846
  20230895.867 6 106314072.830 6  82842167.85047  20230903.89847
  24124386.289 5 126774484.676 5  98785380.16548  24124399.10948
  21168567.281 6 111241567.684 6  86681781.45149  21168578.31649
  22280965.250 6 117087288.802 6  91236903.56047  22280975.02347
  22475195.250 4 118107808.702 4  92032206.22946  22475204.01646
  21092837.023 6 110843605.942 6  86371667.35648  21092847.31348
 22  7  3 14 42 10.0000000  0  7G04G07G08G09G14G20G30               
  23380248.852 4 122864024.063 4  95738239.90346  23380258.71946
  20232851.930 6 106324352.673 6  82850178.10447  20232860.14547
  24124152.023 5 126773250.047 5  98784418.11748  24124164.33248
  21170508.508 6 111251765.734 6  86689727.97749  21170518.38749
  22278972.859 6 117076818.320 6  91228744.75847  22278982.55947
  22474765.477 5 118105550.253 5  92030446.37046  22474774.04746
  21093182.508 6 110845424.365 6  86373084.30748  21093193.25848
 22  7  3 14 42 15.0000000  0  7G04G07G08G09G14G20G30               
  23383426.180 4 122880721.980 4  95751251.25546  23383436.39146
  20234809.766 6 106334639.869 6  82858194.10447  20234817.44547
  24123918.352 5 126772023.910 5  98783462.69948  24123930.57448
  21172450.219 6 111261972.407 6  86697681.22449  21172460.86749
  22276981.969 6 117066355.602 6  91220591.99947  22276991.21547
  22474337.789 5 118103305.461 5  92028697.21246  22474346.94946
  21093529.586 6 110847250.350 6  86374507.15648  21093540.62548
 22  7  3 14 42 20.0000000  0  7G04G07G08G09G14G20G30               
  23386604.727 4 122897426.252 4  95764267.56246  23386615.42646
  20236768.781 6 106344934.703 6  82866216.05048  20236775.94948
  24123686.828 5 126770806.519 5  98782514.08848  24123699.13748
  21174394.430 6 111272188.089 6  86705641.49049  21174404.65649
  22274992.289 6 117055901.030 6  91212445.59147  22275001.83247
  22473913.977 4 118101074.586 4  92026958.85546  22473922.79746
  21093879.133 6 110849084.246 6  86375936.17648  21093889.60948
 22  7  3 14 42 25.0000000  0  7G04G07G08G09G14G20G30               
  23389785.359 4 122914136.679 4  95777288.68646  23389795.19946
  20238729.617 6 106355237.104 6  82874243.89548  20238737.18048
  24123456.195 5 126769597.912 5  98781572.32948  24123469.38348
  21176340.195 6 111282412.642 6  86713608.66949  21176350.54749
  22273004.375 6 117045454.525 6  91204305.47647  22273013.92247
  22473492.547 4 118098857.579 4  92025231.33446  22473501.23846
  21094229.070 6 110850925.960 6  86377371.27648  21094239.93048
 22  7  3 14 42 30.0000000  0  7G04G07G08G09G14G20G30               
  23392966.266 4 122930853.573 4  95790314.83146  23392976.25046
  20240691.172 6 106365547.227 6  82882277.74648  20240699.05948
  24123228.586 4 126768398.190 4  98780637.48848  24123241.33248
  21178287.555 6 111292646.354 6  86721582.98649  21178297.94149
  22271017.945 6 117035016.327 6  91196171.82747  22271027.46947
  22473072.234 4 118096654.730 4  92023514.82846  22473081.64846
  21094581.258 6 110852775.682 6  86378812.61948  21094592.54348
 22  7  3 14 42 35.0000000  0  7G04G07G08G09G14G20G30               
  23396147.992 4 122947576.441 4  95803345.64146  23396158.54746
  20242654.500 6 106375864.643 6  82890317.29048  20242662.60548
  24123001.625 4 126767206.914 4  98779709.23048  24123014.19148
  21180236.414 6 111302888.707 6  86729564.03849  21180247.50449
  22269033.125 6 117024585.967 6  91188044.28147  22269042.36747
  22472655.688 4 118094465.484 4  92021808.91946  22472664.98846
  21094934.344 6 110854632.974 6  86380259.86948  21094945.71948
 22  7  3 14 42 40.0000000  0  7G04G07G08G09G14G20G30               
  23399331.266 4 122964305.535 4  95816381.28546  23399342.41446
  20244619.258 6 106386189.628 6  82898362.72748  20244627.52048
  24122776.391 4 126766024.338 4  98778787.75148  24122789.41848
  21182187.227 6 111313140.001 6  86737552.04949  21182198.34849
  22267049.820 6 117014163.740 6  91179923.07347  22267058.79747
  22472242.383 4 118092290.189 4  92020113.88046  22472251.40646
  21095289.211 6 110856498.096 6  86381713.20848  21095300.53148
 22  7  3 14 42 45.0000000  0  7G04G07G08G09G14G20G30               
  23402516.375 4 122981041.138 4  95829422.01946  23402526.35946
  20246585.578 6 106396522.377 6  82906414.22848  20246593.73848
  24122553.188 4 126764850.767 4  98777873.29448  24122566.36748
  21184139.859 6 111323400.460 6  86745547.19849  21184150.56649
  22265068.172 6 117003749.870 6  91171808.38147  22265077.71147
  22471830.063 4 118090129.044 4  92018429.88146  22471840.10246
  21095646.164 6 110858371.258 6  86383172.82048  21095657.28948
 22  7  3 14 42 50.0000000  0  7G04G07G08G09G14G20G30               
  23405702.266 4 122997783.026 4  95842467.62046  23405712.71946
  20248552.977 6 106406862.727 6  82914471.63848  20248561.44948
  24122332.227 4 126763686.076 4  98776965.75248  24122344.50448
  21186094.086 6 111333669.881 6  86753549.34249  21186104.68049
  22263087.688 6 116993344.189 6  91163700.06147  22263097.18847
  22471421.750 4 118087981.848 4  92016756.74346  22471431.26246
  21096003.633 6 110860252.272 6  86384638.54948  21096014.68448
 22  7  3 14 42 55.0000000  0  7G04G07G08G09G14G20G30               
  23408889.328 4 123014531.366 4  95855518.29046  23408899.55946
  20250522.320 6 106417210.876 6  82922535.12848  20250530.71948
  24122111.438 5 126762530.569 5  98776065.37748  24122124.45748
  21188049.578 6 111343948.466 6  86761558.61749  21188060.47349
  22261109.352 6 116982946.873 6  91155598.27147  22261118.32047
  22471015.789 4 118085848.844 4  92015094.65746  22471025.22746
  21096363.500 6 110862141.355 6  86386110.56548  21096374.41848
 22  7  3 14 43  0.0000000  0  7G04G07G08G09G14G20G30               
  23412077.648 4 123031285.732 4  95868573.64246  23412087.67246
  20252493.078 6 106427566.342 6  82930604.31648  20252501.41448
  24121893.500 4 126761383.579 4  98775171.61148  24121906.52348
  21190007.539 6 111354235.821 6  86769574.72549  21190018.25049
  22259132.188 6 116972557.595 6  91147502.73847  22259141.35947
  22470611.906 4 118083729.625 4  92013443.32346  22470621.96146
  21096724.258 6 110864038.032 6  86387588.49148  21096735.47748
 22  7  3 14 43  5.0000000  0  7G04G07G08G09G14G20G30               
  23415266.789 4 123048046.178 4  95881633.73146  23415277.69946
  20254465.109 6 106437929.086 6  82938679.17548  20254473.16048
  24121676.617 4 126760245.129 4  98774284.52048  24121689.12148
  21191966.984 6 111364531.879 6  86777597.61949  21191977.45349
  22257156.648 6 116962176.206 6  91139413.34747  22257165.46547
  22470212.000 4 118081624.060 4  92011802.64146  22470221.13746
  21097086.602 6 110865942.263 6  86389072.31748  21097097.72748
 22  7  3 14 43 10.0000000  0  7G04G07G08G09G14G20G30               
  23418457.969 3 123064813.016 3  95894698.82446  23418467.99646
  20256438.844 6 106448299.483 6  82946760.01048  20256446.59848
  24121461.352 5 126759115.729 5  98773404.48148  24121474.36748
  21193927.813 6 111374837.063 6  86785627.61549  21193938.72349
  22255182.547 6 116951803.188 6  91131330.49247  22255191.48847
  22469814.469 4 118079532.688 4  92010172.99046  22469823.52046
  21097450.859 6 110867854.479 6  86390562.35048  21097461.53148
 22  7  3 14 43 15.0000000  0  7G04G07G08G09G14G20G30               
  23421649.797 3 123081586.418 3  95907768.97746  23421660.12946
  20258413.500 6 106458677.696 6  82954846.92448  20258421.32448
  24121248.102 5 126757995.538 5  98772531.61448  24121261.09048
  21195890.391 6 111385151.508 6  86793664.84449  21195901.22349
  22253210.398 6 116941438.708 6  91123254.28347  22253219.30947
  22469419.078 4 118077455.527 4  92008554.43846  22469428.19946
  21097816.172 6 110869774.767 6  86392058.68648  21097827.21948
 22  7  3 14 43 20.0000000  0  7G04G07G08G09G14G20G30               
  23424842.391 4 123098366.020 4  95920843.97646  23424853.18446
  20260389.742 6 106469063.440 6  82962939.71648  20260397.79348
  24121036.484 5 126756884.033 5  98771665.52048  24121049.64148
  21197854.898 6 111395474.908 6  86801709.04049  21197865.95349
  22251240.289 6 116931082.438 6  91115184.47147  22251248.08647
  22469026.602 5 118075392.375 5  92006946.77646  22469035.40646
  21098183.141 6 110871702.898 6  86393561.13048  21098193.94148
 22  7  3 14 43 25.0000000  0  7G04G07G08G09G14G20G30               
  23428036.055 4 123115151.641 4  95933923.65346  23428046.84846
  20262367.250 6 106479456.405 6  82971038.12748  20262375.56648
  24120826.992 4 126755781.177 4  98770806.14848  24120839.20348
  21199821.344 6 111405807.011 6  86809760.02249  21199832.12549
  22249270.516 6 116920734.113 6  91107120.85647  22249278.90647
  22468636.453 5 118073342.920 5  92005349.80046  22468645.14846
  21098551.406 6 110873638.534 6  86395069.41748  21098562.10548
 22  7  3 14 43 30.0000000  0  7G04G07G08G09G14G20G30               
  23431231.539 4 123131943.636 4  95947008.33046  23431242.38746
  20264346.781 6 106489857.021 6  82979142.49748  20264354.70748
  24120619.016 5 126754687.293 5  98769953.78648  24120631.21548
  21201789.102 6 111416148.212 6  86817818.09949  21201799.83649
  22247302.836 6 116910394.173 6  91099063.76347  22247311.06647
  22468249.445 5 118071307.578 5  92003763.82246  22468257.82846
  21098921.117 6 110875582.089 6  86396583.88048  21098932.07848
 22  7  3 14 43 35.0000000  0  7G04G07G08G09G14G20G30               
  23434428.734 4 123148742.451 4  95960098.30446  23434438.82446
  20266327.078 6 106500265.685 6  82987253.14948  20266335.58248
  24120411.852 5 126753602.786 5  98769108.72548  24120425.05948
  21203758.883 6 111426498.993 6  86825883.64149  21203769.60249
  22245336.492 6 116900063.081 6  91091013.58047  22245344.96947
  22467864.789 5 118069286.865 5  92002189.23246  22467873.21146
  21099292.820 6 110877534.003 6  86398104.85448  21099303.34848
 22  7  3 14 43 40.0000000  0  7G04G07G08G09G14G20G30               
  23437627.133 4 123165547.198 4  95973192.91646  23437637.09846
  20268309.773 6 106510681.521 6  82995369.38848  20268317.80948
  24120207.844 5 126752526.944 5  98768270.41348  24120220.19148
  21205730.477 6 111436858.439 6  86833955.92549  21205740.75449
  22243372.766 6 116889739.957 6  91082969.59247  22243380.53547
  22467482.836 5 118067279.799 5  92000625.28847  22467490.82447
  21099665.258 6 110879493.428 6  86399631.68648  21099676.09048
 22  7  3 14 43 45.0000000  0  7G04G07G08G09G14G20G30               
  23440825.938 4 123182358.401 4  95986292.56246  23440835.42646
  20270292.586 6 106521105.025 6  83003491.59548  20270300.63348
  24120004.117 5 126751460.292 5  98767439.27148  24120017.70748
  21207703.789 6 111447227.027 6  86842035.34049  21207713.94949
  22241409.508 6 116879425.260 6  91074932.19047  22241417.86747
  22467103.391 5 118065286.928 5  91999072.39347  22467112.16047
  21100039.695 6 110881460.758 6  86401164.67148  21100050.43048
 22  7  3 14 43 50.0000000  0  7G04G07G08G09G14G20G30               
  23444026.242 5 123199175.863 5  95999397.06846  23444036.00846
  20272277.578 6 106531536.063 6  83011619.66648  20272285.59848
  24119803.828 4 126750402.566 4  98766615.06848  24119815.76248
  21209677.938 6 111457604.653 6  86850121.79549  21209689.05149
  22239447.969 6 116869118.892 6  91066901.25647  22239456.94947
  22466727.055 5 118063308.094 5  91997530.43746  22466735.75846
  21100415.539 6 110883435.955 6  86402703.79548  21100426.33248
 22  7  3 14 43 55.0000000  0  7G04G07G08G09G14G20G30               
  23447226.180 4 123215999.713 4  96012506.54846  23447236.98846
  20274264.602 6 106541974.677 6  83019753.65248  20274272.15648
  24119604.695 4 126749353.735 4  98765797.80748  24119616.52748
  21211654.844 6 111467991.377 6  86858215.34349  21211664.69949
  22237488.336 6 116858820.979 6  91058876.92147  22237497.26647
  22466354.180 5 118061343.394 5  91995999.50046  22466361.80546
  21100792.656 6 110885419.027 6  86404249.04448  21100803.64148
 22  7  3 14 44  0.0000000  0  7G04G07G08G09G14G20G30               
  23450430.266 5 123232829.709 5  96025620.81846  23450440.18446
  20276251.719 6 106552420.607 6  83027893.33248  20276259.99648
  24119406.836 4 126748313.890 4  98764987.54948  24119418.75848
  21213632.719 6 111478387.004 6  86866315.82149  21213642.87549
  22235530.203 6 116848531.272 6  91050858.98947  22235539.36747
  22465981.859 4 118059392.658 4  91994479.43746  22465990.41846
  21101171.922 6 110887409.759 6  86405800.26148  21101182.34448
 22  7  3 14 44  5.0000000  0  7G04G07G08G09G14G20G30               
  23453633.703 4 123249665.938 4  96038739.94646  23453643.89846
  20278241.563 6 106562874.041 6  83036038.87348  20278249.42648
  24119210.469 5 126747283.060 5  98764184.31048  24119222.84848
  21215613.031 6 111488791.602 6  86874423.29449  21215623.25849
  22233573.836 6 116838249.855 6  91042847.49747  22233583.08247
  22465613.336 4 118057455.883 4  91992970.27646  22465621.85946
  21101552.609 6 110889408.240 6  86407357.52048  21101562.65648
 22  7  3 14 44 10.0000000  0  7G04G07G08G09G14G20G30               
  23456838.570 4 123266508.613 4  96051864.11346  23456849.27746
  20280231.727 6 106573335.074 6  83044190.31748  20280240.10548
  24119014.930 5 126746261.253 5  98763388.11348  24119028.46948
  21217594.250 6 111499205.339 6  86882537.89049  21217604.81649
  22231619.320 6 116827976.954 6  91034842.65447  22231628.10947
  22465247.867 5 118055533.303 5  91991472.15446  22465255.99646
  21101933.727 6 110891414.655 6  86408920.97048  21101944.60548
 22  7  3 14 44 15.0000000  0  7G04G07G08G09G14G20G30               
  23460045.102 5 123283357.717 5  96064993.27246  23460055.62946
  20282224.109 6 106583803.759 6  83052347.72948  20282232.10548
  24118822.258 4 126745248.647 4  98762599.07248  24118835.47748
  21219577.922 6 111509628.354 6  86890659.71449  21219587.91849
  22229665.844 6 116817712.645 6  91026844.50147  22229675.38347
  22464884.906 5 118053625.073 5  91989985.21447  22464893.12547
  21102317.672 6 110893429.058 6  86410490.62748  21102328.05548
 22  7  3 14 44 20.0000000  0  7G04G07G08G09G14G20G30               
  23463252.055 5 123300213.172 5  96078127.39846  23463263.07846
  20284218.141 6 106594279.901 6  83060510.95248  20284226.00448
  24118632.117 5 126744245.099 5  98761817.10248  24118644.41448
  21221563.578 6 111520060.421 6  86898788.59349  21221573.54749
  22227714.250 6 116807456.775 6  91018852.92847  22227723.17247
  22464523.500 5 118051730.936 5  91988509.25647  22464532.50447
  21102702.148 6 110895451.275 6  86412066.37948  21102713.32848
 22  7  3 14 44 25.0000000  0  7G04G07G08G09G14G20G30               
  23466460.930 5 123317074.793 5  96091266.30546  23466471.62146
  20286212.938 6 106604763.391 6  83068679.90448  20286220.71548
  24118442.813 5 126743250.524 5  98761042.11248  24118455.23048
  21223550.125 6 111530501.444 6  86906924.44549  21223560.27349
  22225764.531 6 116797209.184 6  91010867.79847  22225773.52047
  22464166.055 5 118049850.750 5  91987044.18847  22464174.69547
  21103088.711 6 110897481.183 6  86413648.12048  21103099.45348
 22  7  3 14 44 30.0000000  0  7G04G07G08G09G14G20G30               
  23469671.922 4 123333943.022 4  96104410.37846  23469681.21946
  20288209.094 6 106615254.650 6  83076854.91348  20288217.39548
  24118255.148 5 126742265.270 5  98760274.39148  24118268.28148
  21225539.000 6 111540951.824 6  86915067.59949  21225549.32849
  22223815.984 6 116786970.347 6  91002889.50047  22223825.29347
  22463811.086 5 118047984.958 5  91985590.31147  22463820.10947
  21103476.203 6 110899519.203 6  86415236.18748  21103487.44948
 22  7  3 14 44 35.0000000  0  7G04G07G08G09G14G20G30               
  23472881.680 5 123350817.506 5  96117559.29746  23472892.55946
  20290206.844 6 106625753.316 6  83085035.69048  20290215.11748
  24118070.047 4 126741289.076 4  98759513.72648  24118082.39148
  21227529.063 6 111551411.235 6  86923217.77949  21227539.79749
  22221869.703 6 116776739.895 6  90994917.71647  22221878.52347
  22463458.867 5 118046133.254 5  91984147.43047  22463467.64847
  21103865.727 6 110901564.942 6  86416830.26748  21103876.56348
 22  7  3 14 44 40.0000000  0  7G04G07G08G09G14G20G30               
  23476095.141 5 123367697.958 5  96130712.89646  23476104.62546
  20292206.406 6 106636259.126 6  83093222.03148  20292214.34048
  24117884.906 5 126740321.576 5  98758759.81448  24117897.67248
  21229521.078 6 111561879.363 6  86931374.76249  21229531.26249
  22219923.758 6 116766517.612 6  90986952.30947  22219932.77347
  22463109.281 5 118044295.387 5  91982715.32646  22463117.60546
  21104256.492 6 110903618.155 6  86418430.16548  21104267.42248
 22  7  3 14 44 45.0000000  0  7G04G07G08G09G14G20G30               
  23479308.391 4 123384584.881 4  96143871.53046  23479318.55946
  20294206.484 6 106646772.530 6  83101414.28948  20294215.07448
  24117702.656 4 126739363.279 4  98758013.07848  24117715.49248
  21231515.094 6 111572356.776 6  86939538.97249  21231525.85949
  22217980.563 6 116756303.945 6  90978993.60747  22217988.91447
  22462762.344 5 118042471.775 5  91981294.33547  22462770.98047
  21104648.680 6 110905679.303 6  86420036.25648  21104659.66448
 22  7  3 14 44 50.0000000  0  7G04G07G08G09G14G20G30               
  23482523.094 4 123401478.322 4  96157035.23846  23482533.41846
  20296209.031 6 106657293.600 6  83109612.52248  20296216.91448
  24117522.438 4 126738414.455 4  98757273.77348  24117534.89148
  21233510.375 6 111582843.441 6  86947710.38649  21233521.43049
  22216038.836 6 116746098.979 6  90971041.70547  22216047.65247
  22462417.883 5 118040662.535 5  91979884.53347  22462426.80147
  21105042.602 6 110907748.480 6  86421648.60448  21105053.66848
 22  7  3 14 44 55.0000000  0  7G04G07G08G09G14G20G30               
  23485738.469 4 123418377.982 4  96170203.82746  23485749.35246
  20298212.180 6 106667822.022 6  83117816.47848  20298220.58648
  24117343.695 4 126737474.582 4  98756541.43547  24117355.69947
  21235507.680 6 111593339.165 6  86955888.86249  21235518.52049
  22214098.094 6 116735902.484 6  90963096.38847  22214107.07047
  22462076.719 5 118038867.403 5  91978485.73347  22462084.82847
  21105437.516 6 110909825.387 6  86423266.95848  21105448.83248
 22  7  3 14 45  0.0000000  0  7G04G07G08G09G14G20G30               
  23488955.930 5 123435284.195 5  96183377.47746  23488966.11746
  20300217.063 6 106678358.046 6  83126026.36348  20300225.80948
  24117166.422 4 126736544.231 4  98755816.50347  24117178.59447
  21237507.047 6 111603844.180 6  86964074.57449  21237517.24649
  22212159.125 6 116725714.682 6  90955157.85247  22212168.72347
  22461736.945 5 118037086.591 5  91977098.07947  22461746.06647
  21105834.250 6 110911910.256 6  86424891.53248  21105845.74648
 22  7  3 14 45  5.0000000  0  7G04G07G08G09G14G20G30               
  23492174.891 5 123452196.584 5  96196555.92246  23492185.21146
  20302223.672 6 106688901.444 6  83134242.00048  20302231.55948
  24116990.172 4 126735622.799 4  98755098.51847  24117003.14147
  21239507.305 6 111614358.211 6  86972267.31349  21239518.36349
  22210221.984 6 116715535.278 6  90947225.85947  22210231.24247
  22461401.234 5 118035319.883 5  91975721.42047  22461409.77347
  21106233.203 6 110914002.794 6  86426522.07748  21106244.05148
 22  7  3 14 45 10.0000000  0  7G04G07G08G09G14G20G30               
  23495394.539 4 123469115.191 4  96209739.26846  23495404.32046
  20304231.313 6 106699452.131 6  83142463.31548  20304239.71148
  24116817.523 4 126734710.434 4  98754387.58647  24116829.67647
  21241509.586 6 111624881.168 6  86980467.01649  21241520.61749
  22208287.336 6 116705364.315 6  90939300.43847  22208295.93047
  22461067.758 5 118033567.213 5  91974355.71047  22461076.18047
  21106632.055 6 110916102.967 6  86428158.57948  21106643.02048
 22  7  3 14 45 15.0000000  0  7G04G07G08G09G14G20G30               
  23498615.133 4 123486040.151 4  96222927.53246  23498625.22746
  20306240.727 6 106710010.297 6  83150690.44948  20306248.59848
  24116645.250 4 126733807.289 4  98753683.84747  24116657.64547
  21243514.406 6 111635413.312 6  86988673.87349  21243524.75049
  22206353.039 6 116695201.984 6  90931381.74847  22206361.96147
  22460737.313 5 118031828.802 5  91973001.09247  22460745.14147
  21107033.258 6 110918211.001 6  86429801.20048  21107044.63348
 22  7  3 14 45 20.0000000  0  7G04G07G08G09G14G20G30               
  23501837.031 4 123502970.995 4  96236120.39546  23501847.32446
  20308250.445 6 106720575.407 6  83158923.00747  20308259.16447
  24116474.898 4 126732912.858 4  98752986.88747  24116487.14547
  21245519.992 6 111645954.111 6  86996887.47249  21245530.75449
  22204420.789 6 116685047.698 6  90923469.32347  22204429.44147
  22460409.414 5 118030104.107 5  91971657.17046  22460416.86346
  21107435.500 6 110920326.351 6  86431449.52048  21107447.09048
 22  7  3 14 45 25.0000000  0  7G04G07G08G09G14G20G30               
  23505059.969 4 123519908.311 4  96249318.28046  23505069.76646
  20310263.109 6 106731148.087 6  83167161.45147  20310271.19547
  24116307.313 4 126732027.921 4  98752297.33747  24116319.07847
  21247528.008 6 111656504.212 6  87005108.32149  21247537.99249
  22202489.508 6 116674902.215 6  90915563.76447  22202498.64147
  22460083.133 6 118028393.785 6  91970324.45747  22460091.09447
  21107839.648 6 110922449.658 6  86433104.04648  21107850.85548
 22  7  3 14 45 30.0000000  0  7G04G07G08G09G14G20G30               
  23508283.375 4 123536851.896 4  96262521.08646  23508294.43846
  20312275.563 6 106741728.143 6  83175405.61647  20312284.38347
  24116139.938 4 126731152.141 4  98751614.92247  24116151.96147
  21249536.555 6 111667063.386 6  87013336.24149  21249547.10949
  22200561.172 6 116664765.271 6  90907664.85647  22200569.60947
  22459761.078 5 118026697.600 5  91969002.75047  22459768.92247
  21108245.508 6 110924580.669 6  86434764.57048  21108256.37948
 22  7  3 14 45 35.0000000  0  7G04G07G08G09G14G20G30               
  23511509.883 4 123553801.864 4  96275728.86046  23511519.94146
  20314290.484 6 106752315.648 6  83183655.63147  20314298.94947
  24115975.258 4 126730285.599 4  98750939.70747  24115987.34447
  21251547.813 6 111677631.753 6  87021571.32749  21251558.63349
  22198634.063 6 116654637.004 6  90899772.72247  22198642.63347
  22459440.461 5 118025015.718 5  91967692.17547  22459448.37547
  21108652.414 6 110926719.520 6  86436431.20448  21108663.07048
 22  7  3 14 45 40.0000000  0  7G04G07G08G09G14G20G30               
  23514736.438 4 123570758.167 4  96288941.54246  23514747.13746
  20316306.867 6 106762910.494 6  83191911.34547  20316315.86747
  24115811.406 4 126729428.350 4  98750271.73047  24115823.64847
  21253560.414 6 111688209.219 6  87029813.50049  21253571.30149
  22196708.445 6 116644517.333 6  90891887.26747  22196716.81647
  22459123.211 5 118023348.028 5  91966392.68847  22459130.95747
  21109060.617 6 110928866.117 6  86438103.87348  21109071.61348
 22  7  3 14 45 45.0000000  0  7G04G07G08G09G14G20G30               
  23517963.398 4 123587720.423 4  96302158.86546  23517974.23046
  20318324.234 6 106773512.372 6  83200172.55047  20318332.93447
  24115650.234 4 126728580.046 4  98749610.71847  24115662.59847
  21255575.172 6 111698795.505 6  87038062.54949  21255585.49649
  22194784.422 6 116634405.945 6  90884008.28347  22194792.75447
  22458808.109 5 118021694.258 5  91965104.02547  22458816.59847
  21109470.977 6 110931020.128 6  86439782.32348  21109481.27348
 22  7  3 14 45 50.0000000  0  7G04G07G08G09G14G20G30               
  23521192.984 4 123604689.048 4  96315381.15846  23521203.60246
  20320342.820 6 106784121.693 6  83208439.53647  20320351.66447
  24115490.352 4 126727741.007 4  98748956.91847  24115502.49247
  21257591.727 6 111709390.942 6  87046318.72949  21257601.75049
  22192861.602 6 116624303.260 6  90876136.06947  22192870.23447
  22458496.391 5 118020054.771 5  91963826.49847  22458504.23847
  21109882.344 6 110933181.940 6  86441466.84648  21109892.89148
 22  7  3 14 45 55.0000000  0  7G04G07G08G09G14G20G30               
  23524422.469 4 123621664.081 4  96328608.43846  23524433.93446
  20322363.281 6 106794738.465 6  83216712.35047  20322372.10247
  24115333.172 4 126726911.252 4  98748310.35247  24115345.00447
  21259609.727 6 111719995.660 6  87054582.14249  21259620.34849
  22190941.195 6 116614209.316 6  90868270.67247  22190949.51647
  22458187.359 5 118018429.608 5  91962560.13247  22458195.19147
  21110295.094 6 110935351.620 6  86443157.50748  21110305.69148
 22  7  3 14 46  0.0000000  0  7G04G07G08G09G14G20G30               
  23527654.508 4 123638645.641 4  96341840.83846  23527665.01246
  20324384.945 6 106805362.771 6  83224991.01247  20324393.49647
  24115177.047 4 126726091.059 4  98747671.25847  24115188.91847
  21261629.445 6 111730609.724 6  87062852.82949  21261639.80149
  22189021.773 6 116604124.261 6  90860412.19647  22189030.55147
  22457880.555 5 118016818.878 5  91961305.00947  22457888.75047
  21110709.078 6 110937529.228 6  86444854.34548  21110720.30148
 22  7  3 14 46  5.0000000  0  7G04G07G08G09G14G20G30               
  23530887.656 4 123655633.706 4  96355078.26746  23530897.46546
  20326408.656 6 106815994.607 6  83233275.58247  20326417.25447
  24115023.367 3 126725280.188 3  98747039.41247  24115034.91047
  21263651.172 6 111741233.068 6  87071130.75549  21263661.27349
  22187104.477 6 116594047.994 6  90852560.56347  22187113.02047
  22457577.195 5 118015222.563 5  91960061.13447  22457585.28947
  21111125.281 6 110939714.777 6  86446557.36748  21111136.17648
 22  7  3 14 46 10.0000000  0  7G04G07G08G09G14G20G30               
  23534122.102 4 123672628.177 4  96368320.70946  23534131.55946
  20328432.648 6 106826633.888 6  83241565.91148  20328441.17248
  24114870.320 3 126724478.808 3  98746414.97847  24114882.02347
  21265674.641 6 111751865.690 6  87079415.90249  21265684.16849
  22185188.336 6 116583980.570 6  90844715.82547  22185197.64847
  22457276.063 5 118013640.551 5  91958828.39547  22457284.17247
  21111542.578 6 110941908.157 6  86448266.49148  21111553.37948
 22  7  3 14 46 15.0000000  0  7G04G07G08G09G14G20G30               
  23537356.141 4 123689628.759 4  96381567.89546  23537366.88746
  20330458.672 6 106837280.321 6  83249861.82148  20330467.65248
  24114720.070 3 126723686.516 3  98745797.62447  24114731.35547
  21267699.328 6 111762507.259 6  87087708.03049  21267709.59449
  22183274.102 6 116573921.631 6  90836877.69747  22183283.30547
  22456977.047 5 118012072.659 5  91957606.67047  22456986.20347
  21111961.281 7 110944109.055 7  86449981.47948  21111972.56648
 22  7  3 14 46 20.0000000  0  7G04G07G08G09G14G20G30               
  23540592.328 3 123706635.799 3  96394820.13846  23540602.81646
  20332486.328 6 106847934.264 6  83258163.58048  20332495.02048
  24114570.633 3 126722903.628 3  98745187.60347  24114582.62547
  21269726.719 6 111773158.128 6  87096007.40849  21269736.16449
  22181361.172 6 116563871.555 6  90829046.48147  22181370.89547
  22456682.195 5 118010519.154 5  91956396.13647  22456690.68047
  21112381.477 6 110946317.836 6  86451702.60648  21112393.05948
 22  7  3 14 46 25.0000000  0  7G04G07G08G09G14G20G30               
  23543830.297 3 123723649.013 3  96408077.16146  23543840.68046
  20334515.398 6 106858595.322 6  83266470.93548  20334523.39548
  24114422.680 3 126722130.089 3  98744584.84847  24114435.05547
  21271754.500 6 111783818.004 6  87104313.80549  21271764.53549
  22179450.172 6 116553830.031 6  90821221.91347  22179459.89147
  22456388.758 5 118008979.761 5  91955196.61447  22456397.13747
  21112803.336 6 110948534.187 6  86453429.63548  21112814.55948
 22  7  3 14 46 30.0000000  0  7G04G07G08G09G14G20G30               
  23547069.234 3 123740668.317 3  96421338.97246  23547079.12946
  20336545.180 6 106869263.459 6  83274783.77148  20336553.74248
  24114277.938 3 126721365.638 3  98743989.17347  24114289.89547
  21273784.992 6 111794486.799 6  87112627.13849  21273795.03549
  22177541.039 5 116543796.998 5  90813403.98347  22177551.45347
  22456098.953 5 118007454.424 5  91954008.05547  22456107.28547
  21113226.430 6 110950758.024 6  86455162.48148  21113237.97348
 22  7  3 14 46 35.0000000  0  7G04G07G08G09G14G20G30               
  23550309.078 3 123757693.631 3  96434605.38346  23550318.63746
  20338576.664 6 106879938.576 6  83283102.00347  20338584.80947
  24114133.773 3 126720610.232 3  98743400.54447  24114145.83247
  21275817.016 6 111805164.421 6  87120947.36249  21275826.66849
  22175633.219 5 116533772.365 5  90805592.59447  22175643.41447
  22455811.367 5 118005943.042 5  91952830.35747  22455819.68847
  21113651.016 6 110952989.246 6  86456901.09548  21113662.51648
 22  7  3 14 46 40.0000000  0  7G04G07G08G09G14G20G30               
  23553550.453 3 123774725.411 3  96447876.89746  23553560.43446
  20340609.367 6 106890621.196 6  83291426.13647  20340618.16047
  24113991.406 4 126719864.377 4  98742819.36747  24114003.88347
  21277850.688 6 111815851.455 6  87129274.91849  21277860.82849
  22173727.844 5 116523756.740 5  90797788.21547  22173737.54747
  22455526.477 5 118004446.203 5  91951663.97446  22455534.25446
  21114076.914 6 110955228.410 6  86458645.90048  21114088.92248
 22  7  3 14 46 45.0000000  0  7G04G07G08G09G14G20G30               
  23556792.805 3 123791763.491 3  96461153.35346  23556802.86346
  20342643.609 6 106901311.051 6  83299755.91648  20342651.79348
  24113851.320 4 126719127.888 4  98742245.48347  24113863.71547
  21279886.086 6 111826547.563 6  87137609.54449  21279896.17649
  22171823.414 5 116513749.787 5  90789990.58847  22171833.23847
  22455245.078 5 118002963.600 5  91950508.69647  22455252.53147
  21114505.031 6 110957475.226 6  86460396.65848  21114516.28548
 22  7  3 14 46 50.0000000  0  7G04G07G08G09G14G20G30               
  23560035.898 3 123808808.034 3  96474434.79546  23560046.00446
  20344679.484 6 106912008.327 6  83308091.44147  20344687.53947
  24113713.203 4 126718400.910 4  98741679.02447  24113725.35247
  21281923.320 6 111837253.022 6  87145951.45849  21281933.16449
  22169920.938 5 116503751.755 5  90782199.92647  22169931.12947
  22454964.891 5 118001495.362 5  91949364.61547  22454972.60947
  21114934.031 6 110959729.880 6  86462153.52648  21114945.51248
 22  7  3 14 46 55.0000000  0  7G04G07G08G09G14G20G30               
  23563279.992 4 123825858.784 4  96487721.07646  23563290.57046
  20346716.203 6 106922712.853 6  83316432.64448  20346724.44548
  24113577.125 4 126717683.342 4  98741119.89147  24113588.83247
  21283962.063 6 111847967.585 6  87154300.46449  21283972.27349
  22168019.594 5 116493762.490 5  90774416.08847  22168030.06647
  22454688.430 5 118000041.383 5  91948231.64747  22454695.96947
  21115364.508 6 110961992.237 6  86463916.39848  21115375.32448
 22  7  3 14 47  0.0000000  0  7G04G07G08G09G14G20G30               
  23566525.891 3 123842916.034 3  96501012.44746  23566536.42646
  20348754.406 6 106933424.827 6  83324779.62647  20348763.30547
  24113441.820 4 126716975.327 4  98740568.19247  24113453.50047
  21286002.898 6 111858691.470 6  87162656.73449  21286013.05949
  22166120.234 5 116483782.177 5  90766639.22347  22166130.64547
  22454414.156 5 117998601.826 5  91947109.91547  22454422.26247
  21115796.117 6 110964262.366 6  86465685.32848  21115807.69948
 22  7  3 14 47  5.0000000  0  7G04G07G08G09G14G20G30               
  23569772.961 3 123859979.335 3  96514308.52346  23569783.54746
  20350794.438 6 106944143.807 6  83333132.07947  20350803.16047
  24113308.625 4 126716276.369 4  98740023.55747  24113320.39847
  21288045.281 6 111869424.277 6  87171019.94849  21288055.48049
  22164223.273 5 116473810.330 5  90758868.95847  22164233.59047
  22454143.063 5 117997176.353 5  91945999.15447  22454151.15647
  21116229.289 6 110966539.938 6  86467460.05548  21116241.19948
 22  7  3 14 47 10.0000000  0  7G04G07G08G09G14G20G30               
  23573020.883 4 123877048.792 4  96527609.36246  23573031.82446
  20352835.492 6 106954869.863 6  83341490.04447  20352844.40647
  24113178.313 4 126715586.809 4  98739486.23547  24113189.37947
  21290089.594 6 111880166.147 6  87179390.23349  21290099.93049
  22162327.352 5 116463847.237 5  90751105.51747  22162337.02047
  22453874.344 5 117995765.097 5  91944899.47146  22453882.07046
  21116664.844 6 110968825.108 6  86469240.69748  21116675.87548
 22  7  3 14 47 15.0000000  0  7G04G07G08G09G14G20G30               
  23576270.422 3 123894124.612 3  96540915.18846  23576280.68046
  20354877.953 6 106965603.237 6  83349853.73947  20354886.69147
  24113049.844 4 126714906.783 4  98738956.34147  24113060.17647
  21292135.305 6 111890917.234 6  87187767.70049  21292145.82449
  22160433.758 5 116453893.005 5  90743348.98547  22160443.21547
  22453608.430 5 117994368.208 5  91943810.99647  22453616.82447
  21117100.984 6 110971117.955 6  86471027.33048  21117112.52048
 22  7  3 14 47 20.0000000  0  7G04G07G08G09G14G20G30               
  23579521.430 4 123911207.009 4  96554226.17246  23579531.64846
  20356922.156 6 106976344.121 6  83358223.24747  20356930.52747
  24112920.633 4 126714236.380 4  98738433.95747  24112932.52047
  21294182.836 6 111901677.811 6  87196152.55949  21294193.27349
  22158541.469 6 116443947.881 6  90735599.53847  22158550.85947
  22453344.859 5 117992985.922 5  91942733.88547  22453353.57047
  21117538.797 6 110973418.795 6  86472820.19148  21117549.92648
 22  7  3 14 47 25.0000000  0  7G04G07G08G09G14G20G30               
  23582773.977 3 123928295.629 3  96567541.99146  23582783.30946
  20358967.516 6 106987092.180 6  83366598.36247  20358975.77747
  24112795.445 4 126713575.457 4  98737918.95948  24112807.05148
  21296232.297 6 111912447.515 6  87204544.53149  21296242.87549
  22156649.805 6 116434011.588 6  90727856.98947  22156659.41447
  22453084.680 5 117991617.949 5  91941667.95746  22453093.38346
  21117978.023 6 110975727.256 6  86474618.98348  21117989.03548
 22  7  3 14 47 30.0000000  0  7G04G07G08G09G14G20G30               
  23586025.945 4 123945390.572 4  96580862.70546  23586037.14846
  20361013.656 6 106997847.391 6  83374979.04547  20361022.28147
  24112671.063 4 126712923.974 4  98737411.32247  24112683.25847
  21298284.031 6 111923226.376 6  87212943.63549  21298293.83249
  22154760.789 6 116424084.051 6  90720121.25147  22154770.68047
  22452827.352 5 117990264.239 5  91940613.10346  22452835.13746
  21118419.047 6 110978043.317 6  86476423.69848  21118430.32048
 22  7  3 14 47 35.0000000  0  7G04G07G08G09G14G20G30               
  23589279.797 3 123962491.751 3  96594188.27746  23589290.78946
  20363061.656 6 107008609.755 6  83383365.30147  20363070.62147
  24112548.031 4 126712281.816 4  98736910.93947  24112560.94147
  21300336.125 6 111934014.351 6  87221349.84749  21300346.85949
  22152873.344 6 116414165.360 6  90712392.41847  22152883.10547
  22452572.375 5 117988924.829 5  91939569.41846  22452580.89146
  21118861.477 6 110980366.993 6  86478234.35248  21118872.05148
 22  7  3 14 47 40.0000000  0  7G04G07G08G09G14G20G30               
  23592536.086 3 123979599.162 3  96607518.73745  23592546.37145
  20365111.141 6 107019379.264 6  83391757.13048  20365119.47748
  24112428.742 4 126711649.126 4  98736417.94447  24112440.80547
  21302391.211 6 111944811.465 6  87229763.17349  21302401.65649
  22150987.422 6 116404255.474 6  90704670.42847  22150997.22747
  22452320.102 5 117987599.677 5  91938536.84846  22452328.03946
  21119304.695 6 110982698.239 6  86480050.90648  21119315.94948
 22  7  3 14 47 45.0000000  0  7G04G07G08G09G14G20G30               
  23595792.578 3 123996712.769 3  96620853.95546  23595802.45746
  20367161.695 6 107030155.881 6  83400154.49447  20367170.71947
  24112309.953 4 126711025.878 4  98735932.29548  24112322.50848
  21304447.086 6 111955617.678 6  87238183.59449  21304457.88349
  22149103.453 6 116394354.418 6  90696955.33147  22149113.19947
  22452071.164 5 117986288.762 5  91937515.35447  22452078.98847
  21119749.641 6 110985037.100 6  86481873.39148  21119760.52048
 22  7  3 14 47 50.0000000  0  7G04G07G08G09G14G20G30               
  23599049.953 4 124013832.838 4  96634194.26546  23599060.59846
  20369213.891 6 107040939.917 6  83408557.63347  20369222.44547
  24112192.313 4 126710412.375 4  98735454.23347  24112205.27047
  21306504.797 6 111966433.285 6  87246611.33749  21306516.00849
  22147221.109 5 116384462.404 5  90689247.27147  22147230.67647
  22451823.734 5 117984992.414 5  91936505.22047  22451831.47747
  21120196.820 6 110987383.753 6  86483701.94748  21120207.84448
 22  7  3 14 47 55.0000000  0  7G04G07G08G09G14G20G30               
  23602308.773 3 124030958.950 3  96647539.31646  23602319.66446
  20371267.617 6 107051730.832 6  83416966.14347  20371276.11747
  24112078.031 4 126709808.154 4  98734983.40747  24112090.51647
  21308565.523 6 111977257.842 6  87255046.04749  21308575.64849
  22145339.961 5 116374579.042 5  90681545.96447  22145349.67247
  22451580.336 5 117983710.183 5  91935506.06446  22451587.91446
  21120644.305 6 110989737.797 6  86485536.26448  21120655.26248
 22  7  3 14 48  0.0000000  0  7G04G07G08G09G14G20G30               
  23605568.805 3 124048091.897 3  96660889.62446  23605579.61346
  20373322.438 6 107062529.457 6  83425380.65147  20373330.81647
  24111965.047 4 126709213.901 4  98734520.35147  24111977.02747
  21310627.063 6 111988092.113 6  87263488.33449  21310637.35249
  22143461.078 6 116364705.164 6  90673852.04047  22143471.05147
  22451338.711 5 117982442.843 5  91934518.53646  22451346.65246
  21121093.797 6 110992100.008 6  86487376.94348  21121104.94148
 22  7  3 14 48  5.0000000  0  7G04G07G08G09G14G20G30               
  23608830.992 2 124065231.332 2  96674245.04445  23608841.20745
  20375378.633 6 107073335.422 6  83433800.88247  20375387.15247
  24111854.094 3 126708629.397 3  98734064.90747  24111865.81347
  21312690.430 6 111998935.757 6  87271937.93049  21312701.02049
  22141584.156 5 116354840.386 5  90666165.19647  22141593.63347
  22451100.758 5 117981190.040 5  91933542.31847  22451108.61747
  21121545.109 6 110994470.003 6  86489223.70148  21121555.93048
 22  7  3 14 48 10.0000000  0  7G04G07G08G09G14G20G30               
  23612093.023 3 124082376.834 3  96687605.11645  23612104.03545
  20377436.313 6 107084148.331 6  83442226.52147  20377444.62947
  24111743.766 4 126708054.282 4  98733616.77847  24111756.41047
  21314755.063 6 112009788.395 6  87280394.52349  21314765.89549
  22139707.930 5 116344984.316 5  90658485.14747  22139718.52047
  22450864.977 5 117979951.399 5  91932577.13547  22450872.96147
  21121997.391 6 110996847.443 6  86491076.25048  21122008.19148
 22  7  3 14 48 15.0000000  0  7G04G07G08G09G14G20G30               
  23615357.133 3 124099527.938 3  96700969.63646  23615368.02746
  20379495.727 6 107094967.653 6  83450657.16647  20379503.52047
  24111636.563 4 126707487.940 4  98733175.48547  24111648.81647
  21316821.984 6 112020649.546 6  87288857.76049  21316833.38349
  22137834.656 5 116335136.486 5  90650811.52047  22137844.14147
  22450632.086 5 117978726.418 5  91931622.61447  22450640.33647
  21122451.156 6 110999231.782 6  86492934.17048  21122462.00048
 22  7  3 14 48 20.0000000  0  7G04G07G08G09G14G20G30               
  23618620.883 3 124116685.429 3  96714339.03245  23618632.75845
  20381555.758 6 107105794.240 6  83459093.46047  20381563.83247
  24111530.633 4 126706931.301 4  98732741.73447  24111542.28547
  21318890.516 6 112031520.021 6  87297328.25549  21318901.60549
  22135961.547 5 116325297.757 5  90643144.98747  22135971.60947
  22450402.320 5 117977515.918 5  91930679.36547  22450410.09047
  21122906.227 6 111001623.832 6  86494798.10248  21122917.56648
 22  7  3 14 48 25.0000000  0  7G04G07G08G09G14G20G30               
  23621887.938 3 124133848.794 3  96727713.13145  23621899.41445
  20383616.734 6 107116627.616 6  83467535.05947  20383625.25447
  24111427.336 4 126706383.716 4  98732315.04047  24111437.78547
  21320961.180 6 112042399.340 6  87305805.64349  21320971.68449
  22134091.563 5 116315467.604 5  90635485.11847  22134101.12147
  22450173.375 5 117976319.479 5  91929747.07647  22450182.31347
  21123362.805 6 111004023.146 6  86496667.69748  21123373.69948
 22  7  3 14 48 30.0000000  0  7G04G07G08G09G14G20G30               
  23625155.438 2 124151018.462 2  96741092.05745  23625166.50445
  20385680.156 6 107127468.114 6  83475982.19247  20385687.94547
  24111324.453 4 126705845.853 4  98731895.92047  24111335.70747
  21323033.453 6 112053287.857 6  87314290.19649  21323044.18849
  22132222.469 5 116305646.442 5  90627832.27047  22132232.25847
  22449948.875 5 117975137.339 5  91928825.93547  22449957.35947
  21123820.570 6 111006430.067 6  86498543.21548  21123831.66048
 22  7  3 14 48 35.0000000  0  7G04G07G08G09G14G20G30               
  23628422.875 3 124168194.839 3  96754476.26545  23628434.77045
  20387744.578 6 107138316.100 6  83484435.16847  20387752.07047
  24111223.875 4 126705317.957 4  98731484.57247  24111235.28547
  21325106.625 6 112064185.994 6  87322782.24649  21325117.68849
  22130355.016 6 116295834.656 6  90620186.72347  22130365.07847
  22449726.492 5 117973969.990 5  91927916.32847  22449734.68047
  21124280.703 6 111008844.961 6  86500424.94048  21124291.45348
 22  7  3 14 48 40.0000000  0  7G04G07G08G09G14G20G30               
  23631693.367 3 124185376.863 3  96767864.84645  23631704.82045
  20389809.836 6 107149170.597 6  83492893.21747  20389817.69547
  24111124.648 4 126704799.129 4  98731080.29447  24111137.12947
  21327182.375 6 112075092.730 6  87331281.00149  21327193.32449
  22128489.406 6 116286031.291 6  90612547.74747  22128499.70347
  22449506.203 5 117972816.430 5  91927017.44246  22449515.65646
  21124740.977 6 111011266.857 6  86502312.13248  21124752.47748
 22  7  3 14 48 45.0000000  0  7G04G07G08G09G14G20G30               
  23634964.461 3 124202565.091 3  96781258.26045  23634975.50045
  20391877.031 6 107160032.113 6  83501356.73447  20391884.63347
  24111026.859 4 126704289.788 4  98730683.39947  24111040.02747
  21329259.656 6 112086008.638 6  87339786.89549  21329270.45749
  22126625.953 6 116276236.817 6  90604915.68847  22126636.02747
  22449290.414 5 117971677.207 5  91926129.75747  22449298.73447
  21125202.992 6 111013696.257 6  86504205.15948  21125214.74248
 22  7  3 14 48 50.0000000  0  7G04G07G08G09G14G20G30               
  23638236.070 3 124219759.890 3  96794656.81746  23638247.81646
  20393945.172 6 107170900.990 6  83509825.99047  20393953.02747
  24110932.516 4 126703790.248 4  98730294.15247  24110944.69147
  21331338.914 6 112096933.963 6  87348300.13349  21331349.33249
  22124764.078 6 116266451.613 6  90597290.87347  22124773.76247
  22449075.648 5 117970552.645 5  91925253.47447  22449084.79347
  21125667.117 6 111016133.479 6  86506104.28748  21125678.46948
 22  7  3 14 48 55.0000000  0  7G04G07G08G09G14G20G30               
  23641509.383 3 124236960.656 3  96808059.97746  23641521.35246
  20396014.844 6 107181776.729 6  83518300.58647  20396022.41847
  24110839.602 4 126703300.251 4  98729912.32647  24110851.30547
  21333419.438 6 112107868.325 6  87356820.41349  21333430.13349
  22122903.813 6 116256675.236 6  90589672.92547  22122913.86347
  22448864.570 5 117969442.243 5  91924388.24747  22448873.44947
  21126132.234 6 111018578.078 6  86508009.16948  21126143.66048
 22  7  3 14 49  0.0000000  0  7G04G07G08G09G14G20G30               
  23644783.500 3 124254167.704 3  96821468.05746  23644795.63746
  20398085.648 6 107192659.465 6  83526780.63847  20398093.60947
  24110748.352 4 126702819.805 4  98729537.93947  24110760.61347
  21335502.164 6 112118811.822 6  87365347.80849  21335512.77349
  22121044.672 6 116246907.788 6  90582061.92647  22121055.17247
  22448656.375 6 117968346.177 6  91923534.16646  22448664.96146
  21126599.195 6 111021030.143 6  86509919.86048  21126610.30148
 22  7  3 14 49  5.0000000  0  7G04G07G08G09G14G20G30               
  23648059.359 3 124271380.898 3  96834880.90846  23648071.18046
  20400158.523 6 107203549.240 6  83535266.17247  20400165.97747
  24110658.406 4 126702349.058 4  98729171.12347  24110670.63747
  21337586.672 6 112129764.514 6  87373882.36349  21337597.24249
  22119188.078 6 116237149.378 6  90574457.98147  22119197.82047
  22448450.391 6 117967264.517 6  91922691.31547  22448458.83647
  21127066.734 6 111023489.777 6  86511836.45448  21127078.49248
 22  7  3 14 49 10.0000000  0  7G04G07G08G09G14G20G30               
  23651336.313 2 124288600.406 2  96848298.70746  23651348.03946
  20402231.234 6 107214446.027 6  83543757.17547  20402239.45347
  24110570.359 4 126701887.858 4  98728811.74247  24110582.86747
  21339672.258 6 112140726.368 6  87382424.07049  21339683.05549
  22117332.250 6 116227399.967 6  90566861.03847  22117342.71547
  22448247.555 5 117966197.242 5  91921859.65947  22448255.74247
  21127536.773 6 111025956.884 6  86513758.86648  21127547.64548
 22  7  3 14 49 15.0000000  0  7G04G07G08G09G14G20G30               
  23654614.172 2 124305825.973 2  96861721.23446  23654626.23446
  20404306.500 6 107225349.743 6  83552253.57947  20404314.34447
  24110485.109 4 126701436.293 4  98728459.87147  24110497.41047
  21341760.469 6 112151697.312 6  87390972.85549  21341770.87949
  22115478.500 5 116217659.516 5  90559271.08747  22115488.66847
  22448046.867 5 117965144.270 5  91921039.17047  22448055.50447
  21128007.453 6 111028431.435 6  86515687.08348  21128018.60248
 22  7  3 14 49 20.0000000  0  7G04G07G08G09G14G20G30               
  23657893.484 2 124323057.629 2  96875148.45846  23657904.97346
  20406382.711 6 107236260.290 6  83560755.30447  20406390.43847
  24110401.461 4 126700994.119 4  98728115.31747  24110413.05547
  21343849.234 6 112162677.310 6  87399528.69649  21343860.20749
  22113627.070 5 116207927.913 5  90551688.02947  22113637.25847
  22447849.789 6 117964105.458 6  91920229.70147  22447857.49247
  21128479.781 6 111030913.331 6  86517621.02748  21128490.98848
 22  7  3 14 49 25.0000000  0  7G04G07G08G09G14G20G30               
  23661173.820 2 124340295.783 2  96888580.78646  23661185.26646
  20408460.023 6 107247178.104 6  83569262.69047  20408467.87547
  24110318.633 4 126700561.870 4  98727778.50447  24110330.66847
  21345940.555 6 112173666.754 6  87408091.89349  21345951.58249
  22111777.711 6 116198205.670 6  90544112.24847  22111786.99247
  22447655.000 5 117963081.334 5  91919431.68547  22447662.90647
  21128953.297 6 111033403.021 6  86519561.03848  21128964.64148
 22  7  3 14 49 30.0000000  0  7G04G07G08G09G14G20G30               
  23664455.273 3 124357540.463 3  96902018.18446  23664466.78146
  20410538.758 6 107258103.195 6  83577775.74747  20410546.55147
  24110237.609 5 126700139.560 5  98727449.43747  24110250.19147
  21348033.875 6 112184665.668 6  87416662.47949  21348044.83249
  22109928.906 5 116188492.762 5  90536543.75547  22109938.62947
  22447462.648 5 117962071.883 5  91918645.08647  22447470.44547
  21129428.188 6 111035900.467 6  86521507.09148  21129440.19948
 22  7  3 14 49 35.0000000  0  7G04G07G08G09G14G20G30               
  23667737.336 3 124374791.208 3  96915460.33146  23667749.61746
  20412619.039 6 107269035.111 6  83586294.11647  20412626.62947
  24110159.773 4 126699726.844 4  98727127.84447  24110171.83647
  21350128.266 6 112195673.679 6  87425240.14249  21350139.77749
  22108082.164 6 116178788.768 6  90528982.20847  22108091.86347
  22447273.484 5 117961076.695 5  91917869.60647  22447281.14547
  21129905.352 6 111038405.310 6  86523458.91748  21129916.50048
 22  7  3 14 49 40.0000000  0  7G04G07G08G09G14G20G30               
  23671021.711 3 124392048.357 3  96928907.43846  23671033.70746
  20414701.523 6 107279974.075 6  83594817.98447  20414708.96947
  24110082.984 4 126699323.983 4  98726813.90847  24110095.54347
  21352224.586 6 112206690.988 6  87433825.05649  21352236.07449
  22106237.672 6 116169094.002 6  90521427.84947  22106247.35547
  22447086.992 5 117960096.088 5  91917105.49747  22447095.05947
  21130383.500 6 111040917.740 6  86525416.66048  21130394.80548
 22  7  3 14 49 45.0000000  0  7G04G07G08G09G14G20G30               
  23674307.859 3 124409311.262 3  96942359.05146  23674318.20346
  20416784.078 6 107290919.634 6  83603346.99247  20416791.61347
  24110008.906 4 126698930.380 4  98726507.20647  24110020.54347
  21354323.133 6 112217717.119 6  87442416.84649  21354334.78549
  22104394.656 6 116159407.915 6  90513880.25447  22104404.14147
  22446903.492 5 117959129.450 5  91916352.26247  22446910.63747
  21130862.688 6 111043437.276 6  86527379.93148  21130873.88748
 22  7  3 14 49 50.0000000  0  7G04G07G08G09G14G20G30               
  23677593.250 4 124426580.224 4  96955815.35146  23677604.49646
  20418868.258 6 107301871.942 6  83611881.25347  20418876.05147
  24109934.625 4 126698546.314 4  98726207.93847  24109947.60247
  21356422.813 6 112228752.236 6  87451015.63349  21356434.00449
  22102552.992 5 116149730.740 5  90506339.61747  22102562.29347
  22446721.211 5 117958177.011 5  91915610.11347  22446729.55547
  21131343.828 6 111045964.100 6  86529348.87948  21131355.33648
 22  7  3 14 49 55.0000000  0  7G04G07G08G09G14G20G30               
  23680880.094 4 124443855.618 4  96969276.69846  23680891.98846
  20420953.844 6 107312831.427 6  83620421.10847  20420961.36747
  24109864.359 4 126698172.003 4  98725916.27847  24109876.55947
  21358524.656 6 112239796.777 6  87459621.76549  21358535.97349
  22100713.180 6 116140062.901 6  90498806.23147  22100722.34447
  22446542.516 5 117957239.192 5  91914879.33847  22446551.07047
  21131826.078 6 111048498.627 6  86531323.84048  21131837.22348
 22  7  3 14 50  0.0000000  0  7G04G07G08G09G14G20G30               
  23684168.930 3 124461137.008 3  96982742.69146  23684180.73846
  20423040.461 6 107323797.585 6  83628966.16747  20423048.27047
  24109794.531 4 126697807.229 4  98725632.03747  24109807.18047
  21360628.102 6 112250850.289 6  87468234.88649  21360639.38749
  22098874.695 5 116130403.923 5  90491279.76347  22098884.10247
  22446366.305 5 117956315.579 5  91914159.65047  22446375.96547
  21132309.938 6 111051040.359 6  86533304.41148  21132321.02348
 22  7  3 14 50  5.0000000  0  7G04G07G08G09G14G20G30               
  23687458.695 2 124478424.432 2  96996213.37146  23687470.38346
  20425128.703 6 107334770.547 6  83637516.52847  20425136.21947
  24109726.438 4 126697452.038 4  98725355.28347  24109739.58247
  21362732.750 6 112261912.875 6  87476855.08449  21362744.03149
  22097038.992 6 116120753.941 6  90483760.30847  22097047.88747
  22446193.773 5 117955406.157 5  91913451.02147  22446203.21147
  21132795.094 6 111053589.438 6  86535290.70548  21132806.11748
 22  7  3 14 50 10.0000000  0  7G04G07G08G09G14G20G30               
  23690750.172 3 124495717.970 3  97009688.84946  23690761.23846
  20427218.430 6 107345750.325 6  83646072.18847  20427225.68847
  24109660.547 3 126697106.524 3  98725086.06247  24109673.20347
  21364840.344 6 112272984.522 6  87485482.34049  21364851.18849
  22095204.508 6 116111113.002 6  90476247.89647  22095213.35547
  22446023.211 5 117954511.095 5  91912753.59147  22446032.65247
  21133280.922 6 111056145.841 6  86537282.69147  21133292.09047
 22  7  3 14 50 15.0000000  0  7G04G07G08G09G14G20G30               
  23694041.430 3 124513017.296 3  97023168.84246  23694053.98846
  20429308.383 6 107356736.608 6  83654632.93647  20429316.52047
  24109596.820 3 126696770.377 3  98724824.12347  24109609.59047
  21366948.391 6 112284065.006 6  87494116.48049  21366959.80149
  22093371.602 5 116101480.801 5  90468742.29647  22093380.20747
  22445856.156 5 117953629.993 5  91912067.01947  22445865.20347
  21133768.461 6 111058709.351 6  86539280.22748  21133780.11748
 22  7  3 14 50 20.0000000  0  7G04G07G08G09G14G20G30               
  23697334.883 3 124530322.624 3  97036653.46946  23697346.55946
  20431400.375 6 107367729.627 6  83663198.92047  20431408.13747
  24109534.609 3 126696443.794 3  98724569.62847  24109547.10547
  21369059.023 6 112295154.480 6  87502757.63049  21369069.66049
  22091540.305 6 116091857.515 6  90461243.63647  22091549.03947
  22445691.680 5 117952763.116 5  91911391.54647  22445699.98847
  21134257.852 6 111061280.058 6  86541283.37247  21134269.27047
 22  7  3 14 50 25.0000000  0  7G04G07G08G09G14G20G30               
  23700629.063 3 124547634.318 3  97050143.12446  23700640.98846
  20433493.547 6 107378729.693 6  83671770.39747  20433501.87547
  24109474.766 3 126696126.978 3  98724322.74047  24109486.41447
  21371171.258 6 112306253.284 6  87511406.05249  21371181.87549
  22089710.539 5 116082243.575 5  90453752.27247  22089719.24647
  22445528.977 5 117951910.880 5  91910727.44347  22445537.66047
  21134748.664 6 111063858.350 6  86543292.43547  21134759.80547
 22  7  3 14 50 30.0000000  0  7G04G07G08G09G14G20G30               
  23703924.555 3 124564952.126 3  97063637.48946  23703936.43846
  20435588.117 6 107389736.615 6  83680347.21747  20435596.48047
  24109417.016 3 126695819.825 3  98724083.39147  24109428.04747
  21373285.055 6 112317361.313 6  87520061.65649  21373295.75449
  22087882.367 6 116072638.771 6  90446268.00547  22087891.81347
  22445369.406 5 117951073.038 5  91910074.58346  22445378.45346
  21135240.930 6 111066444.077 6  86545307.27848  21135251.81348
 22  7  3 14 50 35.0000000  0  7G04G07G08G09G14G20G30               
  23707221.406 3 124582276.251 3  97077136.82346  23707233.02346
  20437684.195 6 107400750.495 6  83688929.45947  20437692.50047
  24109360.102 3 126695522.634 3  98723851.79647  24109371.58247
  21375400.055 6 112328478.653 6  87528724.51149  21375410.98849
  22086056.273 6 116063043.264 6  90438791.00747  22086066.09447
  22445212.828 5 117950249.745 5  91909433.04547  22445221.43447
  21135734.672 6 111069037.309 6  86547327.97348  21135745.17648
 22  7  3 14 50 40.0000000  0  7G04G07G08G09G14G20G30               
  23710519.539 3 124599606.677 3  97090641.02046  23710530.86746
  20439781.438 6 107411771.333 6  83697517.12548  20439789.32448
  24109304.688 3 126695235.342 3  98723627.94747  24109316.61747
  21377517.648 6 112339605.292 6  87537394.61349  21377528.30149
  22084232.367 5 116053457.025 5  90431321.20647  22084241.68447
  22445059.336 5 117949441.020 5  91908802.86947  22445067.29347
  21136229.414 6 111071638.070 6  86549354.54248  21136240.44548
 22  7  3 14 50 45.0000000  0  7G04G07G08G09G14G20G30               
  23713818.242 3 124616943.599 3  97104150.34946  23713829.94946
  20441880.398 6 107422799.370 6  83706110.41048  20441888.05548
  24109253.039 3 126694958.145 3  98723411.96347  24109264.37947
  21379636.922 6 112350741.424 6  87546072.12249  21379647.26649
  22082410.117 5 116043880.329 5  90423858.86147  22082419.11347
  22444907.602 5 117948647.089 5  91908184.21247  22444916.49247
  21136725.719 6 111074246.553 6  86551387.11947  21136736.43847
 22  7  3 14 50 50.0000000  0  7G04G07G08G09G14G20G30               
  23717118.148 3 124634286.794 3  97117664.49946  23717129.66846
  20443980.156 6 107433834.327 6  83714709.07447  20443987.69147
  24109201.766 3 126694690.964 3  98723203.77447  24109213.97747
  21381757.680 6 112361886.891 6  87554756.90349  21381768.20749
  22080589.273 5 116034312.915 5  90416403.72947  22080598.84447
  22444759.773 5 117947867.664 5  91907576.87647  22444768.12147
  21137223.750 6 111076862.515 6  86553425.52848  21137234.56648
 22  7  3 14 50 55.0000000  0  7G04G07G08G09G14G20G30               
  23720420.328 3 124651636.252 3  97131183.55546  23720431.48446
  20446080.820 6 107444876.147 6  83723313.08748  20446089.43848
  24109152.391 4 126694433.604 4  98723003.24347  24109164.68047
  21383880.188 6 112373041.588 6  87563448.87449  21383890.92649
  22078770.688 5 116024754.757 5  90408955.83147  22078780.04747
  22444614.508 5 117947102.765 5  91906980.84646  22444622.64146
  21137723.195 6 111079485.942 6  86555469.75047  21137734.02747
 22  7  3 14 51  0.0000000  0  7G04G07G08G09G14G20G30               
  23723722.922 3 124668991.923 3  97144707.41246  23723734.04346
  20448183.953 6 107455924.918 6  83731922.51848  20448191.79348
  24109105.523 4 126694186.170 4  98722810.42847  24109118.09847
  21386004.445 6 112384205.621 6  87572148.11649  21386015.25449
  22076953.656 5 116015205.885 5  90401515.14747  22076962.97347
  22444471.242 5 117946352.388 5  91906396.13547  22444479.34447
  21138223.648 6 111082116.858 6  86557519.81348  21138234.30548
 22  7  3 14 51  5.0000000  0  7G04G07G08G09G14G20G30               
  23727027.781 4 124686353.965 4  97158236.27346  23727037.88346
  20450287.305 6 107466980.596 6  83740537.34147  20450295.92647
  24109060.875 3 126693948.609 3  98722625.32747  24109072.79747
  21388131.219 6 112395378.954 6  87580854.60849  21388140.85549
  22075138.133 5 116005666.394 5  90394081.78347  22075147.74647
  22444330.453 5 117945616.566 5  91905822.76547  22444339.46947
  21138725.742 6 111084755.299 6  86559575.73948  21138736.55148
 22  7  3 14 51 10.0000000  0  7G04G07G08G09G14G20G30               
  23730331.141 4 124703722.242 4  97171770.01946  23730342.92246
  20452392.750 6 107478043.195 6  83749157.54547  20452400.71147
  24109016.492 3 126693721.052 3  98722447.98947  24109029.51647
  21390259.125 6 112406561.606 6  87589568.35749  21390269.78949
  22073324.336 5 115996136.267 5  90386655.72047  22073334.36747
  22444192.961 5 117944895.323 5  91905260.77447  22444202.08247
  21139229.117 6 111087401.188 6  86561637.46948  21139239.91448
 22  7  3 14 51 15.0000000  0  7G04G07G08G09G14G20G30               
  23733639.102 3 124721096.600 3  97185308.47246  23733649.11346
  20454498.563 6 107489112.552 6  83757783.00847  20454506.62947
  24108975.484 3 126693503.279 3  98722278.29848  24108987.85548
  21392388.852 6 112417753.453 6  87598289.27349  21392399.50049
  22071513.352 5 115986615.328 5  90379236.80947  22071522.64147
  22444058.664 5 117944188.473 5  91904709.98946  22444067.53146
  21139734.320 6 111090054.427 6  86563704.92248  21139744.86348
 22  7  3 14 51 20.0000000  0  7G04G07G08G09G14G20G30               
  23736945.672 4 124738477.204 4  97198851.78746  23736956.27746
  20456606.406 6 107500188.734 6  83766413.80747  20456614.84847
  24108935.063 3 126693295.362 3  98722116.30147  24108948.60547
  21394520.000 6 112428954.531 6  87607017.39449  21394531.02049
  22069703.063 5 115977103.700 5  90371825.16747  22069712.52747
  22443927.063 5 117943496.166 5  91904170.52946  22443936.14546
  21140240.266 6 111092715.078 6  86565778.15648  21140251.18048
 22  7  3 14 51 25.0000000  0  7G04G07G08G09G14G20G30               
  23740254.031 3 124755864.291 3  97212400.15346  23740265.09846
  20458715.836 6 107511272.031 6  83775050.14047  20458723.60247
  24108898.133 3 126693097.665 3  98721962.25047  24108910.88747
  21396653.539 6 112440165.145 6  87615752.94149  21396664.37549
  22067895.188 6 115967601.635 6  90364420.96547  22067904.68047
  22443798.219 5 117942818.605 5  91903642.57347  22443807.14547
  21140747.797 6 111095383.388 6  86567857.35848  21140758.46548
 22  7  3 14 51 30.0000000  0  7G04G07G08G09G14G20G30               
  23743564.734 3 124773257.494 3  97225953.29646  23743575.23846
  20460825.984 6 107522362.041 6  83783691.70447  20460833.59447
  24108862.555 3 126692909.802 3  98721815.85247  24108874.92247
  21398788.391 6 112451384.902 6  87624495.60849  21398799.24249
  22066088.508 6 115958108.827 6  90357023.97247  22066097.69947
  22443672.422 5 117942155.438 5  91903125.81146  22443680.37546
  21141257.453 6 111098059.044 6  86569942.28248  21141268.48448
 22  7  3 14 51 35.0000000  0  7G04G07G08G09G14G20G30               
  23746874.938 3 124790657.255 3  97239511.53446  23746886.28146
  20462937.570 6 107533459.218 6  83792338.86347  20462945.61747
  24108828.758 3 126692732.261 3  98721677.51547  24108841.21147
  21400925.258 6 112462614.291 6  87633245.78849  21400935.90649
  22064283.633 6 115948625.714 6  90349634.53647  22064293.28147
  22443549.516 5 117941507.114 5  91902620.62347  22443557.71147
  21141767.547 6 111100742.434 6  86572033.23348  21141778.35248
 22  7  3 14 51 40.0000000  0  7G04G07G08G09G14G20G30               
  23750187.633 3 124808063.311 3  97253074.65346  23750198.31646
  20465050.617 6 107544563.205 6  83800991.32047  20465058.19547
  24108796.953 3 126692564.592 3  98721546.85847  24108809.22347
  21403063.656 6 112473853.010 6  87642003.22849  21403074.85249
  22062481.602 6 115939151.976 6  90342252.40847  22062490.06347
  22443428.594 5 117940873.363 5  91902126.79247  22443437.04347
  21142279.727 6 111103433.260 6  86574129.97548  21142290.97748
 22  7  3 14 51 45.0000000  0  7G04G07G08G09G14G20G30               
  23753500.758 4 124825475.271 4  97266642.40246  23753512.16046
  20467165.141 6 107555673.764 6  83809648.91147  20467172.46547
  24108766.523 3 126692406.646 3  98721423.77647  24108779.69947
  21405204.531 6 112485100.751 6  87650767.70049  21405215.17649
  22060679.953 6 115929687.395 6  90334877.41447  22060689.23847
  22443310.461 5 117940253.913 5  91901644.11647  22443319.62947
  21142793.367 6 111106131.268 6  86576232.31848  21142804.12548
 22  7  3 14 51 50.0000000  0  7G04G07G08G09G14G20G30               
  23756815.773 4 124842893.221 4  97280214.82646  23756826.59446
  20469280.633 6 107566790.827 6  83818311.54547  20469288.30947
  24108737.867 3 126692258.439 3  98721308.29847  24108751.78547
  21407346.406 6 112496357.528 6  87659539.21349  21407357.56349
  22058880.656 6 115920231.892 6  90327509.49347  22058889.90247
  22443194.938 5 117939648.724 5  91901172.54447  22443204.30547
  21143307.938 6 111108836.406 6  86578340.22148  21143318.44948
 22  7  3 14 51 55.0000000  0  7G04G07G08G09G14G20G30               
  23760131.055 4 124860317.177 4  97293791.93846  23760142.23846
  20471397.430 6 107577914.528 6  83826979.37247  20471404.99647
  24108711.820 3 126692119.984 3  98721200.41148  24108725.27748
  21409490.008 6 112507623.323 6  87668317.75949  21409501.21949
  22057082.906 6 115910785.563 6  90320148.71947  22057092.24647
  22443082.695 5 117939057.938 5  91900712.19447  22443092.13747
  21143824.523 6 111111548.688 6  86580453.68748  21143834.82048
 22  7  3 14 52  0.0000000  0  7G04G07G08G09G14G20G30               
  23763448.164 4 124877747.622 4  97307374.08146  23763459.26646
  20473514.742 6 107589045.323 6  83835652.71447  20473522.69147
  24108688.141 4 126691991.818 4  98721100.55348  24108700.93048
  21411635.719 6 112518898.720 6  87677103.79449  21411646.97749
  22055287.203 6 115901348.934 6  90312795.50747  22055296.55547
  22442973.539 5 117938481.939 5  91900263.36547  22442982.50047
  21144341.547 6 111114268.689 6  86582573.16648  21144352.05948
 22  7  3 14 52  5.0000000  0  7G04G07G08G09G14G20G30               
  23766766.508 4 124895184.106 4  97320960.94846  23766777.46546
  20475635.164 6 107600182.719 6  83844331.20347  20475642.37147
  24108664.445 4 126691873.515 4  98721008.36448  24108677.94548
  21413783.234 6 112530183.280 6  87685896.95749  21413794.28149
  22053493.383 6 115891921.568 6  90305449.51747  22053503.07047
  22442866.281 5 117937920.378 5  91899825.77247  22442875.59047
  21144861.445 6 111116995.897 6  86584698.27148  21144871.14148
 22  7  3 14 52 10.0000000  0  7G04G07G08G09G14G20G30               
  23770085.086 3 124912626.655 3  97334552.53646  23770096.76246
  20477754.867 6 107611326.767 6  83853014.87747  20477762.78947
  24108644.016 4 126691764.995 4  98720923.80948  24108657.78948
  21415932.156 6 112541476.909 6  87694697.18549  21415943.36749
  22051701.563 6 115882503.451 6  90298110.73247  22051710.95347
  22442762.578 5 117937373.245 5  91899399.44247  22442771.34047
  21145381.414 6 111119730.331 6  86586829.00248  21145391.68848
 22  7  3 14 52 15.0000000  0  7G04G07G08G09G14G20G30               
  23773406.234 4 124930075.224 4  97348148.81046  23773416.94146
  20479877.258 6 107622477.380 6  83861703.67847  20479884.84447
  24108625.000 3 126691666.379 3  98720846.96147  24108638.49247
  21418083.156 6 112552779.682 6  87703504.54449  21418094.13349
  22049910.258 6 115873094.553 6  90290779.12747  22049920.98047
  22442661.008 5 117936840.462 5  91898984.29347  22442670.17247
  21145902.969 6 111122471.956 6  86588965.33548  21145913.28548
 22  7  3 14 52 20.0000000  0  7G04G07G08G09G14G20G30               
  23776727.695 2 124947530.159 2  97361750.04546  23776738.78546
  20482000.102 6 107633634.892 6  83870397.83647  20482008.01647
  24108608.664 3 126691577.935 3  98720778.03648  24108621.71948
  21420236.180 6 112564091.868 6  87712319.23849  21420246.91049
  22048121.641 6 115863695.266 6  90283455.01747  22048132.16847
  22442562.289 5 117936322.361 5  91898580.57247  22442571.37147
  21146426.016 6 111125221.081 6  86591107.50848  21146436.80548
 22  7  3 14 52 25.0000000  0  7G04G07G08G09G14G20G30               
  23780050.047 3 124964991.069 3  97375355.92746  23780061.64846
  20484124.438 5 107644798.976 5  83879097.11947  20484132.02047
  24108594.055 4 126691499.285 4  98720716.75948  24108606.94148
  21422389.984 6 112575413.167 6  87721141.03449  21422401.00849
  22046335.172 5 115854305.218 5  90276138.10247  22046345.39547
  22442466.867 5 117935818.651 5  91898188.07547  22442475.08247
  21146949.633 6 111127977.360 6  86593255.26448  21146960.98848
 22  7  3 14 52 30.0000000  0  7G04G07G08G09G14G20G30               
  23783373.898 3 124982458.034 3  97388966.58746  23783385.35946
  20486250.609 6 107655969.646 6  83887801.53647  20486258.31647
  24108580.773 4 126691430.608 4  98720663.24348  24108593.79748
  21424546.383 6 112586743.626 6  87729969.95649  21424557.59849
  22044550.109 6 115844924.516 6  90268828.47247  22044559.98447
  22442373.617 5 117935329.405 5  91897806.85347  22442381.96547
  21147476.305 6 111130740.874 6  86595408.65848  21147487.35248
 22  7  3 14 52 35.0000000  0  7G04G07G08G09G14G20G30               
  23786699.844 3 124999930.902 3  97402581.76746  23786709.74246
  20488378.008 6 107667146.671 6  83896510.91647  20488385.35247
  24108569.352 4 126691371.536 4  98720617.21548  24108582.34848
  21426704.297 6 112598083.031 6  87738805.85549  21426715.35549
  22042766.273 5 115835552.882 5  90261525.91347  22042776.82447
  22442282.617 5 117934854.359 5  91897436.66547  22442291.64147
  21148003.406 6 111133511.383 6  86597567.50048  21148014.41448
 22  7  3 14 52 40.0000000  0  7G04G07G08G09G14G20G30               
  23790025.461 3 125017409.929 3  97416201.79746  23790035.98446
  20490505.688 6 107678330.513 6  83905225.60047  20490513.24647
  24108560.422 4 126691322.604 4  98720579.09648  24108573.45348
  21428863.773 6 112609431.696 6  87747648.97749  21428874.57449
  22040984.641 5 115826190.741 5  90254230.73547  22040995.24247
  22442195.031 5 117934393.879 5  91897077.85247  22442203.97347
  21148531.992 6 111136289.224 6  86599732.05548  21148542.97348
 22  7  3 14 52 45.0000000  0  7G04G07G08G09G14G20G30               
  23793352.195 3 125034895.009 3  97429826.48646  23793363.28546
  20492635.656 6 107689520.964 6  83913945.43347  20492642.87947
  24108553.250 4 126691283.558 4  98720548.68748  24108565.85548
  21431024.938 6 112620789.557 6  87756499.25749  21431036.19149
  22039204.961 6 115816837.979 6  90246942.87647  22039215.66847
  22442110.242 6 117933947.864 6  91896730.31647  22442118.98047
  21149061.773 6 111139074.285 6  86601902.22948  21149073.32048
 22  7  3 14 52 50.0000000  0  7G04G07G08G09G14G20G30               
  23796680.969 3 125052386.140 3  97443455.94546  23796691.87546
  20494766.234 6 107700717.912 6  83922670.33147  20494773.56647
  24108546.656 4 126691254.461 4  98720526.01148  24108560.04748
  21433188.125 6 112632156.553 6  87765356.66049  21433199.07049
  22037426.633 6 115807494.551 6  90239662.28147  22037437.10547
  22442027.984 5 117933516.304 5  91896394.01747  22442036.83647
  21149593.664 6 111141866.513 6  86604077.99148  21149604.77348
 22  7  3 14 52 55.0000000  0  7G04G07G08G09G14G20G30               
  23800010.898 3 125069883.379 3  97457090.13546  23800021.51246
  20496897.680 6 107711921.461 6  83931400.36347  20496905.30147
  24108542.891 4 126691235.341 4  98720511.10947  24108556.67247
  21435352.844 6 112643532.748 6  87774221.23049  21435363.77749
  22035650.750 6 115798160.537 6  90232389.02047  22035660.95347
  22441948.383 5 117933099.197 5  91896069.00447  22441957.21547
  21150125.977 6 111144665.983 6  86606259.39348  21150137.35948
 22  7  3 14 53  0.0000000  0  7G04G07G08G09G14G20G30               
  23803342.133 3 125087386.948 3  97470729.28346  23803352.26646
  20499031.219 6 107723131.835 6  83940135.73047  20499038.66847
  24108541.867 3 126691226.525 3  98720504.22747  24108554.78147
  21437519.352 6 112654918.465 6  87783093.22149  21437530.46549
  22033876.625 6 115788836.193 6  90225123.31047  22033886.91847
  22441872.750 5 117932696.872 5  91895755.51447  22441880.90247
  21150660.523 6 111147472.986 6  86608446.67348  21150671.93448
 22  7  3 14 53  5.0000000  0  7G04G07G08G09G14G20G30               
  23806673.273 3 125104896.719 3  97484373.24746  23806684.72746
  20501165.773 6 107734348.914 6  83948876.30547  20501173.37947
  24108542.102 3 126691227.861 3  98720505.27747  24108554.41847
  21439688.047 6 112666313.451 6  87791972.43349  21439699.12549
  22032103.859 6 115779521.409 6  90217865.03047  22032113.86747
  22441798.945 5 117932309.164 5  91895453.38447  22441806.89547
  21151195.938 6 111150287.312 6  86610639.66748  21151207.10548
 22  7  3 14 53 10.0000000  0  7G04G07G08G09G14G20G30               
  23810006.445 3 125122412.246 3  97498021.69346  23810017.49646
  20503301.594 6 107745572.260 6  83957621.78247  20503308.96947
  24108544.039 4 126691238.941 4  98720513.90048  24108557.04348
  21441857.984 6 112677717.356 6  87800858.59549  21441868.99649
  22030332.953 6 115770215.755 6  90210613.87747  22030342.77047
  22441728.023 5 117931935.662 5  91895162.34647  22441736.14147
  21151733.180 6 111153108.516 6  86612838.00548  21151744.10548
 22  7  3 14 53 15.0000000  0  7G04G07G08G09G14G20G30               
  23813340.773 4 125139933.924 4  97511674.97646  23813352.09846
  20505438.219 6 107756802.161 6  83966372.36347  20505446.10947
  24108548.297 4 126691259.951 4  98720530.28648  24108560.76648
  21444029.906 6 112689130.484 6  87809751.93949  21444040.74249
  22028564.289 6 115760919.546 6  90203370.07547  22028573.79747
  22441659.461 5 117931576.637 5  91894882.57647  22441667.58247
  21152270.719 6 111155936.945 6  86615041.98048  21152282.26248
 22  7  3 14 53 20.0000000  0  7G04G07G08G09G14G20G30               
  23816675.805 4 125157461.509 4  97525332.79446  23816687.46146
  20507576.680 6 107768038.522 6  83975127.96648  20507584.60248
  24108554.680 3 126691290.911 3  98720554.39048  24108566.50848
  21446204.039 6 112700552.688 6  87818652.36249  21446214.81349
  22026796.719 6 115751632.674 6  90196133.55447  22026806.67647
  22441594.430 5 117931231.977 5  91894614.01447  22441602.82847
  21152809.695 6 111158772.439 6  86617251.46448  21152821.85248
 22  7  3 14 53 25.0000000  0  7G04G07G08G09G14G20G30               
  23820012.656 4 125174995.015 4  97538995.23246  23820023.85946
  20509716.352 6 107779281.218 6  83983888.50048  20509724.09048
  24108562.086 4 126691331.795 4  98720586.25748  24108574.20748
  21448378.313 6 112711983.923 6  87827559.81849  21448389.46149
  22025031.617 6 115742355.062 6  90188904.25347  22025041.26247
  22441531.195 5 117930901.631 5  91894356.60147  22441539.58247
  21153351.422 6 111161614.951 6  86619466.41648  21153362.37148
 22  7  3 14 53 30.0000000  0  7G04G07G08G09G14G20G30               
  23823350.102 4 125192534.812 4  97552662.59646  23823361.95346
  20511856.586 6 107790530.691 6  83992654.32548  20511864.84048
  24108572.000 4 126691382.802 4  98720625.98948  24108584.30148
  21450555.734 6 112723424.549 6  87836474.59049  21450566.25849
  22023268.500 6 115733087.146 6  90181682.51047  22023277.32447
  22441471.250 5 117930585.986 5  91894110.64647  22441479.79347
  21153894.016 6 111164464.847 6  86621687.11848  21153904.95748
 22  7  3 14 53 35.0000000  0  7G04G07G08G09G14G20G30               
  23826688.688 4 125210080.610 4  97566334.65346  23826700.80946
  20513998.797 6 107801786.648 6  84001425.19348  20514006.91048
  24108583.625 4 126691443.898 4  98720673.58848  24108596.08248
  21452734.500 6 112734874.373 6  87845396.53749  21452745.64549
  22021506.188 6 115723828.667 6  90174468.10847  22021515.66447
  22441413.609 5 117930284.834 5  91893875.97947  22441422.95747
  21154437.359 6 111167321.946 6  86623913.43948  21154448.46548
 22  7  3 14 53 40.0000000  0  7G04G07G08G09G14G20G30               
  23830029.070 4 125227632.406 4  97580011.36646  23830041.02346
  20516141.523 6 107813049.079 6  84010201.11447  20516149.81347
  24108597.844 4 126691514.969 4  98720728.97348  24108609.06648
  21454915.484 6 112746333.338 6  87854325.59549  21454926.29749
  22019746.258 6 115714579.604 6  90167261.05147  22019755.37547
  22441358.969 5 117929998.139 5  91893652.58347  22441368.12547
  21154982.586 6 111170186.140 6  86626145.28248  21154993.43448
 22  7  3 14 53 45.0000000  0  7G04G07G08G09G14G20G30               
  23833370.531 3 125245190.528 3  97593693.00946  23833382.19946
  20518286.820 6 107824318.230 6  84018982.27248  20518294.24248
  24108612.586 4 126691596.385 4  98720792.42148  24108625.02748
  21457097.078 6 112757801.727 6  87863262.00249  21457108.45349
  22017988.477 6 115705340.270 6  90160061.57747  22017997.32447
  22441307.234 5 117929726.137 5  91893440.64647  22441316.45347
  21155529.281 6 111173057.701 6  86628382.86848  21155539.34448
 22  7  3 14 53 50.0000000  0  7G04G07G08G09G14G20G30               
  23836713.055 4 125262755.002 4  97607379.58346  23836724.66846
  20520431.992 6 107835594.199 6  84027768.74247  20520440.35547
  24108630.375 4 126691688.094 4  98720863.88548  24108642.54748
  21459282.016 6 112769279.659 6  87872205.84649  21459292.61749
  22016232.164 6 115696110.736 6  90152869.73447  22016241.12547
  22441258.156 5 117929468.966 5  91893240.25347  22441267.50047
  21156077.008 6 111175936.744 6  86630626.28848  21156087.52048
 22  7  3 14 53 55.0000000  0  7G04G07G08G09G14G20G30               
  23840056.969 4 125280325.518 4  97621070.88946  23840068.16846
  20522579.477 6 107846876.649 6  84036560.26448  20522587.04748
  24108649.477 4 126691789.927 4  98720943.23848  24108661.91048
  21461467.766 6 112780766.735 6  87881156.80749  21461478.87949
  22014477.688 6 115686890.711 6  90145685.30347  22014486.86347
  22441212.313 5 117929226.276 5  91893051.16147  22441221.22347
  21156625.805 6 111178822.931 6  86632875.26748  21156636.23848
 22  7  3 14 54  0.0000000  0  7G04G07G08G09G14G20G30               
  23843400.688 3 125297901.883 3  97634766.72646  23843412.84846
  20524727.289 6 107858165.374 6  84045356.65148  20524735.24648
  24108671.836 4 126691901.752 4  98721030.37048  24108682.91848
  21463655.422 6 112792262.842 6  87890114.80849  21463666.30949
  22012724.453 6 115677679.999 6  90138508.12547  22012733.86347
  22441168.570 5 117928997.912 5  91892873.20647  22441177.60947
  21157176.383 6 111181716.055 6  86635129.65448  21157186.94948
 22  7  3 14 54  5.0000000  0  7G04G07G08G09G14G20G30               
  23846746.328 3 125315484.558 3  97648467.51246  23846758.37946
  20526876.219 6 107869460.788 6  84054158.28348  20526884.82048
  24108694.445 4 126692023.834 4  98721125.50248  24108706.60948
  21465844.539 6 112803768.379 6  87899080.17049  21465856.03949
  22010973.117 6 115668479.035 6  90131338.55847  22010983.03947
  22441128.055 5 117928784.319 5  91892706.76447  22441137.05147
  21157728.242 6 111184616.555 6  86637389.79448  21157738.67648
 22  7  3 14 54 10.0000000  0  7G04G07G08G09G14G20G30               
  23850093.375 3 125333073.096 3  97662172.83946  23850105.43846
  20529027.359 6 107880762.521 6  84062964.81848  20529035.32448
  24108719.180 4 126692155.909 4  98721228.41348  24108731.42648
  21468035.695 6 112815282.962 6  87908052.57249  21468047.07849
  22009224.039 6 115659287.460 6  90124176.29347  22009233.95747
  22441089.648 5 117928585.008 5  91892551.46947  22441098.66847
  21158281.539 6 111187524.051 6  86639655.37948  21158292.02748
 22  7  3 14 54 15.0000000  0  7G04G07G08G09G14G20G30               
  23853442.641 3 125350667.856 3  97675883.03946  23853453.55546
  20531178.984 6 107892070.885 6  84071776.52348  20531187.49648
  24108746.242 4 126692298.314 4  98721339.37648  24108758.65648
  21470228.961 6 112826806.962 6  87917032.31349  21470240.05149
  22007476.688 6 115650105.623 6  90117021.61247  22007487.03147
  22441055.328 5 117928400.426 5  91892407.64647  22441063.46947
  21158836.039 6 111190438.870 6  86641926.68048  21158846.38348
 22  7  3 14 54 20.0000000  0  7G04G07G08G09G14G20G30               
  23856792.234 3 125368268.628 3  97689597.91846  23856803.08246
  20533331.828 6 107903385.672 6  84080593.23547  20533340.44547
  24108774.891 3 126692450.811 3  98721458.20148  24108787.44548
  21472423.438 6 112838340.136 6  87926019.19449  21472435.22749
  22005731.344 6 115640933.313 6  90109874.35947  22005741.44947
  22441022.859 5 117928230.312 5  91892275.09047  22441030.92247
  21159392.219 6 111193360.769 6  86644203.48648  21159402.71948
 22  7  3 14 54 25.0000000  0  7G04G07G08G09G14G20G30               
  23860141.969 3 125385875.119 3  97703317.24546  23860153.74246
  20535486.180 6 107914706.619 6  84089414.75347  20535494.91847
  24108806.672 3 126692613.086 3  98721584.65648  24108818.34048
  21474620.055 6 112849882.211 6  87935013.02349  21474631.31349
  22003987.906 6 115631770.254 6  90102734.30947  22003998.31347
  22440992.758 5 117928074.497 5  91892153.66347  22441001.30547
  21159949.773 6 111196289.484 6  86646485.61248  21159959.95348
 22  7  3 14 54 30.0000000  0  7G04G07G08G09G14G20G30               
  23863493.016 3 125403487.269 3  97717041.02146  23863504.72346
  20537642.250 6 107926033.564 6  84098240.95047  20537650.47747
  24108838.898 4 126692785.090 4  98721718.68348  24108851.29348
  21476818.492 6 112861433.137 6  87944013.73849  21476828.93449
  22002245.742 6 115622616.397 6  90095601.43347  22002256.48847
  22440965.984 5 117927932.800 5  91892043.24947  22440974.32847
  21160508.680 6 111199224.912 6  86648772.96848  21160518.51648
 22  7  3 14 54 35.0000000  0  7G04G07G08G09G14G20G30               
  23866845.953 3 125421105.312 3  97730769.34546  23866857.42646
  20539798.555 6 107937366.806 6  84107072.02647  20539806.77347
  24108873.477 4 126692967.160 4  98721860.56648  24108886.39548
  21479017.969 6 112872993.087 6  87953021.49549  21479028.96949
  22000505.070 6 115613471.943 6  90088475.88147  22000516.28547
  22440941.898 6 117927805.520 6  91891944.07947  22440949.89547
  21161068.211 6 111202167.284 6  86651065.73448  21161078.90648
 22  7  3 14 54 40.0000000  0  7G04G07G08G09G14G20G30               
  23870200.242 3 125438729.066 3  97744502.17646  23870211.48846
  20541956.414 6 107948706.142 6  84115907.87947  20541964.54747
  24108909.977 5 126693158.971 5  98722010.03448  24108922.50848
  21481219.258 6 112884561.955 6  87962036.19449  21481230.10949
  21998767.305 6 115604336.755 6  90081357.55147  21998777.51247
  22440920.422 6 117927692.450 6  91891855.96547  22440928.98847
  21161629.492 6 111205116.466 6  86653363.80548  21161640.01648
 22  7  3 14 54 45.0000000  0  7G04G07G08G09G14G20G30               
  23873554.234 3 125456358.930 3  97758239.70546  23873566.30146
  20544115.328 6 107960051.967 6  84124748.77547  20544123.49647
  24108948.008 4 126693361.141 4  98722167.56648  24108960.83648
  21483422.586 6 112896140.091 6  87971058.11349  21483433.65249
  21997030.930 6 115595211.281 6  90074246.79247  21997041.44947
  22440901.023 5 117927594.029 5  91891779.26147  22440910.12547
  21162191.945 6 111208072.837 6  86655667.48448  21162202.60248
 22  7  3 14 54 50.0000000  0  7G04G07G08G09G14G20G30               
  23876910.070 3 125473994.891 3  97771981.97646  23876922.66046
  20546275.781 6 107971404.267 6  84133594.72447  20546284.25047
  24108988.320 4 126693573.598 4  98722333.11348  24109001.52348
  21485627.664 6 112907727.531 6  87980087.29549  21485638.00849
  21995296.492 6 115586095.457 6  90067143.55347  21995307.02047
  22440886.289 5 117927510.179 5  91891713.92147  22440894.09847
  21162755.992 6 111211036.339 6  86657976.70848  21162766.77048
 22  7  3 14 54 55.0000000  0  7G04G07G08G09G14G20G30               
  23880267.445 2 125491636.846 2  97785728.95246  23880280.02746
  20548437.227 6 107982762.854 6  84142445.56048  20548445.33648
  24109031.008 4 126693796.081 4  98722506.48548  24109043.75448
  21487834.313 6 112919324.094 6  87989123.57949  21487845.15249
  21993562.938 6 115576989.159 6  90060047.73847  21993573.42647
  22440872.242 5 117927440.822 5  91891659.88247  22440881.19547
  21163321.266 6 111214006.846 6  86660291.40148  21163332.03148
 22  7  3 14 55  0.0000000  0  7G04G07G08G09G14G20G30               
  23883626.047 2 125509284.732 2  97799480.55246  23883638.30146
  20550599.820 6 107994127.902 6  84151301.43947  20550608.22347
  24109074.844 4 126694028.758 4  98722687.79848  24109087.86748
  21490043.203 6 112930929.879 6  87998167.04649  21490053.56649
  21991832.203 6 115567892.556 6  90052959.47947  21991842.73847
  22440861.633 5 117927385.977 5  91891617.13447  22440870.84447
  21163887.719 6 111216984.458 6  86662611.62948  21163898.93048
 22  7  3 14 55  5.0000000  0  7G04G07G08G09G14G20G30               
  23886986.000 2 125526938.677 2  97813236.90146  23886997.16046
  20552764.047 6 108005499.313 6  84160162.28148  20552771.85948
  24109122.234 4 126694271.625 4  98722877.04648  24109133.92648
  21492253.727 6 112942544.925 6  88007217.73049  21492264.07449
  21990103.375 6 115558805.561 6  90045878.71247  21990113.46147
  22440853.719 5 117927345.770 5  91891585.81347  22440862.79347
  21164454.875 6 111219969.150 6  86664937.36348  21164467.05548
 22  7  3 14 55 10.0000000  0  7G04G07G08G09G14G20G30               
  23890345.492 2 125544598.163 2  97826997.48546  23890357.66046
  20554928.836 6 108016876.579 6  84169027.68347  20554936.84447
  24109169.414 3 126694524.241 3  98723073.89648  24109181.72748
  21494464.984 6 112954168.645 6  88016275.16949  21494475.52049
  21988375.773 6 115549727.710 6  90038805.05747  21988386.05947
  22440849.016 5 117927319.606 5  91891565.43147  22440857.94547
  21165024.641 6 111222960.398 6  86667268.20948  21165036.07848
 22  7  3 14 55 15.0000000  0  7G04G07G08G09G14G20G30               
  23893707.063 2 125562263.532 2  97840762.72346  23893719.03546
  20557095.102 6 108028260.074 6  84177897.93548  20557103.15248
  24109220.039 3 126694787.065 3  98723278.69848  24109232.06648
  21496678.258 6 112965801.513 6  88025339.74249  21496689.41049
  21986650.469 6 115540659.412 6  90031738.86047  21986659.94547
  22440847.008 5 117927307.872 5  91891556.30847  22440856.00047
  21165595.500 6 111225958.575 6  86669604.45648  21165606.70348
 22  7  3 14 55 20.0000000  0  7G04G07G08G09G14G20G30               
  23897069.805 4 125579934.869 4  97854532.60946  23897082.29346
  20559262.438 6 108039649.851 6  84186773.08248  20559270.43848
  24109272.117 3 126695059.970 3  98723491.35448  24109283.77348
  21498894.406 6 112977443.494 6  88034411.41649  21498904.74649
  21984926.203 6 115531600.733 6  90024680.15747  21984936.49647
  22440847.305 5 117927310.575 5  91891558.42347  22440856.05147
  21166167.531 6 111228963.771 6  86671946.17948  21166178.61748
 22  7  3 14 55 25.0000000  0  7G04G07G08G09G14G20G30               
  23900433.117 3 125597612.051 3  97868307.00145  23900445.92245
  20561430.992 6 108051045.870 6  84195653.10147  20561438.94147
  24109326.539 3 126695343.102 3  98723711.97648  24109337.45348
  21501111.055 6 112989094.586 6  88043490.19049  21501121.89549
  21983205.063 6 115522551.599 6  90017628.88647  21983214.62147
  22440850.273 5 117927327.807 5  91891571.85147  22440859.71947
  21166740.211 6 111231975.896 6  86674293.29748  21166752.10248
 22  7  3 14 55 30.0000000  0  7G04G07G08G09G14G20G30               
  23903797.969 2 125615295.215 2  97882086.08446  23903810.55146
  20563600.383 6 108062448.119 6  84204537.97247  20563608.59047
  24109382.227 3 126695636.292 3  98723940.44548  24109393.50048
  21503329.969 6 113000754.864 6  88052576.11749  21503340.40249
  21981483.945 6 115513512.087 6  90010585.11947  21981494.19147
  22440857.008 5 117927359.513 5  91891596.55747  22440865.53947
  21167314.758 6 111234995.000 6  86676645.84548  21167326.23448
 22  7  3 14 55 35.0000000  0  7G04G07G08G09G14G20G30               
  23907163.359 2 125632984.590 2  97895869.97145  23907176.88345
  20565772.313 6 108073856.916 6  84213427.93847  20565779.17247
  24109439.367 3 126695939.859 3  98724176.99648  24109451.16448
  21505550.867 6 113012424.522 6  88061669.36049  21505561.30549
  21979765.773 6 115504482.400 6  90003549.00447  21979775.74247
  22440865.703 5 117927405.942 5  91891632.73347  22440874.18047
  21167891.219 6 111238021.296 6  86679004.00548  21167902.62148
 22  7  3 14 55 40.0000000  0  7G04G07G08G09G14G20G30               
  23910530.625 2 125650679.776 2  97909658.43746  23910544.04346
  20567944.172 6 108085271.942 6  84222322.77647  20567951.80147
  24109499.805 4 126696253.699 4  98724421.54448  24109511.30548
  21507773.328 6 113024103.309 6  88070769.71949  21507783.80149
  21978049.742 6 115495462.353 6  89996520.40847  21978058.94947
  22440876.852 5 117927466.872 5  91891680.21347  22440885.93847
  21168468.094 6 111241054.513 6  86681367.56448  21168479.34448
 22  7  3 14 55 45.0000000  0  7G04G07G08G09G14G20G30               
  23913900.570 2 125668381.075 2  97923451.63546  23913912.71146
  20570117.805 6 108096693.271 6  84231222.51047  20570125.10547
  24109561.164 4 126696577.884 4  98724674.16048  24109573.15248
  21509997.531 6 113035791.333 6  88079877.27549  21510007.68049
  21976334.453 6 115486452.014 6  89989499.37147  21976344.36347
  22440891.750 5 117927542.388 5  91891739.05347  22440900.13747
  21169046.852 6 111244094.853 6  86683736.67048  21169057.82848
 22  7  3 14 55 50.0000000  0  7G04G07G08G09G14G20G30               
  23917269.688 2 125686088.469 2  97937249.56946  23917282.83246
  20572292.508 6 108108121.046 6  84240127.24347  20572299.90247
  24109625.023 4 126696912.407 4  98724934.82148  24109636.77748
  21512223.516 6 113047488.730 6  88088992.11849  21512233.62949
  21974621.313 6 115477451.558 6  89982486.04147  21974631.86747
  22440908.852 5 117927632.577 5  91891809.31747  22440917.41847
  21169626.625 6 111247142.314 6  86686111.31648  21169637.51248
 22  7  3 14 55 55.0000000  0  7G04G07G08G09G14G20G30               
  23920639.875 2 125703802.263 2  97951052.52146  23920653.60946
  20574467.570 6 108119555.488 6  84249037.20747  20574475.91847
  24109689.719 4 126697257.568 4  98725203.77648  24109702.06648
  21514451.016 6 113059195.734 6  88098114.45749  21514461.52349
  21972910.938 6 115468461.201 6  89975480.58147  21972920.65647
  22440928.992 5 117927737.803 5  91891891.31647  22440936.95347
  21170207.891 6 111250197.177 6  86688491.73848  21170218.92648
 22  7  3 14 56  0.0000000  0  7G04G07G08G09G14G20G30               
  23924012.914 1 125721522.126 1  97964860.18445  23924025.57445
  20576645.430 6 108130996.278 6  84257952.11747  20576652.99247
  24109757.250 4 126697613.122 4  98725480.81748  24109769.94548
  21516681.094 6 113070912.033 6  88107244.04349  21516691.04749
  21971201.758 6 115459480.642 6  89968482.74547  21971212.19547
  22440951.500 5 117927857.649 5  91891984.70347  22440959.93447
  21170790.766 6 111253259.086 6  86690877.65048  21170801.56648
