     2.11           OBSERVATION DATA    GPS(GPS)            RINEX VERSION / TYPE
cnvtToRINEX 3.14.0  convertToRINEX OPR  20220810 190506 UTC PGM / RUN BY / DATE 
----------------------------------------------------------- COMMENT             
RS-HV-207                                                   MARKER NAME         
RS-HV-207                                                   MARKER NUMBER       
GNSS Observer       Trimble                                 OBSERVER / AGENCY   
4906165579          TRIMBLE 5700II      4.02                REC # / TYPE / VERS 
60266723            TRM39105.00                             ANT # / TYPE        
  3578256.2054 -4253145.7411 -3118040.9867                  APPROX POSITION XYZ 
        1.5300        0.0000        0.0000                  ANTENNA: DELTA H/E/N
     1     1     0                                          WAVELENGTH FACT L1/2
     4    C1    L1    L2    P2                              # / TYPES OF OBSERV 
  2022     7     3    12     5   25.0000000     GPS         TIME OF FIRST OBS   
  2022     7     3    12    53   40.0000000     GPS         TIME OF LAST OBS    
     0                                                      RCV CLOCK OFFS APPL 
    18                                                      LEAP SECONDS        
     9                                                      # OF SATELLITES     
   G01   135   135   135   135                              PRN / # OF OBS      
   G03   580   580   580   580                              PRN / # OF OBS      
   G04   580   580   580   580                              PRN / # OF OBS      
   G06   274   246   101   102                              PRN / # OF OBS      
   G07   580   580   580   580                              PRN / # OF OBS      
   G09   565   565   565   565                              PRN / # OF OBS      
   G16   575   575   575   575                              PRN / # OF OBS      
   G26   356   355   355   356                              PRN / # OF OBS      
   G30   236   236   236   236                              PRN / # OF OBS      
CARRIER PHASE MEASUREMENTS: PHASE SHIFTS REMOVED            COMMENT             
                                                            END OF HEADER       
 22  7  3 12  5 25.0000000  0  3G03G04G07                           
  20555336.813 6 108019020.47016  84170711.33758  20555348.08648
  20982877.938 6 110265764.14516  85921412.22258  20982886.75848
  22081242.734 6 116037712.93316  90419029.70757  22081250.92247
 22  7  3 12  5 30.0000000  0  3G03G04G07                           
  20557125.602 6 108028419.199 6  84178035.02148  20557136.64548
  20984384.359 6 110273684.614 6  85927584.02047  20984393.87147
  22079095.555 6 116026430.042 6  90410237.84947  22079103.99647
 22  7  3 12  5 35.0000000  0  3G03G04G07                           
  20558918.125 6 108037841.756 6  84185377.25848  20558929.10248
  20985894.578 6 110281619.531 6  85933767.07647  20985903.83647
  22076952.211 6 116015167.094 6  90401461.54447  22076960.94147
 22  7  3 12  5 40.0000000  0  3G03G04G07                           
  20560715.969 6 108047287.632 6  84192737.68048  20560726.80548
  20987407.055 6 110289568.364 6  85939960.96547  20987416.89547
  22074813.164 6 116003923.707 6  90392700.46047  22074821.38347
 22  7  3 12  5 45.0000000  0  3G03G04G07                           
  20562517.445 6 108056756.427 6  84200115.95448  20562528.92648
  20988922.664 6 110297530.677 6  85946165.35947  20988931.96947
  22072677.070 6 115992699.345 6  90383954.20247  22072685.49647
 22  7  3 12  5 50.0000000  0  6G01G03G04G07G16G26                  
  23163499.594 3 121724798.65113  94850700.63056  23163510.60546
  20564323.898 6 108066248.451 6  84207512.33348  20564334.64548
  20990439.984 6 110305506.847 6  85952380.54248  20990449.70348
  22070545.078 6 115981494.487 6  90375223.13647  22070553.16847
  23268963.367 4 122279305.82714  95282544.55756  23268971.62946
  23625476.195 3 124152596.22613  96742415.91557  23625486.23847
 22  7  3 12  5 55.0000000  0  6G01G03G04G07G16G26                  
  23167765.211 3 121747213.614 3  94868166.85946  23167776.38346
  20566134.578 6 108075763.357 6  84214926.53448  20566145.69548
  20991960.344 6 110313496.457 6  85958606.21548  20991970.10548
  22068415.938 6 115970308.675 6  90366506.92147  22068424.18447
  23269220.250 4 122280650.724 4  95283592.52546  23269228.03946
  23627399.000 2 124162703.906 2  96750292.03647  23627410.14847
 22  7  3 12  6  0.0000000  0  6G01G03G04G07G16G26                  
  23172033.047 3 121769641.039 3  94885642.75446  23172044.05546
  20567949.617 6 108085301.322 6  84222358.71348  20567960.11748
  20993483.750 6 110321499.718 6  85964842.52148  20993492.96548
  22066291.305 6 115959142.117 6  90357805.71347  22066298.94947
  23269478.930 4 122282017.848 4  95284657.80446  23269487.97746
  23629328.047 3 124172835.139 3  96758186.50147  23629337.96147
 22  7  3 12  6  5.0000000  0  6G01G03G04G07G16G26                  
  23176302.305 2 121792079.910 2  94903127.56246  23176314.65646
  20569768.703 6 108094861.603 6  84229808.27448  20569779.09448
  20995008.688 6 110329515.876 6  85971088.86148  20995018.32448
  22064170.281 6 115947994.035 6  90349118.90547  22064177.81647
  23269743.023 4 122283406.375 4  95285739.76246  23269751.96946
  23631260.117 4 124182989.061 4  96766098.63548  23631270.64148
 22  7  3 12  6 10.0000000  0  6G01G03G04G07G16G26                  
  23180574.883 3 121814530.098 3  94920621.20546  23180586.81646
  20571591.984 6 108104443.779 6  84237274.89748  20571603.19548
  20996536.617 6 110337544.505 6  85977344.94847  20996545.82847
  22062051.758 6 115936864.094 6  90340446.20947  22062059.88747
  23270011.758 4 122284816.021 4  95286838.20646  23270020.62146
  23633196.000 4 124193165.342 4  96774028.20248  23633207.54348
 22  7  3 12  6 15.0000000  0  6G01G03G04G07G16G26                  
  23184848.930 2 121836991.023 2  94938123.19646  23184860.91446
  20573419.805 6 108114047.570 6  84244758.36648  20573430.26648
  20998066.273 6 110345585.317 6  85983610.51247  20998075.53547
  22059936.844 6 115925752.005 6  90331787.45047  22059944.99647
  23270284.156 5 122286246.479 5  95287952.85846  23270292.70746
  23635136.359 5 124203363.715 5  96781974.99648  23635147.71548
 22  7  3 12  6 20.0000000  0  6G01G03G04G07G16G26                  
  23189124.836 3 121859462.305 3  94955633.25246  23189137.32046
  20575251.289 6 108123672.544 6  84252258.34648  20575262.09448
  20999598.898 6 110353637.862 6  85989885.22547  20999607.83647
  22057826.023 6 115914657.319 6  90323142.21747  22057833.45747
  23270560.781 5 122287697.330 5  95289083.38146  23270569.21146
  23637081.109 3 124213583.627 3  96789938.57548  23637093.07848
 22  7  3 12  6 25.0000000  0  6G01G03G04G07G16G26                  
  23193403.883 2 121881944.284 2  94973151.66046  23193415.63346
  20577087.234 7 108133318.915 7  84259774.99948  20577097.69548
  21001133.109 6 110361702.397 6  85996169.28147  21001142.64847
  22055718.008 6 115903580.284 6  90314510.75847  22055725.85247
  23270840.508 5 122289168.750 5  95290229.95246  23270849.48046
  23639029.500 4 124223825.440 4  96797919.20948  23639041.46148
 22  7  3 12  6 30.0000000  0  6G01G03G04G07G16G26                  
  23197683.156 3 121904435.796 3  94990677.49446  23197695.71546
  20578926.516 6 108142985.663 6  84267307.52948  20578937.03548
  21002670.039 6 110369777.884 6  86002461.85447  21002679.28147
  22053613.047 6 115892519.838 6  90305892.24447  22053621.52347
  23271123.883 4 122290659.705 4  95291391.73646  23271132.48446
  23640983.156 4 124234088.048 4  96805916.03748  23640994.89148
 22  7  3 12  6 35.0000000  0  6G01G03G04G07G16G26                  
  23201965.055 2 121926937.181 2  95008210.98146  23201977.36346
  20580770.172 6 108152673.116 6  84274856.19048  20580780.66448
  21004209.305 6 110377864.606 6  86008763.19547  21004217.96947
  22051512.109 6 115881476.354 6  90297286.91447  22051519.68047
  23271411.344 4 122292170.614 4  95292569.08046  23271420.39146
  23642939.047 4 124244371.774 4  96813929.33147  23642951.57447
 22  7  3 12  6 40.0000000  0  7G01G03G04G07G09G16G26               
  23206249.492 2 121949448.011 2  95025751.89946  23206261.16046
  20582617.406 6 108162380.835 6  84282420.64748  20582628.00048
  21005749.914 6 110385962.147 6  86015072.96447  21005759.32447
  22049413.055 6 115870449.417 6  90288694.49847  22049421.62147
  21443539.188 6 112686506.74416  87807709.12658  21443549.48048
  23271702.891 3 122293701.021 3  95293761.58446  23271711.91446
  23644900.438 4 124254676.205 4  96821958.74048  23644912.37548
 22  7  3 12  6 45.0000000  0  7G01G03G04G07G09G16G26               
  23210533.344 2 121971967.718 2  95043299.67045  23210546.41045
  20584469.039 6 108172108.328 6  84290000.50448  20584478.93848
  21007292.922 6 110394070.036 6  86021390.80147  21007301.94947
  22047317.547 6 115859438.479 6  90280114.55447  22047326.66447
  21443617.688 6 112686918.844 6  87808030.23448  21443627.37148
  23271996.750 3 122295250.458 3  95294968.92846  23272006.58246
  23646863.781 4 124265000.791 4  96830003.86648  23646877.73848
 22  7  3 12  6 50.0000000  0  7G01G03G04G07G09G16G26               
  23214820.484 2 121994496.194 2  95060854.32746  23214833.58646
  20586323.500 6 108181855.513 6  84297595.70948  20586333.56348
  21008837.594 6 110402188.156 6  86027716.59647  21008847.19547
  22045225.328 6 115848443.544 6  90271547.06247  22045234.10247
  21443698.250 6 112687341.039 6  87808359.21848  21443707.69948
  23272296.031 4 122296818.752 4  95296190.99146  23272305.26246
  23648832.313 4 124275345.463 4  96838064.64648  23648846.69148
 22  7  3 12  6 55.0000000  0  7G01G03G04G07G09G16G26               
  23219108.594 1 122017033.257 1  95078415.63946  23219122.14546
  20588182.313 7 108191622.054 7  84305205.99348  20588192.30148
  21010384.148 6 110410316.177 6  86034050.11647  21010393.28147
  22043136.523 6 115837464.220 6  90262991.75847  22043145.00847
  21443779.813 6 112687772.929 6  87808695.75048  21443790.11748
  23272598.156 3 122298405.693 3  95297427.56546  23272606.89546
  23650805.086 3 124285709.957 3  96846140.87448  23650818.42648
 22  7  3 12  7  0.0000000  0  7G01G03G04G07G09G16G26               
  23223400.148 2 122039578.602 2  95095983.39345  23223412.44945
  20590044.781 6 108201407.899 6  84312831.32148  20590054.32448
  21011932.922 6 110418454.018 6  86040391.28947  21011942.37547
  22041050.453 6 115826500.472 6  90254448.58147  22041058.44547
  21443864.273 6 112688214.480 6  87809039.82148  21443874.48448
  23272902.680 2 122300011.144 2  95298678.55546  23272911.98046
  23652781.516 2 124296094.091 2  96854232.38147  23652794.25447
 22  7  3 12  7  5.0000000  0  7G01G03G04G07G09G16G26               
  23227692.188 2 122062131.934 2  95113557.39845  23227704.65645
  20591910.609 6 108211212.654 6  84320471.38648  20591920.17248
  21013483.555 6 110426601.344 6  86046739.83047  21013492.60947
  22038966.500 6 115815551.926 6  90245917.26247  22038975.09047
  21443950.391 6 112688665.340 6  87809391.12148  21443960.00048
  23273212.234 3 122301634.750 3  95299943.71446  23273221.53546
  23654762.461 3 124306497.585 3  96862338.98148  23654773.70748
 22  7  3 12  7 10.0000000  0  7G01G03G04G07G09G16G26               
  23231984.570 1 122084692.686 1  95131137.20445  23231997.36745
  20593779.273 7 108221035.724 7  84328125.72648  20593789.47748
  21015035.828 6 110434757.514 6  86053095.29447  21015044.80547
  22036885.758 6 115804618.007 6  90237397.32047  22036895.09847
  21444037.352 6 112689124.862 6  87809749.19848  21444046.96548
  23273523.875 3 122303275.928 3  95301222.57446  23273533.57846
  23656745.031 4 124316919.750 4  96870460.15148  23656757.04348
 22  7  3 12  7 15.0000000  0  7G01G03G04G07G09G16G26               
  23236279.211 3 122107261.192 3  95148723.05146  23236291.61346
  20595652.102 7 108230877.627 7  84335794.72848  20595662.63348
  21016589.266 6 110442923.025 6  86059458.02147  21016598.47347
  22034808.758 6 115793699.226 6  90228889.17847  22034816.64847
  21444126.172 6 112689593.572 6  87810114.40748  21444136.19548
  23273839.773 3 122304935.139 3  95302515.46346  23273849.88746
  23658731.344 5 124327361.127 5  96878596.28648  23658743.51248
 22  7  3 12  7 20.0000000  0  7G01G03G04G07G09G16G26               
  23240575.063 2 122129837.529 2  95166314.94646  23240588.40246
  20597528.180 7 108240738.187 7  84343478.27448  20597538.55948
  21018144.703 6 110451097.754 6  86065827.93847  21018154.25847
  22032733.289 6 115782795.442 6  90220392.72047  22032741.92247
  21444217.672 6 112690071.291 6  87810486.65948  21444227.56648
  23274158.906 4 122306612.331 4  95303822.35446  23274168.54746
  23660722.766 4 124337821.528 4  96886747.24448  23660734.25448
 22  7  3 12  7 25.0000000  0  7G01G03G04G07G09G16G26               
  23244873.672 3 122152421.419 3  95183912.79746  23244885.96146
  20599408.039 7 108250617.366 7  84351176.32748  20599418.78148
  21019702.141 6 110459281.587 6  86072204.94747  21019711.18447
  22030661.664 6 115771906.561 6  90211907.87647  22030669.70347
  21444309.836 6 112690557.965 6  87810865.87548  21444319.92648
  23274481.781 4 122308307.363 4  95305143.17046  23274491.08646
  23662716.219 5 124348300.929 5  96894913.01848  23662728.79348
 22  7  3 12  7 30.0000000  0  7G01G03G04G07G09G16G26               
  23249171.391 3 122175012.028 3  95201515.85146  23249184.98846
  20601291.992 6 108260514.307 6  84358888.22948  20601302.14148
  21021261.594 6 110467473.751 6  86078588.45447  21021270.41047
  22028592.086 6 115761031.813 6  90203434.03947  22028600.32847
  21444404.445 6 112691052.760 6  87811251.43248  21444414.14148
  23274806.828 3 122310019.432 3  95306477.26046  23274816.82846
  23664713.859 4 124358798.509 4  96903092.96248  23664725.93848
 22  7  3 12  7 35.0000000  0  7G01G03G04G07G09G16G26               
  23253472.047 3 122197609.866 3  95219124.52446  23253485.14846
  20603178.375 7 108270429.442 7  84366614.30448  20603188.98848
  21022822.336 6 110475674.624 6  86084978.73447  21022830.85547
  22026525.117 6 115750171.564 6  90194971.50247  22026533.33647
  21444499.938 6 112691556.093 6  87811643.63548  21444510.10548
  23275136.477 3 122311749.026 3  95307825.00646  23275145.61346
  23666715.344 3 124369314.645 3  96911287.34948  23666727.59048
 22  7  3 12  7 40.0000000  0  7G01G03G04G07G09G16G26               
  23257774.047 3 122220214.356 3  95236738.39046  23257787.16846
  20605068.703 6 108280362.332 6  84374354.20648  20605079.36748
  21024383.266 6 110483883.768 6  86091375.46647  21024392.63347
  22024461.352 6 115739325.412 6  90186519.95047  22024469.56647
  21444597.203 6 112692067.525 6  87812042.15448  21444607.21148
  23275469.844 3 122313495.554 3  95309185.93646  23275477.90246
  23668720.211 3 124379848.885 3  96919495.84848  23668731.79748
 22  7  3 12  7 45.0000000  0  7G01G03G04G07G09G16G26               
  23262077.273 3 122242825.661 3  95254357.59346  23262089.41446
  20606962.289 7 108290313.066 7  84382108.03348  20606972.89548
  21025947.938 6 110492101.255 6  86097778.69447  21025956.89847
  22022400.555 6 115728493.468 6  90178079.47447  22022408.36347
  21444696.438 6 112692587.151 6  87812447.04548  21444706.16848
  23275805.750 4 122315259.244 4  95310560.25246  23275814.07846
  23670728.141 4 124390401.335 4  96927718.53147  23670739.52347
 22  7  3 12  7 50.0000000  0  7G01G03G04G07G09G16G26               
  23266380.617 2 122265443.701 2  95271982.00246  23266393.86746
  20608858.977 6 108300281.615 6  84389875.72748  20608869.62548
  21027512.828 6 110500327.080 6  86104188.42747  21027521.87147
  22020341.336 6 115717675.636 6  90169649.98847  22020350.12547
  21444796.570 6 112693114.930 6  87812858.30048  21444806.61348
  23276144.453 4 122317040.081 4  95311947.90746  23276152.80146
  23672739.313 4 124400971.960 4  96935955.39848  23672750.90248
 22  7  3 12  7 55.0000000  0  7G01G03G04G07G09G16G26               
  23270686.195 2 122288068.163 2  95289611.43346  23270699.62946
  20610759.172 6 108310267.657 6  84397657.05448  20610769.77348
  21029079.922 6 110508560.892 6  86110604.37447  21029088.67647
  22018285.633 6 115706871.700 6  90161231.34647  22018294.26647
  21444898.617 6 112693650.496 6  87813275.61248  21444908.67648
  23276486.305 4 122318837.701 4  95313348.65046  23276494.85546
  23674754.008 4 124411560.358 4  96944206.10148  23674765.95748
 22  7  3 12  8  0.0000000  0  7G01G03G04G07G09G16G26               
  23274992.086 2 122310699.225 2  95307246.01346  23275005.85946
  20612663.188 6 108320271.417 6  84405452.18848  20612673.54348
  21030648.500 6 110516802.959 6  86117026.75847  21030657.21147
  22016232.375 6 115696081.864 6  90152823.69647  22016241.00047
  21445001.672 6 112694194.174 6  87813699.24848  21445012.27348
  23276831.406 4 122320652.300 4  95314762.63646  23276839.77746
  23676772.680 3 124422166.911 3  96952470.94447  23676785.02347
 22  7  3 12  8  5.0000000  0  7G01G03G04G07G09G16G26               
  23279300.484 2 122333336.820 2  95324885.68546  23279314.21946
  20614569.805 6 108330292.857 6  84413261.09748  20614580.20348
  21032218.516 6 110525053.185 6  86123455.50547  21032226.94947
  22014181.961 6 115685306.069 6  90144426.97247  22014190.00447
  21445107.141 6 112694745.792 6  87814129.09048  21445117.11348
  23277179.648 3 122322483.930 3  95316189.88546  23277188.84046
  23678794.648 3 124432791.467 3  96960749.79848  23678806.81348
 22  7  3 12  8 10.0000000  0  7G01G03G04G07G09G16G26               
  23283608.773 2 122355980.830 2  95342530.32646  23283623.02046
  20616480.180 6 108340331.769 6  84421083.63448  20616491.22348
  21033789.945 6 110533311.397 6  86129890.47447  21033798.68447
  22012134.125 6 115674544.162 6  90136041.04647  22012142.16047
  21445213.719 6 112695305.268 6  87814565.03648  21445223.60548
  23277531.414 4 122324332.313 4  95317630.18946  23277539.84046
  23680820.297 3 124443433.894 3  96969042.60448  23680832.10548
 22  7  3 12  8 15.0000000  0  7G01G03G04G07G09G16G26               
  23287919.641 2 122378630.642 2  95360179.54246  23287933.01246
  20618394.234 6 108350387.689 6  84428919.40248  20618404.41448
  21035363.297 6 110541577.076 6  86136331.25347  21035371.56647
  22010087.844 6 115663795.636 6  90127665.59147  22010096.73847
  21445321.172 6 112695872.065 6  87815006.68948  21445331.52048
  23277886.156 4 122326197.013 4  95319083.18946  23277895.25046
  23682848.422 4 124454093.639 4  96977348.88748  23682860.40248
 22  7  3 12  8 20.0000000  0  7G01G03G04G07G09G16G26               
  23292230.922 2 122401286.506 2  95377833.44046  23292244.39146
  20620310.914 6 108360460.889 6  84436768.64948  20620321.32448
  21036937.680 6 110549850.533 6  86142778.11247  21036945.66847
  22008045.516 6 115653060.767 6  90119300.77147  22008053.89547
  21445430.602 6 112696446.411 6  87815454.21448  21445440.69548
  23278245.148 4 122328078.324 4  95320549.16946  23278253.19146
  23684880.039 5 124464770.904 5  96985668.82448  23684891.97348
 22  7  3 12  8 25.0000000  0  7G01G03G04G07G09G16G26               
  23296543.063 3 122423948.267 3  95395491.92546  23296556.89846
  20622231.078 6 108370551.091 6  84444631.14448  20622241.56648
  21038513.148 6 110558131.515 6  86149230.81347  21038521.73847
  22006005.859 6 115642339.383 6  90110946.42647  22006013.84447
  21445541.344 6 112697028.139 6  87815907.49648  21445551.75848
  23278606.344 4 122329976.007 4  95322027.87346  23278614.27346
  23686915.266 5 124475465.560 5  96994002.33948  23686926.91048
 22  7  3 12  8 30.0000000  0  7G01G03G04G07G09G16G26               
  23300856.648 2 122446615.541 2  95413154.71646  23300869.89546
  20624154.289 6 108380658.011 6  84452506.66048  20624164.53948
  21040090.219 6 110566419.708 6  86155689.14647  21040099.01647
  22003967.695 6 115631631.073 6  90102602.28147  22003975.66447
  21445653.180 6 112697616.894 6  87816366.26348  21445663.89848
  23278969.852 5 122331889.701 5  95323519.07946  23278979.14146
  23688953.391 4 124486177.231 4  97002349.10548  23688965.24248
 22  7  3 12  8 35.0000000  0  7G01G03G04G07G09G16G26               
  23305171.578 3 122469288.906 3  95430822.23446  23305185.30946
  20626080.672 6 108390782.276 6  84460395.69348  20626091.43848
  21041669.336 6 110574715.732 6  86162153.58147  21041677.74247
  22001932.797 6 115620936.550 6  90094268.89447  22001940.77347
  21445766.719 6 112698213.307 6  87816830.99648  21445777.43448
  23279338.516 4 122333820.087 4  95325023.28046  23279346.09846
  23690996.289 4 124496906.580 4  97010709.62148  23691007.35248
 22  7  3 12  8 40.0000000  0  7G01G03G04G07G09G16G26               
  23309487.852 2 122491968.055 2  95448494.27446  23309500.82846
  20628010.992 6 108400923.507 6  84468297.95948  20628021.27748
  21043249.023 6 110583019.179 6  86168623.79147  21043257.24247
  21999900.078 6 115610255.426 6  90085945.93647  21999907.84047
  21445881.523 6 112698816.993 6  87817301.39548  21445892.15248
  23279707.563 4 122335766.764 4  95326540.14446  23279716.44546
  23693040.195 4 124507653.226 4  97019083.61647  23693052.30547
 22  7  3 12  8 45.0000000  0  7G01G03G04G07G09G16G26               
  23313804.750 2 122514652.707 2  95466170.59946  23313817.55946
  20629943.742 6 108411081.553 6  84476213.31448  20629954.23448
  21044830.344 6 110591329.940 6  86175099.70847  21044839.36747
  21997870.211 6 115599587.576 6  90077633.31647  21997878.15647
  21445998.227 6 112699427.816 6  87817777.35648  21446008.68448
  23280082.422 5 122337729.600 5  95328069.64446  23280090.14546
  23695088.750 4 124518416.958 4  97027470.93247  23695100.56347
 22  7  3 12  8 50.0000000  0  7G01G03G04G07G09G16G26               
  23318121.945 2 122537343.469 2  95483851.72946  23318135.51246
  20631880.414 7 108421256.922 7  84484142.17148  20631890.35548
  21046413.453 6 110599648.503 6  86181581.70447  21046422.31647
  21995842.000 6 115588933.501 6  90069331.43847  21995850.87947
  21446115.711 6 112700046.245 6  87818259.24948  21446126.16448
  23280458.234 5 122339709.139 5  95329612.14146  23280466.48446
  23697139.219 4 124529198.367 4  97035872.00947  23697152.07447
 22  7  3 12  8 55.0000000  0  7G01G03G04G07G09G16G26               
  23322441.102 3 122560039.729 3  95501537.10046  23322454.63746
  20633819.531 7 108431449.129 7  84492084.14748  20633829.91048
  21047997.523 6 110607974.396 6  86188069.41447  21048006.69147
  21993817.523 6 115578292.728 6  90061039.93247  21993826.24647
  21446235.047 6 112700671.829 6  87818746.72348  21446244.84048
  23280838.656 5 122341704.875 5  95331167.26246  23280846.19146
  23699194.789 4 124539996.909 4  97044286.45647  23699206.91447
 22  7  3 12  9  0.0000000  0  7G01G03G04G07G09G16G26               
  23326760.898 2 122582741.542 2  95519226.80346  23326774.22346
  20635762.453 6 108441658.166 6  84500039.23748  20635772.39148
  21049583.734 6 110616307.547 6  86194562.77247  21049592.60247
  21991795.594 6 115567665.204 6  90052758.74347  21991803.95347
  21446355.094 6 112701304.535 6  87819239.73348  21446365.90248
  23281220.750 4 122343716.781 4  95332734.99046  23281229.13346
  23701253.102 4 124550812.532 4  97052714.20648  23701265.14548
 22  7  3 12  9  5.0000000  0  7G01G03G04G07G09G16G26               
  23331082.984 3 122605448.899 3  95536920.81446  23331094.93046
  20637708.414 6 108451884.035 6  84508007.43948  20637718.57448
  21051170.898 6 110624648.029 6  86201061.85347  21051179.61347
  21989776.000 6 115557050.968 6  90044487.91847  21989783.71147
  21446476.984 6 112701944.386 6  87819738.31648  21446487.32048
  23281606.977 4 122345744.889 4  95334315.31146  23281615.02346
  23703314.453 4 124561645.261 4  97061155.29348  23703326.22348
 22  7  3 12  9 10.0000000  0  7G01G03G04G07G09G16G26               
  23335404.688 3 122628161.617 3  95554619.03646  23335416.87946
  20639657.656 7 108462126.631 7  84515988.68148  20639667.80148
  21052759.469 6 110632995.664 6  86207566.49247  21052767.91847
  21987758.211 6 115546449.956 6  90036227.39247  21987766.75847
  21446600.234 6 112702591.239 6  87820242.34548  21446610.20348
  23281996.109 4 122347789.100 4  95335908.22946  23282003.96946
  23705379.898 4 124572495.015 4  97069609.64248  23705391.16848
 22  7  3 12  9 15.0000000  0  7G01G03G04G07G09G16G26               
  23339727.117 3 122650879.584 3  95572321.32946  23339740.27046
  20641609.234 7 108472385.796 7  84523982.82648  20641619.99648
  21054348.820 6 110641350.384 6  86214076.67447  21054358.16447
  21985743.875 6 115535862.021 6  90027977.06347  21985752.10547
  21446724.766 6 112703245.002 6  87820751.77548  21446734.76248
  23282388.070 4 122349849.273 4  95337513.56146  23282395.52346
  23707447.977 4 124583361.688 4  97078077.17448  23707459.11348
 22  7  3 12  9 20.0000000  0  7G01G03G04G07G09G16G26               
  23344051.984 3 122673603.043 3  95590027.88546  23344064.50446
  20643564.875 7 108482661.800 7  84531990.10048  20643575.52348
  21055940.555 6 110649712.369 6  86220592.49647  21055949.34047
  21983731.250 6 115525287.361 6  90019737.06347  21983740.02347
  21446850.602 6 112703905.854 6  87821266.72048  21446860.42648
  23282783.461 4 122351925.642 4  95339131.52546  23282790.68846
  23709518.664 4 124594245.401 4  97086557.99148  23709530.20348
 22  7  3 12  9 25.0000000  0  7G01G03G04G07G09G16G26               
  23348376.531 4 122696331.652 4  95607738.47146  23348389.28946
  20645523.875 7 108492954.358 7  84540010.27148  20645534.10548
  21057532.852 6 110658081.365 6  86227113.79447  21057541.65247
  21981721.250 6 115514725.726 6  90011507.22647  21981729.83647
  21446977.789 6 112704573.587 6  87821787.03648  21446987.41448
  23283181.078 5 122354017.998 5  95340761.92446  23283189.19146
  23711592.711 4 124605145.986 4  97095051.95848  23711604.34448
 22  7  3 12  9 30.0000000  0  7G01G03G04G07G09G16G26               
  23352702.820 4 122719065.275 4  95625452.96546  23352715.59846
  20647485.734 6 108503263.323 6  84548043.22648  20647495.89848
  21059126.859 6 110666457.259 6  86233640.46447  21059135.89547
  21979713.945 6 115504177.045 6  90003287.48247  21979722.72747
  21447105.797 6 112705247.979 6  87822312.53048  21447115.69548
  23283582.344 5 122356126.143 5  95342404.63946  23283590.13746
  23713670.172 5 124616063.254 5  97103558.92748  23713682.08648
 22  7  3 12  9 35.0000000  0  7G01G03G04G07G09G16G26               
  23357029.836 4 122741804.073 4  95643171.51646  23357042.49646
  20649450.227 7 108513588.866 7  84556089.10148  20649460.88748
  21060721.563 6 110674840.136 6  86240172.58147  21060730.89147
  21977708.703 6 115493641.421 6  89995077.90347  21977717.69547
  21447235.398 6 112705929.246 6  87822843.38848  21447245.72748
  23283986.703 5 122358250.250 5  95344059.80446  23283994.64146
  23715750.844 4 124626997.276 4  97112078.94048  23715763.16848
 22  7  3 12  9 40.0000000  0  7G01G03G04G07G09G16G26               
  23361357.750 4 122764547.991 4  95660894.01146  23361370.77746
  20651418.633 6 108523930.941 6  84564147.85748  20651428.53948
  21062318.320 6 110683230.000 6  86246710.13747  21062327.52747
  21975706.945 6 115483118.877 6  89986878.52247  21975715.52347
  21447366.547 6 112706617.333 6  87823379.56048  21447376.67248
  23284393.602 5 122360390.294 5  95345727.37746  23284402.00846
  23717834.219 4 124637948.172 4  97120612.09847  23717847.05547
 22  7  3 12  9 45.0000000  0  7G01G03G04G07G09G16G26               
  23365687.266 4 122787296.896 4  95678620.41546  23365699.84446
  20653389.430 6 108534289.438 6  84572219.39248  20653399.78148
  21063916.016 6 110691626.749 6  86253253.05647  21063924.95747
  21973706.414 6 115472609.255 6  89978689.21547  21973715.17647
  21447499.461 6 112707312.133 6  87823920.96848  21447508.83648
  23284804.055 5 122362546.220 5  95347407.32646  23284811.77046
  23719920.914 3 124648915.730 3  97129158.24947  23719934.27347
 22  7  3 12  9 50.0000000  0  7G01G03G04G07G09G16G26               
  23370017.367 4 122810050.701 4  95696350.62946  23370029.40646
  20655363.836 7 108544664.333 7  84580303.72048  20655374.62148
  21065515.008 6 110700030.315 6  86259801.28747  21065524.33647
  21971709.156 6 115462112.545 6  89970509.94547  21971717.39547
  21447632.172 6 112708013.583 6  87824467.56348  21447641.92648
  23285217.453 5 122364717.906 5  95349099.54346  23285225.31646
  23722012.047 3 124659899.988 3  97137717.40147  23722024.27047
 22  7  3 12  9 55.0000000  0  7G01G03G04G07G09G16G26               
  23374347.578 5 122832809.367 5  95714084.62146  23374360.60946
  20657341.125 6 108555055.537 6  84588400.77248  20657351.35948
  21067115.719 6 110708440.676 6  86266354.81747  21067125.37947
  21969714.586 6 115451628.709 6  89962340.73247  21969722.29747
  21447766.930 6 112708721.639 6  87825019.28348  21447776.91048
  23285634.203 5 122366905.376 5  95350804.06646  23285641.75046
  23724105.008 4 124670900.739 4  97146289.41347  23724117.69147
 22  7  3 12 10  0.0000000  0  7G01G03G04G07G09G16G26               
  23378679.148 5 122855573.268 5  95731822.70846  23378692.31346
  20659321.516 6 108565463.445 6  84596510.82648  20659332.14848
  21068717.492 6 110716858.198 6  86272913.92847  21068727.07047
  21967722.266 6 115441158.087 6  89954181.79147  21967730.23847
  21447902.984 6 112709436.686 6  87825576.46348  21447912.71148
  23286052.516 5 122369108.985 5  95352521.18446  23286061.09846
  23726201.742 4 124681918.458 4  97154874.63947  23726214.01647
 22  7  3 12 10  5.0000000  0  7G01G03G04G07G09G16G26               
  23383012.156 4 122878342.372 4  95749564.84346  23383024.96946
  20661305.680 6 108575888.036 6  84604633.87448  20661315.86748
  21070320.352 6 110725282.781 6  86279478.53447  21070329.64147
  21965732.031 6 115430700.697 6  89946033.18447  21965740.26247
  21448040.711 6 112710158.645 6  87826139.02648  21448050.23848
  23286475.594 5 122371328.699 5  95354250.82846  23286483.74246
  23728302.047 3 124692953.091 3  97163473.05547  23728314.18047
 22  7  3 12 10 10.0000000  0  7G01G03G04G07G09G16G26               
  23387346.328 5 122901116.304 5  95767310.74546  23387359.02746
  20663292.617 6 108586329.018 6  84612769.69948  20663303.03948
  21071924.969 6 110733714.205 6  86286048.46347  21071934.38747
  21963744.148 6 115420256.266 6  89937894.68047  21963752.70747
  21448179.109 6 112710887.305 6  87826706.81548  21448189.32448
  23286900.680 5 122373564.278 5  95355992.85846  23286909.34046
  23730404.484 4 124704004.359 4  97172084.42547  23730416.91047
 22  7  3 12 10 15.0000000  0  7G01G03G04G07G09G16G26               
  23391680.945 5 122923895.171 5  95785060.48646  23391693.44146
  20665282.203 6 108596786.442 6  84620918.34848  20665292.58248
  21073530.727 6 110742152.507 6  86292623.76347  21073540.10547
  21961759.336 6 115409824.836 6  89929766.28347  21961767.82847
  21448318.641 6 112711622.672 6  87827279.82348  21448329.10948
  23287329.438 5 122375815.775 5  95357747.26246  23287337.31646
  23732511.016 4 124715072.280 4  97180708.77248  23732523.04348
 22  7  3 12 10 20.0000000  0  7G01G03G04G07G09G16G26               
  23396016.219 5 122946678.823 5  95802813.95547  23396028.93047
  20667275.672 6 108607260.207 6  84629079.72248  20667286.04348
  21075138.367 6 110750597.572 6  86299204.33847  21075147.02347
  21959776.727 6 115399406.371 6  89921648.00247  21959785.41447
  21448460.172 6 112712364.627 6  87827857.97048  21448470.12948
  23287760.516 5 122378083.072 5  95359513.99846  23287768.56646
  23734621.219 4 124726156.813 4  97189346.05648  23734632.48848
 22  7  3 12 10 25.0000000  0  7G01G03G04G07G09G16G26               
  23400352.359 4 122969466.780 4  95820570.77947  23400365.82847
  20669271.352 6 108617749.826 6  84637253.44048  20669281.73848
  21076746.039 6 110759048.941 6  86305789.80847  21076755.02347
  21957796.383 6 115389000.313 6  89913539.40047  21957805.17247
  21448602.734 6 112713112.712 6  87828440.88648  21448612.54348
  23288194.719 5 122380365.673 5  95361292.63947  23288203.38747
  23736732.398 4 124737257.390 4  97197995.85448  23736744.90648
 22  7  3 12 10 30.0000000  0  7G01G03G04G07G09G16G26               
  23404690.133 4 122992259.443 4  95838331.26546  23404703.35246
  20671270.953 6 108628255.776 6  84645439.90048  20671280.98448
  21078355.852 6 110767507.068 6  86312380.56147  21078364.75047
  21955819.055 6 115378607.175 6  89905440.86547  21955827.61347
  21448746.063 6 112713867.383 6  87829028.93548  21448755.86748
  23288632.367 5 122382664.124 5  95363083.62047  23288640.30947
  23738848.344 4 124748374.521 4  97206658.56648  23738860.77048
 22  7  3 12 10 35.0000000  0  7G01G03G04G07G09G16G26               
  23409028.047 4 123015056.599 4  95856095.29446  23409041.31646
  20673273.117 6 108638777.746 6  84653638.82448  20673282.78548
  21079966.734 6 110775971.617 6  86318976.30547  21079975.73447
  21953843.469 6 115368226.667 6  89897352.16147  21953852.30947
  21448890.617 6 112714628.338 6  87829621.88848  21448900.50848
  23289072.609 5 122384977.996 5  95364886.64847  23289080.62947
  23740966.898 4 124759507.837 4  97215333.87348  23740979.41848
 22  7  3 12 10 40.0000000  0  7G01G03G04G07G09G16G26               
  23413366.852 4 123037858.157 4  95873862.71647  23413380.44147
  20675278.102 6 108649315.786 6  84661850.28848  20675288.28948
  21081578.609 6 110784442.649 6  86325577.10847  21081587.46147
  21951870.453 6 115357858.846 6  89889273.34947  21951879.46547
  21449036.508 6 112715395.623 6  87830219.76448  21449046.21548
  23289516.203 5 122387307.456 5  95366701.80246  23289524.07046
  23743088.844 4 124770657.469 4  97224021.90148  23743101.00848
 22  7  3 12 10 45.0000000  0  7G01G03G04G07G09G16G26               
  23417707.133 4 123060664.189 4  95891633.64746  23417720.35546
  20677287.109 6 108659869.920 6  84670074.28448  20677296.07848
  21083192.461 6 110792920.222 6  86332183.00747  21083200.30947
  21949899.820 6 115347503.720 6  89881204.42247  21949908.70347
  21449183.867 6 112716169.229 6  87830822.56748  21449193.65248
  23289961.867 5 122389652.458 5  95368529.07147  23289970.29747
  23745213.805 4 124781823.391 4  97232722.61048  23745225.81648
 22  7  3 12 10 50.0000000  0  7G01G03G04G07G09G16G26               
  23422048.000 3 123083474.631 3  95909407.98146  23422061.27346
  20679298.258 6 108670440.079 6  84678310.76748  20679307.96148
  21084806.852 6 110801404.210 6  86338793.89947  21084815.07447
  21947932.250 6 115337161.243 6  89873145.35247  21947940.39147
  21449332.383 6 112716949.120 6  87831430.27748  21449342.00848
  23290410.758 5 122392012.895 5  95370368.37446  23290419.57846
  23747341.133 4 124793005.525 4  97241435.96348  23747353.30548
 22  7  3 12 10 55.0000000  0  7G01G03G04G07G09G16G26               
  23426390.156 3 123106289.335 3  95927185.64446  23426402.99246
  20681312.797 6 108681026.146 6  84686559.64748  20681322.18848
  21086421.734 6 110809894.545 6  86345409.75247  21086430.74647
  21945966.203 6 115326831.313 6  89865096.05747  21945974.63347
  21449481.617 6 112717735.232 6  87832042.82548  21449491.44948
  23290863.758 5 122394388.831 5  95372219.76146  23290871.51246
  23749472.688 3 124804203.831 3  97250161.91948  23749484.27348
 22  7  3 12 11  0.0000000  0  7G01G03G04G07G09G16G26               
  23430732.063 3 123129108.410 3  95944966.71646  23430745.01646
  20683329.922 6 108691628.275 6  84694821.03748  20683340.23448
  21088038.797 6 110818391.289 6  86352030.59047  21088047.68047
  21944003.039 6 115316514.022 6  89857056.61848  21944011.70348
  21449632.742 6 112718527.561 6  87832660.22248  21449642.73848
  23291318.836 5 122396780.308 5  95374083.25946  23291326.55946
  23751606.672 3 124815418.271 3  97258900.44748  23751618.07448
 22  7  3 12 11  5.0000000  0  7G01G03G04G07G09G16G26               
  23435075.227 3 123151931.813 3  95962751.17446  23435088.09046
  20685350.406 6 108702246.432 6  84703094.91548  20685360.39548
  21089656.680 6 110826894.491 6  86358656.45747  21089665.71547
  21942041.711 6 115306209.437 6  89849027.05747  21942050.65247
  21449784.648 6 112719326.206 6  87833282.53648  21449794.60948
  23291776.672 5 122399187.290 5  95375958.83746  23291784.83646
  23753743.172 3 124826648.999 3  97267651.66847  23753755.67247
 22  7  3 12 11 10.0000000  0  7G01G03G04G07G09G16G26               
  23439418.656 3 123174759.914 3  95980539.27146  23439432.07046
  20687374.523 6 108712880.979 6  84711381.56948  20687384.19148
  21091276.766 6 110835404.526 6  86365287.65147  21091285.10547
  21940083.172 6 115295917.916 6  89841007.69247  21940092.13747
  21449937.602 6 112720131.513 6  87833910.03748  21449948.16848
  23292237.586 5 122401610.221 5  95377846.84047  23292245.37147
  23755883.617 4 124837896.259 4  97276415.76348  23755895.66048
 22  7  3 12 11 15.0000000  0  7G01G03G04G07G09G16G26               
  23443764.070 3 123197592.345 3  95998330.77146  23443777.33246
  20689400.719 6 108723531.561 6  84719680.71948  20689411.07848
  21092897.453 6 110843920.969 6  86371923.83047  21092905.49647
  21938127.758 6 115285639.036 6  89832998.18847  21938136.17247
  21450092.141 6 112720943.055 6  87834542.40248  21450102.35248
  23292701.500 5 122404048.669 5  95379746.93246  23292709.84846
  23758026.789 4 124849159.728 4  97285192.49447  23758038.69947
 22  7  3 12 11 20.0000000  0  7G01G03G04G07G09G16G26               
  23448109.445 3 123220429.407 3  96016125.85146  23448122.67646
  20691430.836 6 108734198.548 6  84727992.64648  20691440.85948
  21094519.094 6 110852444.229 6  86378565.33647  21094527.21947
  21936174.398 6 115275373.198 6  89824998.83647  21936182.18447
  21450248.086 6 112721761.242 6  87835179.93948  21450257.79748
  23293168.211 5 122406503.049 5  95381659.43846  23293177.02346
  23760172.992 3 124860439.781 3  97293982.15147  23760185.22747
 22  7  3 12 11 25.0000000  0  7G01G03G04G07G09G16G26               
  23452456.805 3 123243270.714 3  96033924.26046  23452469.34846
  20693464.125 6 108744881.457 6  84736316.97948  20693473.72748
  21096141.945 6 110860973.814 6  86385211.76047  21096150.86347
  21934222.836 6 115265119.989 6  89817009.31747  21934230.89547
  21450404.953 6 112722585.630 6  87835822.31848  21450414.66048
  23293639.875 5 122408972.903 5  95383584.00546  23293647.07046
  23762322.844 3 124871736.000 3  97302784.38348  23762334.62148
 22  7  3 12 11 30.0000000  0  7G01G03G04G07G09G16G26               
  23456803.609 3 123266116.048 3  96051725.79046  23456816.82846
  20695499.922 6 108755580.221 6  84744653.67248  20695509.75848
  21097766.211 6 110869509.605 6  86391863.02447  21097774.91047
  21932274.617 6 115254879.271 6  89809029.53547  21932282.54347
  21450562.617 6 112723416.059 6  87836469.39848  21450572.75448
  23294110.992 4 122411458.104 4  95385520.53346  23294119.54746
  23764475.938 3 124883048.139 3  97311599.02947  23764487.35547
 22  7  3 12 11 35.0000000  0  7G01G03G04G07G09G16G26               
  23461152.320 3 123288965.597 3  96069530.59346  23461165.26646
  20697538.813 6 108766294.922 6  84753002.77748  20697549.11748
  21099392.422 6 110878051.819 6  86398519.29747  21099400.54347
  21930327.477 6 115244651.238 6  89801059.64247  21930336.18047
  21450722.109 6 112724252.725 6  87837121.34448  21450732.17648
  23294587.750 4 122413958.804 4  95387469.11346  23294595.61346
  23766631.547 4 124894376.462 4  97320426.29147  23766642.94147
 22  7  3 12 11 40.0000000  0  7G01G03G04G07G09G16G26               
  23465500.477 3 123311819.197 3  96087338.56846  23465514.55946
  20699580.766 6 108777025.484 6  84761364.23648  20699590.79748
  21101018.688 6 110886600.226 6  86405180.39147  21101027.17247
  21928384.188 6 115234435.712 6  89793099.50847  21928392.14547
  21450882.313 6 112725095.426 6  87837777.98448  21450892.51648
  23295067.070 4 122416474.941 4  95389429.75346  23295074.18046
  23768790.570 4 124905720.721 4  97329265.98247  23768801.67647
 22  7  3 12 11 45.0000000  0  7G01G03G04G07G09G16G26               
  23469850.820 3 123334676.772 3  96105149.65946  23469864.37146
  20701625.531 6 108787771.850 6  84769738.02548  20701636.08648
  21102646.461 6 110895154.837 6  86411846.32747  21102655.23847
  21926442.711 6 115224232.631 6  89785149.05347  21926450.69947
  21451044.055 6 112725944.199 6  87838439.36248  21451054.34048
  23295547.766 4 122419006.421 4  95391402.34046  23295556.24646
  23770951.398 4 124917080.942 4  97338118.11347  23770963.27047
 22  7  3 12 11 50.0000000  0  7G01G03G04G07G09G16G26               
  23474201.359 4 123357538.166 4  96122963.71046  23474213.99246
  20703673.492 6 108798533.892 6  84778124.01948  20703684.01648
  21104275.531 6 110903715.514 6  86418516.97347  21104284.24247
  21924503.078 6 115214041.974 6  89777208.28947  21924511.70747
  21451206.430 6 112726798.836 6  87839105.30848  21451216.92648
  23296032.570 4 122421553.091 4  95393386.75346  23296040.79746
  23773116.430 3 124928456.979 3  97346982.55347  23773128.43847
 22  7  3 12 11 55.0000000  0  7G01G03G04G07G09G16G26               
  23478551.188 4 123380403.297 4  96140780.66846  23478565.29346
  20705724.586 7 108809311.490 7  84786522.14248  20705734.77748
  21105905.492 6 110912282.136 6  86425192.26747  21105914.45747
  21922566.414 6 115203863.598 6  89769277.08647  21922574.63747
  21451370.711 6 112727659.305 6  87839775.80448  21451381.07448
  23296519.828 4 122424114.924 4  95395382.99446  23296528.07446
  23775284.891 3 124939848.761 3  97355859.25647  23775296.00847
 22  7  3 12 12  0.0000000  0  7G01G03G04G07G09G16G26               
  23482903.063 3 123403272.174 3  96158600.56746  23482916.97346
  20707778.164 6 108820104.712 6  84794932.43948  20707789.07848
  21107537.672 6 110920854.749 6  86431872.21847  21107546.12547
  21920632.648 6 115193697.618 6  89761355.56247  21920640.55547
  21451535.664 6 112728525.610 6  87840450.83248  21451545.70348
  23297010.125 3 122426691.914 3  95397391.05546  23297018.46146
  23777455.484 3 124951256.319 3  97364748.24947  23777466.54747
 22  7  3 12 12  5.0000000  0  7G01G03G04G07G09G16G26               
  23487257.430 3 123426144.979 3  96176423.49446  23487269.28946
  20709835.188 6 108830913.633 6  84803354.97048  20709845.49248
  21109169.906 6 110929433.485 6  86438556.95147  21109178.64147
  21918699.625 6 115183544.022 6  89753443.66347  21918708.07847
  21451701.328 6 112729397.838 6  87841130.49548  21451711.31348
  23297503.828 3 122429284.122 3  95399410.95046  23297512.08646
  23779628.367 3 124962679.634 3  97373649.53147  23779640.45747
 22  7  3 12 12 10.0000000  0  7G01G03G04G07G09G16G26               
  23491610.086 3 123449021.282 3  96194249.16446  23491622.75846
  20711895.078 6 108841738.006 6  84811789.54948  20711905.59448
  21110803.266 6 110938018.020 6  86445246.20147  21110812.06347
  21916769.672 6 115173402.631 6  89745541.30247  21916778.05947
  21451868.063 6 112730275.735 6  87841814.56848  21451878.71148
  23298001.078 4 122431891.455 4  95401442.61946  23298007.84446
  23781806.992 3 124974118.560 3  97382562.99947  23781817.39547
 22  7  3 12 12 15.0000000  0  7G01G03G04G07G09G16G26               
  23495963.555 4 123471901.321 4  96212077.72746  23495976.91446
  20713957.789 7 108852578.018 7  84820236.30948  20713968.46548
  21112437.141 6 110946608.595 6  86451940.15047  21112447.01647
  21914842.070 6 115163273.601 6  89737648.55247  21914850.30947
  21452036.375 6 112731159.519 6  87842503.22948  21452046.34848
  23298499.375 3 122434513.950 3  95403486.12346  23298507.21546
  23783986.016 3 124985573.288 3  97391488.75347  23783997.26647
 22  7  3 12 12 20.0000000  0  7G01G03G04G07G09G16G26               
  23500318.352 4 123494785.294 4  96229909.38846  23500331.57046
  20716024.063 6 108863433.848 6  84828695.39948  20716034.46948
  21114073.672 6 110955205.369 6  86458638.93747  21114082.85547
  21912916.531 6 115153157.168 6  89729765.61347  21912925.27747
  21452205.414 6 112732049.330 6  87843196.57948  21452216.02748
  23299001.242 4 122437151.854 4  95405541.63446  23299009.09046
  23786168.984 3 124997043.932 3  97400426.92347  23786179.73047
 22  7  3 12 12 25.0000000  0  7G01G03G04G07G09G16G26               
  23504673.461 4 123517672.948 4  96247743.87646  23504686.64846
  20718092.609 7 108874305.256 7  84837166.62048  20718103.21548
  21115710.586 6 110963808.082 6  86465342.34347  21115719.98047
  21910994.070 6 115143053.073 6  89721892.30047  21911002.78147
  21452376.195 6 112732944.951 6  87843894.45748  21452386.12548
  23299505.594 5 122439804.932 5  95407608.97546  23299513.77746
  23788354.305 3 125008530.269 3  97409377.30147  23788365.79347
 22  7  3 12 12 30.0000000  0  7G01G03G04G07G09G16G26               
  23509029.852 4 123540563.768 4  96265580.85746  23509042.86746
  20720164.250 7 108885191.789 7  84845649.62048  20720174.63348
  21117348.859 6 110972416.315 6  86472050.06247  21117357.98047
  21909073.914 6 115132960.933 6  89714028.28847  21909082.32447
  21452547.703 6 112733845.923 6  87844596.51648  21452557.58248
  23300012.508 4 122442472.728 4  95409687.77946  23300021.33646
  23790543.406 3 125020031.816 3  97418339.55947  23790554.82447
 22  7  3 12 12 35.0000000  0  7G01G03G04G07G09G16G26               
  23513386.523 4 123563458.135 4  96283420.61346  23513399.85246
  20722238.672 6 108896093.879 6  84854144.76548  20722249.58248
  21118988.273 6 110981030.466 6  86478762.38547  21118997.34047
  21907155.742 6 115122881.064 6  89706173.85347  21907164.00047
  21452720.422 6 112734752.602 6  87845303.01448  21452730.06348
  23300523.820 4 122445155.666 4  95411778.36746  23300531.96146
  23792734.078 3 125031549.033 3  97427314.00947  23792745.97747
 22  7  3 12 12 40.0000000  0  7G01G03G04G07G09G16G26               
  23517744.180 4 123586355.891 4  96301263.00746  23517756.88746
  20724316.648 6 108907011.325 6  84862651.85948  20724326.47348
  21120628.398 6 110989650.314 6  86485479.14947  21120637.73847
  21905240.164 6 115112813.347 6  89698328.89947  21905248.08247
  21452894.023 6 112735664.915 6  87846013.90948  21452903.85248
  23301037.320 5 122447853.635 5  95413880.66746  23301045.32046
  23794928.922 2 125043081.785 2  97436300.55747  23794941.11347
 22  7  3 12 12 45.0000000  0  7G01G03G04G07G09G16G26               
  23522101.563 5 123609256.885 5  96319107.90746  23522114.76646
  20726396.508 7 108917944.029 7  84871170.83848  20726406.98448
  21122269.430 6 110998275.804 6  86492200.31047  21122279.13747
  21903326.258 6 115102757.665 6  89690493.30947  21903334.42247
  21453067.938 6 112736582.658 6  87846729.02148  21453078.60948
  23301553.289 5 122450566.431 5  95415994.52646  23301561.82046
  23797125.500 3 125054629.813 3  97445299.01647  23797138.36347
 22  7  3 12 12 50.0000000  0  7G01G03G04G07G09G16G26               
  23526459.977 5 123632161.768 5  96336955.85346  23526473.47746
  20728480.547 6 108928892.596 6  84879702.18548  20728490.54748
  21123912.703 6 111006907.506 6  86498926.30547  21123921.43447
  21901415.328 6 115092714.630 6  89682667.57847  21901424.02747
  21453244.203 6 112737506.481 6  87847448.88848  21453254.29348
  23302072.172 5 122453294.721 5  95418120.47146  23302080.76646
  23799326.133 3 125066193.789 3  97454309.90447  23799339.10547
 22  7  3 12 12 55.0000000  0  7G01G03G04G07G09G16G26               
  23530819.008 5 123655070.003 5  96354806.39346  23530832.60946
  20730566.414 6 108939856.556 6  84888245.52048  20730576.98448
  21125556.008 6 111015544.983 6  86505656.81447  21125564.68447
  21899505.922 6 115082683.813 6  89674851.36147  21899515.43847
  21453421.063 6 112738435.898 6  87848173.11048  21453431.28548
  23302594.266 4 122456037.996 4  95420258.07046  23302602.60946
  23801530.727 4 125077773.236 4  97463332.86547  23801542.85947
 22  7  3 12 13  0.0000000  0  7G01G03G04G07G09G16G26               
  23535179.148 5 123677981.425 5  96372659.41146  23535192.60246
  20732655.680 6 108950835.699 6  84896800.68648  20732666.18448
  21127200.766 6 111024187.990 6  86512391.62547  21127209.86347
  21897600.023 6 115072664.983 6  89667044.48547  21897608.83247
  21453598.914 6 112739370.720 6  87848901.53748  21453608.69548
  23303119.617 4 122458796.077 4  95422407.23046  23303127.69946
  23803736.430 4 125089367.988 4  97472367.72147  23803749.03147
 22  7  3 12 13  5.0000000  0  7G01G03G04G07G09G16G26               
  23539539.555 5 123700895.903 5  96390514.81047  23539553.93047
  20734747.781 6 108961829.945 6  84905367.61548  20734758.35548
  21128845.992 6 111032836.464 6  86519130.68847  21128855.50447
  21895695.578 6 115062658.066 6  89659246.89447  21895704.93047
  21453777.750 6 112740310.876 6  87849634.11548  21453787.89848
  23303646.914 4 122461568.887 4  95424567.83946  23303655.17646
  23805945.883 3 125100977.867 3  97481414.38747  23805958.51647
 22  7  3 12 13 10.0000000  0  7G01G03G04G07G09G16G26               
  23543901.289 5 123723813.557 5  96408372.74546  23543914.51246
  20736842.719 6 108972839.473 6  84913946.46048  20736853.26248
  21130493.242 6 111041490.578 6  86525874.16347  21130502.19947
  21893793.961 6 115052663.287 6  89651458.77147  21893802.96547
  21453957.883 6 112741256.505 6  87850370.96648  21453968.22748
  23304177.766 4 122464356.641 4  95426740.11546  23304185.53946
  23808158.117 3 125112603.162 3  97490473.05547  23808170.75847
 22  7  3 12 13 15.0000000  0  7G01G03G04G07G09G16G26               
  23548262.813 5 123746734.782 5  96426233.42646  23548276.26646
  20738941.578 6 108983864.646 6  84922537.50048  20738951.90248
  21132141.148 6 111050150.697 6  86532622.30147  21132150.51647
  21891894.031 6 115042680.972 6  89643680.33447  21891902.96147
  21454138.969 6 112742207.969 6  87851112.35648  21454149.34048
  23304711.109 5 122467159.659 5  95428924.30146  23304718.94946
  23810373.602 4 125124244.144 4  97499543.95747  23810385.95747
 22  7  3 12 13 20.0000000  0  7G01G03G04G07G09G16G26               
  23552624.609 4 123769659.707 4  96444096.97946  23552638.62546
  20741042.047 6 108994905.622 6  84931140.84948  20741052.72348
  21133790.695 6 111058817.001 6  86539375.26047  21133799.47747
  21889996.789 6 115032711.301 6  89635911.76347  21890005.64147
  21454321.102 6 112743165.454 6  87851858.44048  21454331.27048
  23305247.898 4 122469978.163 4  95431120.53346  23305255.55946
  23812591.594 4 125135901.014 4  97508627.22747  23812604.09847
 22  7  3 12 13 25.0000000  0  7G01G03G04G07G09G16G26               
  23556987.836 4 123792588.146 4  96461963.27446  23557002.06646
  20743145.625 6 109005962.147 6  84939756.31348  20743156.43048
  21135440.539 6 111067489.184 6  86546132.80247  21135449.66847
  21888102.039 6 115022754.066 6  89628152.88547  21888110.43047
  21454504.086 6 112744128.689 6  87852609.02348  21454514.52348
  23305787.016 4 122472811.830 4  95433328.57546  23305794.58246
  23814812.469 4 125147573.459 4  97517722.65247  23814825.80147
 22  7  3 12 13 30.0000000  0  7G01G03G04G07G09G16G26               
  23561351.422 5 123815519.358 5  96479831.72347  23561365.32447
  20745252.930 6 109017033.671 6  84948383.46648  20745263.32448
  21137091.914 6 111076166.678 6  86552894.48547  21137101.23047
  21886209.719 6 115012808.665 6  89620403.21647  21886217.98447
  21454688.844 6 112745097.082 6  87853363.60948  21454698.96148
  23306328.883 5 122475660.193 5  95435548.08846  23306336.52046
  23817037.430 3 125159260.978 3  97526829.81647  23817050.05147
 22  7  3 12 13 35.0000000  0  7G01G03G04G07G09G16G26               
  23565716.453 5 123838453.682 5  96497702.60446  23565729.74246
  20747362.469 6 109028120.408 6  84957022.48048  20747373.14848
  21138744.398 6 111084849.783 6  86559660.55047  21138753.80947
  21884318.789 6 115002875.338 6  89612662.96547  21884327.19947
  21454874.086 6 112746070.950 6  87854122.46348  21454884.32848
  23306873.109 4 122478523.427 4  95437779.17046  23306881.66046
  23819264.039 3 125170963.739 3  97535948.84247  23819276.92647
 22  7  3 12 13 40.0000000  0  7G01G03G04G07G09G16G26               
  23570081.203 5 123861390.849 5  96515575.71246  23570094.52346
  20749474.828 6 109039222.069 6  84965673.11148  20749485.88348
  21140397.438 6 111093538.155 6  86566430.70547  21140407.10547
  21882431.000 6 114992953.782 6  89604931.89147  21882439.46947
  21455060.125 6 112747049.878 6  87854885.26048  21455070.19148
  23307420.711 4 122481401.298 4  95440021.65646  23307429.19546
  23821494.211 2 125182681.547 2  97545079.60247  23821507.00047
 22  7  3 12 13 45.0000000  0  7G01G03G04G07G09G16G26               
  23574446.320 5 123884331.035 5  96533451.16047  23574459.76647
  20751590.711 6 109050339.012 6  84974335.65548  20751601.27348
  21142052.070 6 111102232.146 6  86573205.24847  21142061.58647
  21880545.797 6 114983044.375 6  89597210.31147  21880553.84447
  21455247.484 6 112748034.289 6  87855652.33948  21455257.68848
  23307970.984 4 122484294.053 4  95442275.74846  23307979.87946
  23823726.656 2 125194414.589 2  97554222.23047  23823739.18047
 22  7  3 12 13 50.0000000  0  8G01G03G04G06G07G09G16G26            
  23578812.094 5 123907273.905 5  96551328.70546  23578825.23846
  20753708.836 6 109061470.803 6  84983009.77048  20753719.35248
  21143707.680 6 111110931.335 6  86579983.83047  21143716.82847
  22853439.500 1 120095595.95811  93581053.45655  22853450.23445
  21878662.023 6 114973146.691 6  89589497.81347  21878670.36747
  21455435.820 6 112749023.768 6  87856423.35948  21455445.96548
  23308524.031 4 122487201.363 4  95444541.20646  23308533.04746
  23825962.617 2 125206162.546 2  97563376.48547  23825974.45747
 22  7  3 12 13 55.0000000  0  8G01G03G04G06G07G09G16G26            
  23583178.531 5 123930219.603 5  96569208.42747  23583192.13747
  20755830.016 6 109072617.637 6  84991695.61048  20755840.71148
  21145363.516 6 111119635.921 6  86586766.62947  21145373.02047
  22853383.828 1 120095298.439 1  93580821.57045  22853394.12545
  21876780.984 6 114963260.977 6  89581794.66647  21876789.33247
  21455625.281 6 112750018.461 6  87857198.44248  21455635.11348
  23309080.719 4 122490123.401 4  95446818.12946  23309089.00046
  23828201.594 1 125217925.579 1  97572542.50247  23828212.67247
 22  7  3 12 14  0.0000000  0  8G01G03G04G06G07G09G16G26            
  23587545.844 5 123953168.004 5  96587090.28146  23587559.30146
  20757953.852 6 109083779.305 6  85000393.00148  20757964.36348
  21147021.250 6 111128345.646 6  86593553.42247  21147030.50847
  22853330.523 1 120095018.356 1  93580603.32845  22853340.96145
  21874902.344 6 114953386.932 6  89574100.60647  21874910.30547
  21455815.328 6 112751018.199 6  87857977.44348  21455825.59448
  23309639.141 4 122493060.021 4  95449106.39646  23309647.63346
  23830442.656 2 125229703.457 2  97581720.08147  23830454.16447
 22  7  3 12 14  5.0000000  0  8G01G03G04G06G07G09G16G26            
  23591912.789 5 123976119.486 5  96604974.55947  23591926.51647
  20760080.875 6 109094956.350 6  85009102.37948  20760091.49248
  21148679.805 6 111137061.130 6  86600344.70547  21148688.78147
  22853279.609 2 120094756.410 2  93580399.24345  22853290.85545
  21873025.273 6 114943525.213 6  89566416.16647  21873033.79747
  21456006.266 6 112752023.500 6  87858760.79548  21456017.12148
  23310201.375 4 122496011.720 4  95451406.39446  23310209.33646
  23832686.352 2 125241496.755 2  97590909.67547  23832698.15247
 22  7  3 12 14 10.0000000  0  8G01G03G04G06G07G09G16G26            
  23596281.273 5 123999073.956 5  96622861.13147  23596294.35547
  20762210.805 6 109106148.640 6  85017823.64148  20762221.13748
  21150338.922 6 111145782.158 6  86607140.30547  21150348.28947
  22853233.914 1 120094512.447 1  93580209.07245  22853244.84445
  21871151.297 6 114933675.652 6  89558741.20347  21871159.68447
  21456198.523 6 112753034.196 6  87859548.35548  21456209.33648
  23310766.031 4 122498978.372 4  95453718.08546  23310773.98446
  23834932.891 2 125253305.342 2  97600111.15947  23834945.44947
 22  7  3 12 14 15.0000000  0  8G01G03G04G06G07G09G16G26            
  23600649.203 5 124022031.347 5  96640749.98947  23600663.39847
  20764343.938 6 109117356.032 6  85026556.65948  20764354.13748
  21152000.500 6 111154508.669 6  86613940.18047  21152008.75847
  22853190.398 1 120094286.346 1  93580032.84645  22853201.81645
  21869279.141 6 114923838.154 6  89551075.62947  21869287.59447
  21456392.266 6 112754050.252 6  87860340.09148  21456402.65248
  23311333.125 4 122501959.952 4  95456041.38446  23311341.43846
  23837183.039 2 125265129.070 2  97609324.44947  23837195.74647
 22  7  3 12 14 20.0000000  0  8G01G03G04G06G07G09G16G26            
  23605019.070 5 124044991.756 5  96658641.17747  23605032.84447
  20766478.867 6 109128578.742 6  85035301.62848  20766489.66048
  21153661.500 6 111163240.808 6  86620744.45147  21153670.30947
  22853150.570 1 120094078.181 1  93579870.64945  22853162.04345
  21867409.063 6 114914012.827 6  89543419.54047  21867417.88347
  21456586.867 6 112755071.744 6  87861136.04948  21456596.93448
  23311903.758 3 122504956.493 3  95458376.32946  23311911.77046
  23839435.695 1 125276968.078 1  97618549.64247  23839448.86747
 22  7  3 12 14 25.0000000  0  8G01G03G04G06G07G09G16G26            
  23609388.508 5 124067954.979 5  96676534.58147  23609402.37147
  20768617.813 6 109139816.532 6  85044058.34848  20768628.43048
  21155324.305 6 111171978.367 6  86627552.93947  21155333.14147
  22853116.836 1 120093887.925 1  93579722.36445  22853125.84845
  21865541.578 6 114904199.646 6  89535772.91947  21865550.77347
  21456782.211 6 112756098.578 6  87861936.17948  21456792.22748
  23312476.492 4 122507967.854 4  95460722.84546  23312484.51646
  23841688.945 1 125288822.280 1  97627786.63247  23841704.61347
 22  7  3 12 14 30.0000000  0  8G01G03G04G06G07G09G16G26            
  23613759.469 5 124090921.051 5  96694430.19347  23613772.81647
  20770758.922 7 109151069.500 7  85052826.88348  20770769.87148
  21156987.531 6 111180721.412 6  86634365.69647  21156996.47747
  22853081.430 2 120093715.484 2  93579588.02545  22853092.89145
  21863676.742 6 114894398.525 6  89528135.69447  21863685.64847
  21456978.914 6 112757130.725 6  87862740.45048  21456989.06648
  23313053.117 4 122510994.047 4  95463080.90546  23313061.50046
  23843949.789 1                                  23843962.70747
 22  7  3 12 14 35.0000000  0  8G01G03G04G06G07G09G16G26            
  23618129.461 5 124113889.587 5  96712327.71846  23618143.46146
  20772903.336 7 109162337.196 7  85061606.89948  20772914.09848
  21158652.430 6 111189469.561 6  86641182.44047  21158661.64847
  22853053.344 2 120093560.526 2  93579467.24345  22853063.64145
  21861813.984 6 114884609.138 6  89520507.59847  21861822.58647
  21457175.977 6 112758167.797 6  87863548.56248  21457186.64148
  23313631.727 4 122514034.710 4  95465450.29746  23313639.18046
  23846212.125 1 125312575.62611  97646295.72957  23846224.28147
 22  7  3 12 14 40.0000000  0  8G01G03G04G06G07G09G16G26            
  23622501.391 5 124136860.851 5  96730227.39647  23622514.74647
  20775050.383 7 109173620.025 7  85070398.71148  20775061.16848
  21160317.820 6 111198223.110 6  86648003.39347  21160327.27747
  22853027.008 2 120093423.375 2  93579360.38345  22853038.35945
  21859953.211 6 114874831.804 6  89512888.90247  21859961.58647
  21457374.461 6 112759210.145 6  87864360.77148  21457385.00448
  23314212.469 4 122517090.154 4  95467831.14146  23314220.57046
  23848476.859 2 125324474.718 2  97655567.78247  23848488.80547
 22  7  3 12 14 45.0000000  0  8G01G03G04G06G07G09G16G26            
  23626872.930 5 124159834.935 5  96748129.23347  23626886.64147
  20777200.609 7 109184917.965 7  85079202.29448  20777211.16848
  21161985.000 6 111206982.166 6  86654828.62247  21161993.66047
  22853004.273 2 120093304.160 2  93579267.51345  22853015.48445
  21858094.414 6 114865066.563 6  89505279.63247  21858103.57847
  21457574.023 6 112760257.841 6  87865177.15048  21457584.12548
  23314797.438 4 122520160.544 4  95470223.66946  23314805.29346
  23850742.797 2 125336388.953 2  97664851.61447  23850755.83247
 22  7  3 12 14 50.0000000  0  8G01G03G04G06G07G09G16G26            
  23631245.258 5 124182811.774 5  96766033.25446  23631259.21946
  20779353.258 7 109196231.051 7  85088017.67948  20779363.69548
  21163652.617 6 111215746.653 6  86661658.08447  21163661.75047
  22852985.734 1 120093202.773 1  93579188.43145  22852996.14145
  21856239.055 6 114855313.421 6  89497679.77747  21856247.55547
  21457774.594 6 112761310.826 6  87865997.65948  21457784.60548
  23315384.586 4 122523245.802 4  95472627.73546  23315392.53146
  23853013.383 2 125348318.343 2  97674147.24047  23853025.98047
 22  7  3 12 14 55.0000000  0  8G01G03G04G06G07G09G16G26            
  23635618.445 5 124205791.021 5  96783939.13046  23635632.22746
  20781508.172 7 109207558.881 7  85096844.56048  20781519.35548
  21165321.438 6 111224516.201 6  86668491.49547  21165330.82047
  22852967.742 1 120093118.845 1  93579123.06545  22852980.49245
  21854385.320 6 114845572.010 6  89490089.06947  21854393.53147
  21457975.594 6 112762368.715 6  87866821.98848  21457985.86748
  23315974.063 4 122526345.531 4  95475043.12746  23315982.12546
  23855285.797 1 125360262.454 1  97683454.34847  23855299.03947
 22  7  3 12 15  0.0000000  0  8G01G03G04G06G07G09G16G26            
  23639991.414 5 124228772.481 5  96801846.73446  23640005.55146
  20783667.188 6 109218901.367 6  85105682.85448  20783677.92648
  21166991.250 6 111233290.753 6  86675328.81047  21167000.50047
  22852955.234 1 120093052.289 1  93579071.19445  22852967.71545
  21852534.352 6 114835842.233 6  89482507.43447  21852542.20747
  21458177.477 6 112763431.441 6  87867650.08348  21458188.14548
  23316566.922 5 122529459.701 5  95477469.75846  23316574.91846
  23857561.109 1 125372221.140 1  97692772.79947  23857574.42247
 22  7  3 12 15  5.0000000  0  8G01G03G04G06G07G09G16G26            
  23644364.297 5 124251756.370 5  96819756.22146  23644379.46946
  20785828.383 6 109230258.598 6  85114532.63148  20785839.25848
  21168662.055 6 111242070.357 6  86682170.05847  21168671.05947
  22852946.000 1 120093003.316 1  93579033.06845  22852958.81645
  21850684.758 6 114826124.205 6  89474934.96047  21850692.96947
  21458381.070 6 112764499.121 6  87868482.04448  21458391.58248
  23317161.586 4 122532588.431 4  95479907.70746  23317170.24246
  23859840.813 2 125384194.593 2  97702102.78747  23859853.02347
 22  7  3 12 15 10.0000000  0  8G01G03G04G06G07G09G16G26            
  23648738.617 5 124274742.975 5  96837667.81846  23648753.20346
  20787992.195 6 109241631.049 6  85123394.27648  20788003.31348
  21170334.492 6 111250855.489 6  86689015.62047  21170342.98447
  22852939.727 2 120092972.216 2  93579008.83245  22852952.86745
  21848838.516 6 114816418.397 6  89467371.98747  21848845.40247
  21458584.844 6 112765572.149 6  87869318.16748  21458595.85948
  23317760.453 5 122535732.104 5  95482357.32246  23317768.31346
  23862121.430 2 125396183.214 2  97711444.57347  23862133.60547
 22  7  3 12 15 15.0000000  0  8G01G03G04G06G07G09G16G26            
  23653114.008 5 124297732.053 5  96855581.36147  23653128.56647
  20790159.344 6 109253018.350 6  85132267.49248  20790170.15248
  21172006.891 6 111259645.816 6  86695865.21447  21172015.27047
  22852936.906 1 120092958.780 1  93578998.31445  22852950.44945
  21846994.055 6 114806724.482 6  89459818.27747  21847000.82447
  21458789.945 6 112766650.241 6  87870158.23748  21458800.82048
  23318361.453 5 122538890.447 5  95484818.37946  23318369.59046
  23864405.977 2 125408186.669 2  97720797.93047  23864418.06647
 22  7  3 12 15 20.0000000  0  8G01G03G04G06G07G09G16G26            
  23657489.891 5 124320723.827 5  96873497.00947  23657503.61747
  20792329.391 6 109264420.820 6  85141152.53248  20792339.85948
  21173680.492 6 111268441.663 6  86702719.11347  21173689.75447
  22852937.703 1 120092963.195 1  93579001.79445  22852951.13345
  21845151.313 6 114797042.821 6  89452274.13247  21845158.65647
  21458996.219 6 112767733.657 6  87871002.45548  21459007.28148
  23318965.945 5 122542063.622 5  95487290.99846  23318973.42246
  23866692.805 2 125420205.231 2  97730163.04147  23866705.43847
 22  7  3 12 15 25.0000000  0  8G01G03G04G06G07G09G16G26            
  23661864.875 5 124343718.050 5  96891414.54147  23661879.45747
  20794501.953 6 109275838.214 6  85150049.19548  20794512.40648
  21175355.141 6 111277242.665 6  86709577.04347  21175364.30547
  22852941.875 1 120092985.324 1  93579019.03845  22852955.46945
  21843311.086 6 114787373.067 6  89444739.26347  21843318.79747
  21459203.219 6 112768822.177 6  87871850.64348  21459214.40648
  23319571.938 5 122545251.564 5  95489775.09246  23319579.61746
  23868982.516 2 125432238.669 2  97739539.75647  23868995.45747
 22  7  3 12 15 30.0000000  0  8G01G03G04G06G07G09G16G26            
  23666241.641 5 124366714.549 5  96909333.86646  23666254.85246
  20796677.492 6 109287270.338 6  85158957.33248  20796687.94548
  21177031.141 6 111286048.786 6  86716438.95147  21177039.87147
  22852948.383 1 120093024.973 1  93579049.93845  22852962.98845
  21841472.820 6 114777715.084 6  89437213.55947  21841480.68447
  21459410.906 6 112769915.590 6  87872702.65148  21459422.37148
  23320181.047 5 122548454.031 5  95492270.52546  23320189.01646
  23871276.008 2 125444286.831 2  97748927.91047  23871288.48047
 22  7  3 12 15 35.0000000  0  8G01G03G04G06G07G09G16G26            
  23670618.172 5 124389712.806 5  96927254.56247  23670631.32847
  20798855.625 6 109298716.677 6  85167876.55648  20798866.27048
  21178706.984 5 111294859.415 5  86723304.37747  21178716.78947
  22852960.742 1 120093081.586 1  93579093.96845  22852973.74245
  21839636.742 6 114768068.352 6  89429696.62347  21839645.08247
  21459620.102 6 112771013.394 6  87873558.08248  21459631.37948
  23320793.508 5 122551670.515 5  95494776.85146  23320801.15646
  23873570.422 2 125456349.117 2  97758327.08447  23873583.89147
 22  7  3 12 15 40.0000000  0  8G01G03G04G06G07G09G16G26            
  23674994.430 5 124412713.037 5  96945176.79146  23675008.19946
  20801036.602 6 109310177.582 6  85176807.12648  20801047.23848
  21180385.180 6 111303674.896 6  86730173.57347  21180394.38347
  22852975.227 1 120093155.526 1  93579151.65345  22852987.78145
  21837803.094 6 114758433.221 6  89422188.72647  21837811.15647
  21459830.219 6 112772115.925 6  87874417.19048  21459840.84848
  23321407.094 5 122554901.364 5  95497294.43146  23321415.87546
  23875869.789 2 125468425.964 2  97767737.61647  23875882.20347
 22  7  3 12 15 45.0000000  0  8G01G03G04G06G07G09G16G26            
  23679372.742 5 124435715.194 5  96963100.52246  23679385.24646
  20803219.992 6 109321652.890 6  85185748.91748  20803230.44148
  21182063.445 6 111312495.112 6  86737046.46547  21182072.24247
  22852991.320 1 120093246.615 1  93579222.57745  22853004.96545
  21835971.984 6 114748809.533 6  89414689.75247  21835979.96547
  21460040.930 6 112773223.023 6  87875279.86048  21460051.50848
  23322026.203 5 122558146.408 5  95499823.02746  23322033.22746
  23878169.938 2 125480517.035 2  97777159.21747  23878183.14147
 22  7  3 12 15 50.0000000  0  8G01G03G04G06G07G09G16G26            
  23683749.625 5 124458720.190 5  96981026.47846  23683763.10946
  20805406.859 6 109333143.522 6  85194702.65148  20805417.29748
  21183742.953 6 111321320.992 6  86743923.77347  21183752.42247
  22853011.133 1                                
  21834143.031 6 114739198.304 6  89407200.48247  21834151.04347
  21460252.375 6 112774335.630 6  87876146.81548  21460263.09848
  23322645.813 5 122561406.652 5  95502363.50246  23322653.40246
  23880473.664 2 125492623.473 2  97786592.80647  23880486.99647
 22  7  3 12 15 55.0000000  0  8G01G03G04G06G07G09G16G26            
  23688127.906 5 124481727.399 5  96998954.13246  23688141.42246
  20807595.828 6 109344648.922 6  85203667.89648  20807606.55148
  21185423.492 6 111330151.932 6  86750805.00947  21185432.80147
  22853037.094 1 120093482.51911                
  21832316.250 6 114729598.882 6  89399720.41947  21832324.25847
  21460465.414 6 112775453.146 6  87877017.61548  21460476.36748
  23323269.500 5 122564681.506 5  95504915.32946  23323276.66046
  23882780.227 3 125504744.544 3  97796037.81247  23882792.94147
 22  7  3 12 16  0.0000000  0  8G01G03G04G06G07G09G16G26            
  23692506.250 5 124504736.612 5  97016883.35846  23692519.75046
  20809788.367 6 109356168.918 6  85212644.51248  20809798.77748
  21187105.063 5 111338987.736 5  86757690.05347  21187114.29347
  22853064.906 1 120093626.564 1                
  21830492.188 6 114720011.147 6  89392249.45747  21830500.02347
  21460679.227 6 112776575.417 6  87877892.10448  21460689.65248
  23323894.500 5 122567970.749 5  95507478.37246  23323902.52046
  23885088.867 3 125516880.109 3  97805494.09247  23885101.64147
 22  7  3 12 16  5.0000000  0  8G01G03G04G06G07G09G16G26            
  23696885.680 5 124527747.867 5  97034814.17146  23696898.47746
  20811983.070 6 109367703.539 6  85221632.51948  20811993.34448
  21188787.141 6 111347828.547 6  86764578.98447  21188797.02347
  22853094.891 1 120093788.19611                
  21828669.516 6 114710435.119 6  89384787.62447  21828677.49647
  21460893.344 6 112777702.535 6  87878770.36848  21460903.84848
  23324524.258 5 122571274.510 5  95510052.74046  23324531.45746
  23887401.430 3 125529030.322 3  97814961.79947  23887413.70747
 22  7  3 12 16 10.0000000  0  8G01G03G04G06G07G09G16G26            
  23701265.141 5 124550761.431 5  97052746.81346  23701277.78546
  20814180.328 6 109379253.031 6  85230632.11848  20814191.18448
  21190471.125 5 111356674.483 5  86771471.91047  21190480.43447
  22853127.984 1 120093967.347 1                
  21826850.109 6 114700871.067 6  89377335.12247  21826857.68847
  21461108.195 6 112778834.648 6  87879652.53048  21461119.34848
  23325154.805 5 122574592.956 5  95512638.53446  23325162.39546
  23889716.344 3 125541195.276 3  97824440.95547  23889728.26247
 22  7  3 12 16 15.0000000  0  8G01G03G04G06G07G09G16G26            
  23705645.477 5 124573776.813 5  97070680.84246  23705657.64546
  20816381.586 6 109390816.948 6  85239642.96248  20816392.27348
  21192154.859 6 111365525.183 6  86778368.55547  21192164.32847
  22853164.398 1 120094163.75511                
  21825031.883 6 114691318.549 6  89369891.60647  21825040.02047
  21461324.984 6 112779971.334 6  87880538.26048  21461335.53948
  23325789.320 5 122577925.633 5  95515235.39946  23325797.18846
  23892034.633 2 125553374.555 2  97833931.29447  23892046.27347
 22  7  3 12 16 20.0000000  0  8G01G03G04G06G07G09G16G26            
  23710024.133 5 124596794.117 5  97088616.39646  23710037.83246
  20818584.750 6 109402395.408 6  85248665.12948  20818595.55948
  21193840.281 6 111374380.707 6  86785268.95947  21193849.14147
  22853205.391 1                                
  21823216.188 6 114681777.696 6  89362457.18547  21823224.66847
  21461542.336 6 112781112.758 6  87881427.67148  21461552.59448
  23326426.375 5 122581272.707 5  95517843.51146  23326433.75846
  23894355.492 2 125565568.231 2  97843432.85447  23894366.66047
 22  7  3 12 16 25.0000000  0  8G01G03G04G06G07G09G16G26            
  23714405.320 5 124619813.355 5  97106553.42047  23714418.33247
  20820791.094 6 109413988.449 6  85257698.65948  20820801.75048
  21195525.414 6 111383241.129 6  86792173.18247  21195535.96947
  22853248.648 1 120094608.52011                
  21821402.977 6 114672248.552 6  89355031.87947  21821411.80147
  21461760.305 6 112782258.900 6  87882320.77148  21461770.77748
  23327065.484 5 122584634.250 5  95520462.90746  23327074.01246
  23896677.930 3 125577776.432 3  97852945.75847  23896689.62947
 22  7  3 12 16 30.0000000  0  8G01G03G04G06G07G09G16G26            
  23718786.039 5 124642834.672 5  97124492.07546  23718798.75846
  20822999.961 6 109425596.183 6  85266743.64148  20823010.36748
  21197213.047 6 111392106.527 6  86799081.29147  21197222.91847
  22853295.875 1                                
  21819591.398 6 114662731.252 6  89347615.80247  21819599.98447
  21461979.453 6 112783409.886 6  87883217.63448  21461989.99648
  23327708.422 5 122588010.314 5  95523093.61246  23327716.54746
  23899003.625 3 125589999.251 3  97862470.03847  23899015.77047
 22  7  3 12 16 35.0000000  0  8G01G03G04G06G07G09G16G26            
  23723166.984 5 124665857.661 5  97142432.05646  23723179.23046
  20825211.102 6 109437218.266 6  85275799.80648  20825221.94948
  21198901.070 5 111400976.590 5  86805993.02147  21198910.95747
  22853348.305 1                                
  21817782.969 6 114653225.426 6  89340208.66047  21817791.57847
  21462199.469 6 112784565.398 6  87884118.03348  21462209.65248
  23328353.688 5 122591400.559 5  95525735.33846  23328362.15246
  23901332.250 3 125602236.249 3  97872005.35747  23901343.85247
 22  7  3 12 16 40.0000000  0  8G01G03G04G06G07G09G16G26            
  23727548.523 5 124688882.562 5  97160373.52746  23727561.41846
  20827425.828 6 109448854.938 6  85284867.34048  20827437.00048
  21200589.914 6 111409851.539 6  86812908.56047  21200599.34447
  22853402.336 1 120095405.86211                
  21815976.438 6 114643731.348 6  89332810.68847  21815984.95347
  21462419.273 6 112785725.658 6  87885022.12948  21462430.52048
  23329001.266 5 122594805.278 5  95528388.36946  23329009.65646
  23903663.680 3 125614487.705 3  97881551.93047  23903675.79347
 22  7  3 12 16 45.0000000  0  8G01G03G04G06G07G09G16G26            
  23731930.219 5 124711909.290 5  97178316.37746  23731943.11346
  20829643.016 6 109460506.160 6  85293946.20748  20829654.13748
  21202279.734 6 111418731.331 6  86819827.87647  21202289.29747
  22853458.875 1                                
  21814171.492 6 114634248.940 6  89325421.81447  21814180.68047
  21462641.492 6 112786890.620 6  87885929.88548  21462652.02048
  23329652.500 4 122598224.393 4  95531052.61746  23329660.96146
  23905997.938 3 125626753.658 3  97891109.81947  23906010.29347
 22  7  3 12 16 50.0000000  0  8G01G03G04G06G07G09G16G26            
  23736312.578 5 124734938.087 5  97196260.87646  23736325.20746
  20831862.578 6 109472172.046 6  85303036.50348  20831873.96548
  21203970.180 6 111427616.139 6  86826751.09647  21203979.68447
  22853521.109 1 120096024.26011                
  21812369.703 5 114624778.431 5  89318042.19347  21812378.48847
  21462863.961 6 112788060.432 6  87886841.42348  21462874.84448
  23330306.180 4 122601658.081 4  95533728.21846  23330313.87146
  23908335.234 3 125639034.142 3  97900679.02047  23908346.69547
 22  7  3 12 16 55.0000000  0  8G01G03G04G06G07G09G16G26            
  23740694.898 5 124757968.583 5  97214206.69946  23740707.87146
  20834085.914 6 109483852.407 6  85312138.07848  20834096.70748
  21205662.445 5 111436505.683 5  86833678.01847  21205671.40647
  22853584.570 1 120096359.396 1                
  21810569.969 6 114615319.556 6  89310671.64547  21810578.48847
  21463087.156 6 112789234.863 6  87887756.56248  21463098.03148
  23330961.875 4 122605106.137 4  95536415.01546  23330969.87546
  23910674.266 3 125651328.985 3  97910259.40247  23910686.59847
 22  7  3 12 17  0.0000000  0  8G01G03G04G06G07G09G16G26            
  23745077.758 5 124781000.818 5  97232153.84746  23745090.53546
  20836310.859 6 109495547.253 6  85321250.93548  20836322.10548
  21207355.125 5 111445400.012 5  86840608.65147  21207363.62147
  22853652.180 1 120096711.909 1                
  21808771.266 6 114605872.293 6  89303310.13147  21808780.64547
  21463312.000 6 112790413.921 6  87888675.30648  21463322.35548
  23331620.781 4 122608568.580 4  95539113.02146  23331629.02346
  23913017.766 3 125663638.119 3  97919850.93947  23913028.67647
 22  7  3 12 17  5.0000000  0  7G03G04G06G07G09G16G26               
  20838539.117 6 109507256.820 6  85330375.27148  20838550.66448
  21209048.422 5 111454299.339 5  86847543.18847  21209057.23447
  22853724.313 1 120097081.939 1                
  21806976.484 6 114596436.911 6  89295957.89047  21806985.16447
  21463537.234 6 112791597.856 6  87889597.85548  21463547.90248
  23332281.375 4 122612045.615 4  95541822.42146  23332290.59446
  23915361.727 3 125675961.863 3  97929453.86747  23915373.68047
 22  7  3 12 17 10.0000000  0  7G03G04G06G07G09G16G26               
  20840770.336 6 109518981.208 6  85339511.15848  20840781.84848
  21210742.328 5 111463203.808 5  86854481.73247  21210751.68447
  22853796.406 1 120097469.666 1                
  21805183.242 5 114587013.594 5  89288615.06247  21805192.01247
  21463763.445 6 112792786.788 6  87890524.29848  21463774.09448
  23332946.789 4 122615537.379 4  95544543.26746  23332955.21946
  23917710.039 3 125688300.293 3  97939068.23347  23917722.08247
 22  7  3 12 17 15.0000000  0  7G03G04G06G07G09G16G26               
  20843004.359 6 109530719.870 6  85348658.16048  20843015.34448
  21212437.547 6 111472112.854 6  86861423.83547  21212447.52347
  22853872.461 1 120097874.392 1                
  21803392.211 6 114577601.763 6  89281281.16547  21803400.89847
  21463990.586 6 112793980.145 6  87891454.18848  21464001.11748
  23333613.914 4 122619043.323 4  95547275.17846  23333622.44946
  23920061.344 3 125700652.917 3  97948693.63047  23920072.59447
 22  7  3 12 17 20.0000000  0  7G03G04G06G07G09G16G26               
  20845240.641 6 109542473.285 6  85357816.66648  20845252.20748
  21214134.063 5 111481026.946 5  86868369.88947  21214143.87547
  22853951.656 1                                
  21801603.438 6 114568201.832 6  89273956.55247  21801612.07047
  21464218.961 6 112795178.396 6  87892387.89348  21464229.15248
  23334283.531 4 122622563.966 4  95550018.54046  23334292.12146
  23922414.227 3 125713020.030 3  97958330.33847  23922426.17247
 22  7  3 12 17 25.0000000  0  7G03G04G06G07G09G16G26               
  20847480.492 6 109554241.324 6  85366986.56348  20847491.30148
  21215831.422 6 111489945.950 6  86875319.75947  21215841.01647
  22854036.234 1 120098736.55611                
  21799817.070 6 114558813.785 6  89266641.20047  21799825.76647
  21464447.914 6 112796381.443 6  87893325.33048  21464457.96548
  23334956.789 4 122626099.191 4  95552773.25046  23334964.96546
  23924769.266 3 125725401.700 3  97967978.39247  23924782.43047
 22  7  3 12 17 30.0000000  0  6G03G04G07G09G16G26                  
  20849723.063 6 109566023.767 6  85376167.68248  20849733.32048
  21217529.141 6 111498869.643 6  86882273.28047  21217539.27047
  21798032.359 6 114549437.322 6  89259334.87847  21798041.41047
  21464677.664 6 112797589.045 6  87894266.32348  21464687.98848
  23335632.078 4 122629648.724 4  95555539.13546  23335640.32846
  23927128.953 2 125737797.670 2  97977637.57547  23927140.87547
 22  7  3 12 17 35.0000000  0  6G03G04G07G09G16G26                  
  20851967.055 6 109577820.484 6  85385359.91648  20851978.30548
  21219228.156 5 111507797.910 5  86889230.36447  21219238.16447
  21796250.250 6 114540072.402 6  89252037.53447  21796259.04347
  21464908.422 6 112798801.055 6  87895210.74648  21464918.44548
  23336310.516 5 122633212.470 5  95558316.06646  23336318.55146
  23929490.086 2 125750207.645 2  97987307.66847  23929502.62947
 22  7  3 12 17 40.0000000  0  6G03G04G07G09G16G26                  
  20854215.109 6 109589631.372 6  85394563.20748  20854226.06648
  21220928.258 6 111516730.615 6  86896190.91047  21220937.98447
  21794470.414 6 114530718.853 6  89244749.06547  21794479.19947
  21465140.258 6 112800017.390 6  87896158.53348  21465150.28948
  23336990.938 5 122636790.283 5  95561103.96746  23336999.83246
  23931854.297 2 125762631.662 2  97996988.72047  23931866.04747
 22  7  3 12 17 45.0000000  0  6G03G04G07G09G16G26                  
  20856464.969 6 109601456.722 6  85403777.76448  20856475.98448
  21222628.969 6 111525668.100 6  86903155.17747  21222638.77747
  21792692.797 6 114521377.058 6  89237469.73547  21792701.33647
  21465372.250 6 112801238.371 6  87897109.94848  21465382.34048
  23337674.922 4 122640382.502 4  95563903.12446  23337683.03946
  23934220.836 2 125775069.978 2  98006680.90547  23934233.44947
 22  7  3 12 17 50.0000000  0  6G03G04G07G09G16G26                  
  20858718.141 6 109613296.087 6  85413003.24348  20858728.83248
  21224330.180 5 111534609.896 5  86910122.80947  21224340.48847
  21790917.508 6 114512046.485 6  89230199.17647  21790925.91847
  21465605.648 6 112802463.491 6  87898064.58548  21465615.63748
  23338361.156 4 122643988.647 4  95566713.09846  23338368.78146
  23936591.617 2 125787522.085 2  98016383.85547  23936603.20747
 22  7  3 12 17 55.0000000  0  6G03G04G07G09G16G26                  
  20860973.750 6 109625149.860 6  85422239.94248  20860984.56348
  21226033.266 5 111543556.398 5  86917094.09947  21226042.93447
  21789144.148 6 114502727.614 6  89222937.72147  21789152.52047
  21465839.211 6 112803693.183 6  87899022.78648  21465849.54748
  23339050.977 4 122647609.210 4  95569534.31146  23339058.06646
  23938963.641 3 125799988.482 3  98026097.93547  23938975.69547
 22  7  3 12 18  0.0000000  0  6G03G04G07G09G16G26                  
  20863232.320 6 109637017.864 6  85431487.74348  20863243.05148
  21227736.445 5 111552507.404 5  86924068.91347  21227746.04347
  21787373.117 6 114493420.259 6  89215685.23147  21787381.29347
  21466074.195 6 112804927.269 6  87899984.41548  21466084.17648
  23339740.914 5 122651243.904 5  95572366.54146  23339749.37146
  23941338.211 3 125812468.883 3  98035822.91247  23941350.53147
 22  7  3 12 18  5.0000000  0  6G03G04G07G09G16G26                  
  20865493.844 6 109648900.509 6  85440746.95148  20865504.25048
  21229440.625 5 111561463.327 5  86931047.55947  21229450.20747
  21785603.859 5 114484124.811 5  89208442.01847  21785612.49647
  21466309.828 6 112806166.105 6  87900949.74248  21466320.16848
  23340437.242 5 122654893.192 5  95575210.12347  23340443.92247
  23943715.711 3 125824963.744 3  98045559.14947  23943728.50047
 22  7  3 12 18 10.0000000  0  6G03G04G07G09G16G26                  
  20867757.484 6 109660797.235 6  85450017.11848  20867768.10548
  21231145.750 5 111570423.631 5  86938029.60147  21231155.34447
  21783837.727 6 114474840.758 6  89201207.69847  21783845.39547
  21466546.617 6 112807409.222 6  87901918.41148  21466556.50848
  23341133.844 5 122658556.582 5  95578064.70146  23341141.11746
  23946096.859 3 125837472.535 3  98055306.25447  23946108.75047
 22  7  3 12 18 15.0000000  0  6G03G04G07G09G16G26                  
  20870023.438 6 109672708.334 6  85459298.49948  20870034.54748
  21232851.984 6 111579388.576 6  86945015.27147  21232861.10247
  21782072.781 5 114465568.320 5  89193982.41647  21782081.22347
  21466783.852 6 112808656.811 6  87902890.56148  21466793.92648
  23341833.445 5 122662234.241 5  95580930.42446  23341840.62546
  23948479.492 3 125849995.396 3  98065064.31847  23948491.89147
 22  7  3 12 18 20.0000000  0  6G03G04G07G09G16G26                  
  20872293.070 6 109684633.483 6  85468590.81048  20872303.93848
  21234558.398 5 111588357.864 5  86952004.32447  21234567.91447
  21780311.180 6 114456307.279 6  89186766.02747  21780319.20347
  21467022.305 6 112809908.632 6  87903866.01248  21467032.31648
  23342535.047 5 122665925.954 5  95583807.08846  23342543.62146
  23950864.313 3 125862532.193 3  98074833.24247  23950877.67647
 22  7  3 12 18 25.0000000  0  6G03G04G07G09G16G26                  
  20874564.977 6 109696573.059 6  85477894.37848  20874576.13348
  21236266.398 5 111597331.862 5  86958997.04347  21236276.21547
  21778550.766 5 114447057.981 5  89179558.78047  21778558.75847
  21467260.969 6 112811165.018 6  87904845.00948  21467271.39848
  23343239.922 5 122669632.076 5  95586694.97047  23343248.64847
  23953253.922 3 125875083.191 3  98084613.23347  23953265.66847
 22  7  3 12 18 30.0000000  0  6G03G04G07G09G16G26                  
  20876839.633 6 109708526.982 6  85487209.11548  20876850.64848
  21237974.922 5 111606310.502 5  86965993.38347  21237984.50047
  21776793.078 6 114437820.330 6  89172360.61647  21776800.82847
  21467501.250 6 112812425.884 6  87905827.50848  21467511.32448
  23343948.344 5 122673352.536 5  95589594.01547  23343956.72747
  23955644.742 3 125887648.290 3  98094404.21947  23955657.00447
 22  7  3 12 18 35.0000000  0  6G03G04G07G09G16G26                  
  20879117.102 6 109720495.219 6  85496535.00548  20879128.26648
  21239684.156 6 111615293.724 6  86972993.28547  21239693.41447
  21775036.781 5 114428594.318 5  89165171.51647  21775044.73847
  21467742.148 6 112813691.227 6  87906813.49248  21467752.30148
  23344659.453 5 122677087.335 5  95592504.25946  23344667.58646
  23958037.781 3 125900227.511 3  98104206.20347  23958050.80147
 22  7  3 12 18 40.0000000  0  6G03G04G07G09G16G26                  
  20881397.461 6 109732477.754 6  85505872.04248  20881408.32448
  21241395.031 6 111624281.534 6  86979996.78447  21241403.96147
  21773283.625 5 114419379.955 5  89157991.49747  21773291.15247
  21467983.414 6 112814961.041 6  87907802.95848  21467993.62948
  23345372.703 5 122680836.421 5  95595425.60446  23345381.00846
  23960434.773 4 125912820.862 4  98114019.18847  23960447.24647
 22  7  3 12 18 45.0000000  0  6G03G04G07G09G16G26                  
  20883680.406 6 109744474.512 6  85515220.15748  20883690.87548
  21243105.633 5 111633273.868 5  86987003.79347  21243115.59847
  21771531.977 6 114410177.081 6  89150820.41747  21771539.87547
  21468226.297 6 112816235.184 6  87908795.79948  21468236.31348
  23346089.109 5 122684599.661 5  95598358.01347  23346097.77347
  23962832.883 3 125925428.146 3  98123843.04447  23962846.25847
 22  7  3 12 18 50.0000000  0  6G03G04G07G09G16G26                  
  20885965.672 6 109756485.388 6  85524579.27648  20885976.63348
  21244817.828 5 111642270.583 5  86994014.20747  21244827.44147
  21769783.703 6 114400985.701 6  89143658.30947  21769791.27747
  21468469.414 7 112817513.617 7  87909791.98548  21468479.83648
  23346807.797 5 122688377.115 5  95601301.46946  23346816.21946
  23965235.164 3 125938049.321 3  98133677.72247  23965247.35947
 22  7  3 12 18 55.0000000  0  6G03G04G07G09G16G26                  
  20888254.547 6 109768510.487 6  85533949.48348  20888265.34048
  21246530.602 5 111651271.791 5  87001028.12447  21246540.16047
  21768036.609 6 114391805.885 6  89136505.21047  21768044.62947
  21468713.781 6 112818796.372 6  87910791.53748  21468723.99248
  23347529.453 5 122692168.792 5  95604256.02847  23347537.83647
  23967639.570 4 125950684.469 4  98143523.27847  23967652.19947
 22  7  3 12 19  0.0000000  0  6G03G04G07G09G16G26                  
  20890545.250 6 109780549.460 6  85543330.49348  20890555.98048
  21248244.789 5 111660277.191 5  87008045.32447  21248254.17247
  21766291.609 6 114382637.331 6  89129360.89447  21766299.74647
  21468958.289 6 112820083.197 6  87911794.25848  21468968.47748
  23348253.227 5 122695974.360 5  95607221.41447  23348261.95747
  23970047.273 4 125963333.260 4  98153379.45947  23970059.25447
 22  7  3 12 19  5.0000000  0  6G03G04G07G09G16G26                  
  20892838.531 6 109792602.566 6  85552722.51548  20892849.46948
  21249959.328 5 111669286.975 5  87015065.92347  21249968.10247
  21764549.258 6 114373480.297 6  89122225.54047  21764557.30547
  21469203.969 6 112821374.289 6  87912800.30848  21469214.66048
  23348980.516 5 122699794.077 5  95610197.82746  23348988.78946
  23972456.094 4 125975995.972 4  98163246.49247  23972468.59447
 22  7  3 12 19 10.0000000  0  6G03G04G07G09G16G26                  
  20895135.133 6 109804669.411 6  85562125.24248  20895145.95748
  21251674.609 5 111678300.811 5  87022089.68847  21251683.68847
  21762808.977 6 114364334.380 6  89115098.85247  21762816.61347
  21469450.578 6 112822669.300 6  87913809.40448  21469460.68848
  23349709.211 5 122703627.570 5  95613184.96147  23349718.03547
  23974868.359 4 125988672.196 4  98173124.05347  23974881.41047
 22  7  3 12 19 15.0000000  0  6G03G04G07G09G16G26                  
  20897433.570 6 109816750.621 6  85571539.17648  20897445.02748
  21253390.406 5 111687319.303 5  87029117.07447  21253399.40647
  21761070.820 6 114355200.228 6  89107981.32247  21761078.71947
  21469697.445 6 112823968.782 6  87914821.98248  21469707.80548
  23350441.984 5 122707475.514 5  95616183.35347  23350450.29347
  23977283.711 4 126001362.516 4  98183012.60648  23977296.09848
 22  7  3 12 19 20.0000000  0  6G03G04G07G09G16G26                  
  20899735.422 6 109828845.994 6  85580964.12948  20899746.43448
  21255107.359 5 111696342.198 5  87036147.89647  21255116.32047
  21759334.672 6 114346077.600 6  89100872.77747  21759342.63347
  21469945.664 6 112825272.593 6  87915837.93548  21469956.32048
  23351176.266 5 122711337.661 5  95619192.82746  23351185.11746
  23979700.914 4 126014066.701 4  98192911.97148  23979714.22748
 22  7  3 12 19 25.0000000  0  6G03G04G07G09G16G26                  
  20902039.867 6 109840955.145 6  85590399.82648  20902050.61748
  21256825.258 5 111705369.186 5  87043181.91347  21256834.07847
  21757601.352 6 114336966.208 6  89093772.99247  21757608.71147
  21470194.719 6 112826580.344 6  87916856.96248  21470204.88748
  23351913.883 5 122715213.631 5  95622213.06446  23351922.71946
  23982121.398 4 126026784.425 4  98202821.88248  23982134.15248
 22  7  3 12 19 30.0000000  0  6G03G04G07G09G16G26                  
  20904347.133 6 109853078.367 6  85599846.49748  20904357.58648
  21258543.641 5 111714400.529 5  87050219.31947  21258552.78947
  21755869.289 6 114327866.250 6  89086682.10947  21755876.96547
  21470444.344 6 112827892.283 6  87917879.26248  21470454.92648
  23352654.734 5 122719103.750 5  95625244.34247  23352662.90247
  23984544.203 4 126039515.969 4  98212742.55548  23984556.85948
 22  7  3 12 19 35.0000000  0  6G03G04G07G09G16G26                  
  20906656.852 6 109865215.539 6  85609304.02448  20906667.13748
  21260263.375 5 111723436.083 5  87057260.00547  21260272.27047
  21754138.867 6 114318777.659 6  89079600.08347  21754147.59447
  21470694.313 6 112829208.344 6  87918904.76748  21470705.02748
  23353397.109 5 122723007.895 5  95628286.52147  23353405.88747
  23986969.586 5 126052261.219 5  98222673.89748  23986981.78548
 22  7  3 12 19 40.0000000  0  6G03G04G07G09G16G26                  
  20908969.242 6 109877366.792 6  85618772.52648  20908979.75448
  21261983.195 5 111732476.019 5  87064304.10447  21261992.32047
  21752411.938 5 114309700.577 5  89072527.02447  21752420.42647
  21470945.813 6 112830528.642 6  87919933.57048  21470956.19948
  23354143.414 5 122726926.138 5  95631339.71547  23354151.90247
  23989397.742 5 126065020.248 5  98232615.99148  23989409.83248
 22  7  3 12 19 45.0000000  0  6G03G04G07G09G16G26                  
  20911284.359 6 109889531.969 6  85628251.88448  20911294.84848
  21263704.305 5 111741520.134 5  87071351.45847  21263713.70347
  21750685.875 6 114300634.862 6  89065462.83647  21750695.64147
  21471197.961 6 112831852.965 6  87920965.51348  21471208.03148
  23354891.586 5 122730858.358 5  95634403.76947  23354900.21547
  23991827.445 5 126077792.920 5  98242568.71348  23991840.68848
 22  7  3 12 19 50.0000000  0  6G03G04G07G09G16G26                  
  20913602.367 6 109901711.139 6  85637742.14148  20913612.46148
  21265426.367 6 111750568.518 6  87078402.14247  21265435.40647
  21748963.680 6 114291580.619 6  89058407.58747  21748972.73447
  21471450.961 6 112833181.474 6  87922000.70948  21471460.99648
  23355642.563 5 122734804.672 5  95637478.83547  23355650.93847
  23994260.891 4 126090579.325 4  98252532.13048  23994273.93448
 22  7  3 12 19 55.0000000  0  6G03G04G07G09G16G26                  
  20915922.273 6 109913904.450 6  85647243.41748  20915932.19548
  21267149.836 6 111759621.358 6  87085456.29147  21267157.88347
  21747243.328 5 114282537.988 5  89051361.35747  21747251.98447
  21471704.211 6 112834514.259 6  87923039.24348  21471714.85248
  23356396.953 5 122738765.163 5  95640564.93247  23356404.87547
  23996697.758 5 126103379.609 5  98262506.36948  23996709.64148
 22  7  3 12 20  0.0000000  0  6G03G04G07G09G16G26                  
  20918244.516 6 109926111.560 6  85656755.43848  20918255.59048
  21268873.023 5 111768678.266 5  87092513.61347  21268882.06647
  21745524.883 5 114273506.550 5  89044323.89247  21745533.50847
  21471958.328 6 112835850.994 6  87924080.86248  21471968.83248
  23357152.047 5 122742739.527 5  95643661.83047  23357161.01647
  23999136.063 5 126116193.348 5  98272491.10648  23999148.61748
 22  7  3 12 20  5.0000000  0  6G03G04G07G09G16G26                  
  20920570.750 6 109938332.624 6  85666278.35148  20920581.32448
  21270596.734 5 111777739.405 5  87099574.23647  21270606.04347
  21743808.320 5 114264486.548 5  89037295.31447  21743816.96947
  21472214.070 6 112837191.828 6  87925125.66448  21472224.46548
  23357911.047 5 122746727.929 5  95646769.67847  23357919.86347
  24001577.305 4 126129020.795 4  98282486.51248  24001589.92648
 22  7  3 12 20 10.0000000  0  6G03G04G07G09G16G26                  
  20922898.461 6 109950567.539 6  85675812.03848  20922909.34448
  21272321.758 5 111786804.650 5  87106638.05047  21272330.75847
  21742093.250 5 114255477.820 5  89030275.54347  21742103.01247
  21472470.242 6 112838536.646 6  87926173.57148  21472480.00448
  23358673.367 5 122750730.264 5  95649888.39047  23358681.41847
  24004021.031 5 126141861.726 5  98292492.42348  24004033.79348
 22  7  3 12 20 15.0000000  0  6G03G04G07G09G16G26                  
  20925229.852 6 109962816.714 6  85685356.84048  20925240.44948
  21274047.898 6 111795874.478 6  87113705.44447  21274056.79747
  21740381.938 5 114246480.850 5  89023264.91047  21740391.03947
  21472726.789 6 112839885.883 6  87927224.92948  21472737.01248
  23359437.516 5 122754746.971 5  95653018.28447  23359445.83647
  24006466.594 4 126154716.621 4  98302509.21348  24006479.61348
 22  7  3 12 20 20.0000000  0  6G03G04G07G09G16G26                  
  20927563.391 6 109975079.688 6  85694912.40248  20927574.12148
  21275774.828 6 111804948.373 6  87120776.00847  21275783.28147
  21738671.383 5 114237495.218 5  89016263.13947  21738681.21947
  21472984.328 6 112841239.062 6  87928279.34948  21472994.36348
  23360205.109 5 122758777.643 5  95656159.06047  23360213.02347
  24008914.773 4 126167585.062 4  98312536.55948  24008928.41448
 22  7  3 12 20 25.0000000  0  6G03G04G07G09G16G26                  
  20929899.625 6 109987356.752 6  85704478.94648  20929910.45348
  21277501.656 6 111814026.598 6  87127849.93847  21277511.18447
  21736963.813 6 114228521.133 6  89009270.33947  21736973.44547
  21473242.203 6 112842596.472 6  87929337.06848  21473252.59448
  23360974.336 5 122762822.442 5  95659310.86347  23360982.76247
  24011366.906 4 126180467.238 4  98322574.61348  24011379.66448
 22  7  3 12 20 30.0000000  0  6G03G04G07G09G16G26                  
  20932238.148 6 109999647.554 6  85714056.19648  20932248.84448
  21279230.258 6 111823108.865 6  87134927.03447  21279238.96547
  21735258.789 6 114219558.301 6  89002286.32347  21735267.93847
  21473501.617 6 112843957.785 6  87930397.83448  21473511.50048
  23361746.273 5 122766881.143 5  95662473.49547  23361755.06647
  24013821.172 4 126193362.828 4  98332623.13348  24013833.28948
 22  7  3 12 20 35.0000000  0  6G03G04G07G09G16G26                  
  20934579.711 6 110011951.900 6  85723643.98948  20934590.69948
  21280959.125 6 111832194.936 6  87142007.08247  21280968.28147
  21733554.859 5 114210606.573 5  88995310.94947  21733564.13347
  21473761.398 6 112845322.766 6  87931461.45648  21473771.60948
  23362521.469 5 122770953.506 5  95665646.76047  23362529.84847
  24016276.625 3 126206271.655 3  98342681.97048  24016289.61348
 22  7  3 12 20 40.0000000  0  6G03G04G07G09G16G26                  
  20936924.180 6 110024270.516 6  85733242.90548  20936934.60948
  21282689.406 6 111841285.617 6  87149090.72847  21282698.04347
  21731854.039 6 114201666.657 6  88988344.77647  21731863.20347
  21474022.078 6 112846692.215 6  87932528.55648  21474032.27348
  23363298.930 5 122775040.281 5  95668831.28247  23363307.31647
  24018736.492 4 126219194.438 4  98352751.68148  24018748.21148
 22  7  3 12 20 45.0000000  0  6G03G04G07G09G16G26                  
  20939271.172 6 110036603.286 6  85742852.84948  20939281.54748
  21284420.086 6 111850380.664 6  87156177.77747  21284428.84847
  21730154.844 6 114192738.387 6  88981387.68647  21730164.10247
  21474283.414 6 112848065.948 6  87933599.00848  21474293.36748
  23364079.438 5 122779141.332 5  95672026.90847  23364087.69547
  24021198.000 4 126232131.017 4  98362832.13948  24021210.35248
 22  7  3 12 20 50.0000000  0  6G03G04G07G09G16G26                  
  20941620.133 6 110048950.213 6  85752473.82648  20941630.87148
  21286151.297 6 111859480.158 6  87163268.28547  21286160.29747
  21728457.758 5 114183821.850 5  88974439.73147  21728467.09047
  21474545.500 6 112849443.931 6  87934672.75648  21474556.09048
  23364862.914 5 122783256.688 5  95675233.68747  23364870.50847
  24023662.594 4 126245081.434 4  98372923.34948  24023674.51248
 22  7  3 12 20 55.0000000  0  6G03G04G07G09G16G26                  
  20943972.227 6 110061310.529 6  85762105.24248  20943983.11348
  21287882.961 6 111868583.372 6  87170361.70647  21287892.58647
  21726763.625 5 114174916.222 5  88967500.26947  21726772.54347
  21474808.070 6 112850825.520 6  87935749.32548  21474818.63348
  23365648.938 5 122787385.589 5  95678451.01047  23365656.66447
  24026129.078 4 126258044.891 4  98383024.72847  24026141.01647
 22  7  3 12 21  0.0000000  0  6G03G04G07G09G16G26                  
  20946326.930 6 110073684.650 6  85771747.40948  20946338.04348
  21289616.617 6 111877690.608 6  87177458.24147  21289625.75447
  21725070.914 6 114166021.945 6  88960569.66447  21725080.07447
  21475071.430 6 112852211.055 6  87936828.96548  21475082.17648
  23366437.305 5 122791528.425 5  95681679.18847  23366445.16847
  24028598.133 4 126271021.858 4  98393136.63547  24028610.88347
 22  7  3 12 21  5.0000000  0  6G03G04G07G09G16G26                  
  20948684.141 6 110086072.533 6  85781400.30648  20948695.35948
  21291350.438 5 111886801.928 5  87184557.97347  21291359.27047
  21723380.750 5 114157138.991 5  88953647.87747  21723389.20347
  21475336.469 6 112853600.480 6  87937911.63748  21475347.06648
  23367227.656 5 122795685.165 5  95684918.21847  23367236.05947
  24031070.789 3 126284012.219 3  98403258.96847  24031082.52347
 22  7  3 12 21 10.0000000  0  6G03G04G07G09G16G26                  
  20951044.445 6 110098474.080 6  85791063.84148  20951055.30948
  21293084.664 5 111895917.182 5  87191660.76747  21293094.03147
  21721692.836 5 114148267.263 5  88946734.82747  21721701.14147
  21475601.305 6 112854993.721 6  87938997.28948  21475612.38348
  23368021.750 5 122799855.749 5  95688168.00347  23368029.61347
  24033545.820 4 126297015.814 4  98413391.65147  24033557.31647
 22  7  3 12 21 15.0000000  0  6G03G04G07G09G16G26                  
  20953406.695 6 110110889.270 6  85800738.00848  20953417.76248
  21294820.617 5 111905036.360 5  87198766.61447  21294829.44547
  21720006.875 6 114139406.736 6  88939830.52147  21720015.23447
  21475866.742 6 112856390.782 6  87940085.91448  21475877.77048
  23368817.820 5 122804040.156 5  95691428.60447  23368825.59447
  24036022.305 4 126310032.744 4  98423534.71747  24036033.71147
 22  7  3 12 21 20.0000000  0  6G03G04G07G09G16G26                  
  20955772.188 6 110123318.220 6  85810422.90348  20955782.85948
  21296557.023 5 111914159.594 5  87205875.63047  21296565.61347
  21718322.711 6 114130557.578 6  88932935.06447  21718330.82047
  21476133.625 6 112857791.742 6  87941177.56448  21476144.31648
  23369616.898 5 122808238.479 5  95694700.02247  23369624.37547
  24038501.766 4 126323063.086 4  98433688.23547  24038513.68047
 22  7  3 12 21 25.0000000  0  6G03G04G07G09G16G26                  
  20958139.797 6 110135761.162 6  85820118.70048  20958151.10248
  21298294.055 5 111923287.089 5  87212987.96147  21298302.67647
  21716640.922 6 114121719.972 6  88926048.62747  21716649.30147
  21476400.531 6 112859196.865 6  87942272.46348  21476411.50448
  23370417.367 5 122812450.971 5  95697982.48546  23370426.57846
  24040983.586 4 126336107.048 4  98443852.33747  24040995.40247
 22  7  3 12 21 30.0000000  0  6G03G04G07G09G16G26                  
  20960510.219 6 110148217.649 6  85829825.04648  20960520.85248
  21300031.297 5 111932418.375 5  87220103.24147  21300040.30947
  21714961.805 6 114112893.537 6  88919170.87947  21714969.55147
  21476669.773 6 112860605.669 6  87943370.23048  21476679.69948
  23371222.313 5 122816677.165 5  95701275.62947  23371230.59047
  24043468.266 4 126349164.182 4  98454026.71048  24043480.39148
 22  7  3 12 21 35.0000000  0  6G03G04G07G09G16G26                  
  20962883.281 6 110160687.950 6  85839542.15848  20962894.13348
  21301770.461 6 111941553.768 6  87227221.72747  21301778.68047
  21713284.125 6 114104078.528 6  88912302.03347  21713291.94547
  21476937.938 6 112862018.438 6  87944471.09048  21476948.49648
  23372029.344 5 122820917.381 5  95704579.70347  23372037.41447
  24045956.398 3 126362234.761 3  98464211.54347  24045967.98447
 22  7  3 12 21 40.0000000  0  6G03G04G07G09G16G26                  
  20965258.664 6 110173171.953 6  85849269.94748  20965269.85248
  21303509.070 6 111950693.184 6  87234343.34847  21303518.40247
  21711608.492 6 114095274.854 6  88905442.02547  21711616.64547
  21477207.766 6 112863435.072 6  87945574.96648  21477218.12948
  23372838.922 5 122825171.520 5  95707894.61847  23372846.86347
  24048445.688 3 126375318.643 3  98474406.77747  24048457.19147
 22  7  3 12 21 45.0000000  0  6G03G04G07G09G16G26                  
  20967637.258 6 110185669.769 6  85859008.50248  20967647.79748
  21305248.570 6 111959836.667 6  87241468.13647  21305257.83247
  21709935.695 6 114086482.624 6  88898590.94247  21709943.52047
  21477478.164 6 112864855.656 6  87946681.91848  21477488.68048
  23373650.438 5 122829439.649 5  95711220.43747  23373659.52347
  24050938.273 2 126388415.913 2  98484612.43847  24050949.89847
 22  7  3 12 21 50.0000000  0  6G03G04G07G09G16G26                  
  20970018.039 6 110198181.383 6  85868757.81648  20970028.68448
  21306989.898 6 111968984.210 6  87248596.08147  21306998.85947
  21708264.617 6 114077701.820 6  88891748.75347  21708272.63747
  21477748.977 6 112866280.219 6  87947791.96448  21477759.68448
  23374465.250 5 122833721.756 5  95714557.14046  23374474.32846
  24053432.203 3 126401526.646 3  98494828.58247  24053444.74247
 22  7  3 12 21 55.0000000  0  6G03G04G07G09G16G26                  
  20972401.266 6 110210706.878 6  85878517.94148  20972412.55948
  21308731.125 6 111978135.971 6  87255727.32147  21308740.16047
  21706596.039 6 114068932.561 6  88884915.55347  21706603.91847
  21478020.891 6 112867708.775 6  87948905.12448  21478030.98848
  23375283.258 5 122838017.974 5  95717904.83647  23375292.18447
  24055931.219 4 126414650.881 4  98505055.25847  24055942.25447
 22  7  3 12 22  0.0000000  0  6G03G04G07G09G16G26                  
  20974787.289 6 110223245.724 6  85888288.46648  20974798.46548
  21310473.352 6 111987291.331 6  87262861.35547  21310482.94947
  21704929.055 6 114060174.265 6  88878090.89647  21704937.35947
  21478293.469 6 112869140.862 6  87950021.04848  21478304.02748
  23376103.008 5 122842327.727 5  95721263.09646  23376112.00446
  24058430.500 4 126427788.050 4  98515292.00447  24058442.00847
 22  7  3 12 22  5.0000000  0  6G03G04G07G09G16G26                  
  20977176.102 6 110235798.480 6  85898069.82448  20977187.12148
  21312216.180 6 111996450.907 6  87269998.68347  21312225.40247
  21703263.961 6 114051427.575 6  88871275.28647  21703272.59847
  21478566.656 6 112870577.040 6  87951140.15448  21478576.79748
  23376926.563 5 122846651.665 5  95724632.38146  23376934.77046
  24060932.398 4 126440938.754 4  98525539.27848  24060944.64848
 22  7  3 12 22 10.0000000  0  6G03G04G07G09G16G26                  
  20979567.773 6 110248364.752 6  85907861.72648  20979578.50448
  21313959.641 6 112005614.263 6  87277138.94647  21313969.18447
  21701602.281 6 114042692.036 6  88864468.37047  21701610.61747
  21478840.742 6 112872016.847 6  87952262.08248  21478851.48048
  23377751.617 5 122850989.275 5  95728012.32746  23377759.98046
  24063437.859 3 126454102.563 3  98535796.77147  24063449.31647
 22  7  3 12 22 15.0000000  0  6G03G04G07G09G16G26                  
  20981961.188 6 110260944.621 6  85917664.21448  20981972.25848
  21315704.398 6 112014781.527 6  87284282.27047  21315713.75847
  21699941.602 5 114033967.783 5  88857670.26847  21699950.62547
  21479115.633 6 112873460.454 6  87953386.97148  21479125.63748
  23378579.711 5 122855340.776 5  95731403.12246  23378588.59846
  24065945.070 3 126467279.501 3  98546064.50347  24065957.09847
 22  7  3 12 22 20.0000000  0  6G03G04G07G09G16G26                  
  20984357.555 6 110273538.229 6  85927477.41648  20984368.74248
  21317449.688 6 112023952.771 6  87291428.67947  21317459.31347
  21698284.211 5 114025254.925 5  88850881.04847  21698292.66847
  21479390.852 6 112874907.925 6  87954514.87448  21479401.28948
  23379409.922 5 122859706.226 5  95734804.76946  23379418.97346
  24068455.758 3 126480469.804 3  98556342.65047  24068466.84047
 22  7  3 12 22 25.0000000  0  6G03G04G07G09G16G26                  
  20986757.227 6 110286145.636 6  85937301.36248  20986767.81648
  21319195.555 6 112033128.122 6  87298578.28547  21319204.90247
  21696628.203 6 114016553.584 6  88844100.79047  21696636.73847
  21479666.547 6 112876359.399 6  87955645.89448  21479677.67248
  23380243.383 5 122864085.757 5  95738217.37946  23380252.53946
  24070967.938 4 126493673.460 4  98566631.22647  24070979.63747
 22  7  3 12 22 30.0000000  0  6G03G04G07G09G16G26                  
  20989158.648 6 110298766.803 6  85947136.02948  20989169.48848
  21320942.109 6 112042307.523 6  87305731.06447  21320951.95347
  21694975.008 6 114007863.736 6  88837329.49347  21694982.96547
  21479944.031 6 112877814.784 6  87956779.95948  21479954.63348
  23381079.555 5 122868479.291 5  95741640.92046  23381088.44146
  24073483.406 4 126506890.479 4  98576930.19647  24073494.61747
 22  7  3 12 22 35.0000000  0  6G03G04G07G09G16G26                  
  20991563.180 6 110311401.948 6  85956981.59048  20991573.91848
  21322690.258 6 112051491.158 6  87312887.13747  21322699.46547
  21693323.898 6 113999185.562 6  88830567.27547  21693331.68847
  21480221.594 6 112879274.276 6  87957917.22948  21480232.23848
  23381918.492 4 122872887.045 4  95745075.53947  23381927.33647
  24076000.211 4 126520121.032 4  98587239.71547  24076012.41447
 22  7  3 12 22 40.0000000  0  6G03G04G07G09G16G26                  
  20993969.891 7 110324050.370 7  85966837.50648  20993980.62948
  21324438.180 6 112060678.370 6  87320046.01247  21324447.83647
  21691673.352 6 113990518.418 6  88823813.65247  21691681.94947
  21480500.156 6 112880737.209 6  87959057.17448  21480511.05148
  23382760.453 4 122877308.375 4  95748520.73146  23382768.98046
  24078520.148 4 126533364.434 4  98597559.23547  24078532.61347
 22  7  3 12 22 45.0000000  0  6G03G04G07G09G16G26                  
  20996379.289 6 110336712.046 6  85976703.74148  20996390.43848
  21326187.227 6 112069869.156 6  87327207.66447  21326197.26247
  21690026.563 6 113981862.256 6  88817068.60447  21690034.71147
  21480778.688 6 112882203.593 6  87960199.81048  21480789.71948
  23383602.883 4 122881743.146 4  95751976.40446  23383612.02346
  24081043.688 4 126546620.703 4  98607888.78947  24081054.93047
 22  7  3 12 22 50.0000000  0  6G03G04G07G09G16G26                  
  20998791.805 6 110349387.282 6  85986580.54248  20998802.08248
  21327936.852 6 112079063.737 6  87334372.26947  21327946.41047
  21688381.672 6 113973217.362 6  88810332.30747  21688390.17247
  21481058.688 6 112883673.661 6  87961345.32548  21481069.41448
  23384449.820 5 122886191.796 5  95755442.87546  23384458.95346
  24083568.242 4 126559890.057 4  98618228.53147  24083580.01247
 22  7  3 12 22 55.0000000  0  6G03G04G07G09G16G26                  
  21001206.141 6 110362076.250 6  85996468.04948  21001216.50448
  21329687.602 5 112088262.368 5  87341540.03047  21329697.08247
  21686738.820 6 113964583.918 6  88803604.94847  21686747.15647
  21481339.375 6 112885147.628 6  87962493.87648  21481350.23448
  23385300.156 5 122890654.427 5  95758920.26146  23385308.19546
  24086095.758 3 126573172.659 3  98628578.60547  24086107.79747
 22  7  3 12 23  0.0000000  0  6G03G04G07G09G16G26                  
  21003623.570 6 110374779.165 6  86006366.41948  21003634.21148
  21331438.750 5 112097465.204 5  87348711.07247  21331448.32447
  21685098.172 6 113955962.156 6  88796886.69347  21685106.20347
  21481620.492 6 112886625.680 6  87963645.60148  21481631.08648
  23386150.938 5 122895131.270 5  95762408.70746  23386159.73046
  24088626.289 2 126586468.774 2  98638939.22547  24088637.68847
 22  7  3 12 23  5.0000000  0  6G03G04G07G09G16G26                  
  21006043.297 6 110387495.654 6  86016275.36048  21006053.87948
  21333191.102 5 112106671.905 5  87355885.12347  21333200.22347
  21683459.289 6 113947351.735 6  88790177.27047  21683467.59847
  21481902.656 6 112888107.499 6  87964800.26848  21481913.18848
  23387005.594 5 122899621.967 5  95765907.95946  23387014.58246
  24091159.680 2 126599778.035 2  98649310.07647  24091170.73847
 22  7  3 12 23 10.0000000  0  6G03G04G07G09G16G26                  
  21008465.891 6 110400225.840 6  86026194.98748  21008476.44548
  21334943.398 6 112115882.623 6  87363062.28847  21334952.91047
  21681823.797 6 113938752.793 6  88783476.79947  21681831.84847
  21482185.344 6 112889593.215 6  87965957.97448  21482196.16848
  23387862.750 5 122904126.687 5  95769418.14046  23387871.16846
  24093693.977 4 126613100.529 4  98659691.24347  24093705.89147
 22  7  3 12 23 15.0000000  0  6G03G04G07G09G16G26                  
  21010890.859 6 110412969.479 6  86036125.09648  21010901.64148
  21336697.250 6 112125097.052 6  87370242.36747  21336706.59847
  21680189.391 6 113930164.994 6  88776784.99647  21680197.36347
  21482469.047 6 112891082.485 6  87967118.45248  21482479.54348
  23388722.359 5 122908645.088 5  95772938.97746  23388731.02046
  24096231.461 4 126626436.027 4  98670082.53547  24096243.54347
 22  7  3 12 23 20.0000000  0  6G03G04G07G09G16G26                  
  21013318.344 6 110425726.857 6  86046065.91148  21013329.50848
  21338450.781 6 112134315.531 6  87377425.59747  21338460.39147
  21678557.430 6 113921588.732 6  88770102.19047  21678564.79347
  21482753.047 6 112892575.698 6  87968281.99348  21482763.90648
  23389584.930 5 122913177.606 5  95776470.78946  23389593.68846
  24098770.961 4 126639784.773 4  98680484.13548  24098783.92648
 22  7  3 12 23 25.0000000  0  6G03G04G07G09G16G26                  
  21015748.875 6 110438497.663 6  86056017.18848  21015759.58248
  21340205.836 6 112143537.746 6  87384611.74047  21340215.25047
  21676927.547 6 113913023.715 6  88763428.14947  21676935.23847
  21483038.008 6 112894072.503 6  87969448.33748  21483048.33648
  23390450.586 5 122917723.858 5  95780013.31246  23390458.85946
  24101315.125 4 126653146.476 4  98690895.84348  24101327.03948
 22  7  3 12 23 30.0000000  0  6G03G04G07G09G16G26                  
  21018181.891 6 110451281.834 6  86065978.88048  21018192.61748
  21341961.508 6 112152763.603 6  87391800.71447  21341970.99247
  21675300.055 6 113904469.882 6  88756762.82447  21675307.64147
  21483323.563 6 112895572.845 6  87970617.43648  21483334.37148
  23391317.836 4 122922283.723 4  95783566.45046  23391326.85946
  24103859.914 5 126666521.029 5  98701317.56347  24103871.94547
 22  7  3 12 23 35.0000000  0  6G03G04G07G09G16G26                  
  21020617.227 6 110464079.468 6  86075951.05548  21020627.58648
  21343717.766 6 112161993.215 6  87398992.61747  21343727.16447
  21673674.328 6 113895927.297 6  88750106.25347  21673681.71947
  21483609.484 6 112897076.816 6  87971789.36648  21483620.35248
  23392188.117 5 122926857.345 5  95787130.31446  23392196.98046
  24106407.703 4 126679908.613 4  98711749.44948  24106419.65648
 22  7  3 12 23 40.0000000  0  6G03G04G07G09G16G26                  
  21023055.000 6 110476891.110 6  86085934.14648  21023065.82448
  21345475.078 6 112171227.110 6  87406187.84347  21345484.48847
  21672050.672 5 113887396.544 5  88743458.90647  21672058.65247
  21483896.383 6 112898584.965 6  87972964.55148  21483907.30548
  23393060.938 5 122931445.343 5  95790705.38146  23393070.27746
  24108957.961 4 126693309.720 4  98722191.87348  24108970.08648
 22  7  3 12 23 45.0000000  0  6G03G04G07G09G16G26                  
  21025495.180 6 110489716.840 6  86095928.21848  21025506.15248
  21347232.789 6 112180465.448 6  87413386.54847  21347242.44147
  21670429.961 6 113878877.675 6  88736820.83547  21670437.33647
  21484184.375 6 112900097.399 6  87974143.07448  21484195.08248
  23393936.906 5 122936047.795 5  95794291.70946  23393946.35946
  24111510.016 4 126706724.443 4  98732644.89448  24111522.75048
 22  7  3 12 23 50.0000000  0  6G03G04G07G09G16G26                  
  21027938.750 6 110502555.988 6  86105932.74348  21027949.47348
  21348991.625 6 112189707.450 6  87420588.09947  21349001.13747
  21668810.914 6 113870370.071 6  88730191.54047  21668819.18047
  21484472.836 6 112901613.403 6  87975324.37048  21484483.68048
  23394814.977 5 122940663.904 5  95797888.67746  23394824.90646
  24114065.953 4 126720152.039 4  98743107.95747  24114078.22347
 22  7  3 12 23 55.0000000  0  6G03G04G07G09G16G26                  
  21030384.766 6 110515408.668 6  86115947.80448  21030395.50048
  21350751.180 6 112198953.254 6  87427792.61547  21350760.95747
  21667194.164 5 113861873.876 5  88723571.13047  21667202.39847
  21484761.992 6 112903133.080 6  87976508.51148  21484772.87148
  23395696.234 4 122945293.886 4  95801496.49946  23395705.58246
  24116622.688 4 126733592.698 4  98753581.15647  24116635.44947
 22  7  3 12 24  0.0000000  0  6G03G04G07G09G16G26                  
  21032833.070 6 110528274.415 6  86125973.04948  21032844.03948
  21352510.781 6 112208202.505 6  87434999.79947  21352521.27047
  21665579.219 6 113853388.608 6  88716959.20947  21665588.16847
  21485051.359 6 112904656.042 6  87977695.22448  21485062.94948
  23396580.461 5 122949937.309 5  95805114.74946  23396589.48846
  24119182.945 3 126747045.919 3  98764064.17747  24119195.23047
 22  7  3 12 24  5.0000000  0  6G03G04G07G09G16G26                  
  21035283.609 6 110541153.402 6  86136008.63648  21035294.81648
  21354271.883 6 112217455.258 6  87442209.74747  21354281.73047
  21663966.813 6 113844914.369 6  88710355.91747  21663975.73047
  21485342.195 6 112906182.432 6  87978884.66248  21485352.96548
  23397465.953 4 122954594.358 4  95808743.59746  23397475.25446
  24121745.977 2 126760511.874 2  98774557.15047  24121758.12547
 22  7  3 12 24 10.0000000  0  6G03G04G07G09G16G26                  
  21037737.156 6 110554046.434 6  86146055.14648  21037748.11348
  21356033.523 6 112226712.310 6  87449423.02447  21356043.43047
  21662356.297 6 113836452.007 6  88703761.88047  21662365.27047
  21485633.516 6 112907713.001 6  87980077.30648  21485644.70348
  23398355.883 4 122959265.740 4  95812383.62646  23398364.12146
  24124311.375 2 126773991.325 2  98785060.59647  24124323.07047
 22  7  3 12 24 15.0000000  0  6G03G04G07G09G16G26                  
  21040193.203 6 110566953.241 6  86156112.39248  21040204.62148
  21357795.383 6 112235973.491 6  87456639.52247  21357805.44947
  21660748.016 6 113828001.349 6  88697176.95547  21660757.21947
  21485925.344 6 112909247.556 6  87981273.06948  21485936.12148
  23399247.375 5 122963951.272 5  95816034.69046  23399255.88346
  24126878.055 2 126787484.079 2  98795574.43247  24126890.32847
 22  7  3 12 24 20.0000000  0  6G03G04G07G09G16G26                  
  21042652.211 6 110579873.608 6  86166180.20948  21042663.04348
  21359558.664 6 112245238.494 6  87463859.00047  21359568.66847
  21659142.148 6 113819562.095 6  88690600.90847  21659151.17647
  21486218.555 6 112910785.808 6  87982471.71048  21486228.75848
  23400141.422 4 122968650.762 4  95819696.62446  23400149.90646
  24129448.930 2 126800989.859 2  98806098.42647  24129460.67647
 22  7  3 12 24 25.0000000  0  7G03G04G06G07G09G16G26               
  21045113.156 6 110592807.521 6  86176258.57048  21045124.16048
  21361322.945 6 112254507.398 6  87471081.52247  21361332.76247
  22872563.961 1 120196156.22511                
  21657538.633 6 113811134.302 6  88684033.79847  21657547.26247
  21486511.492 6 112912327.836 6  87983673.27948  21486522.69548
  23401038.570 4 122973364.146 4  95823369.39746  23401047.42646
  24132021.352 2 126814508.685 2  98816632.56147  24132033.57847
 22  7  3 12 24 30.0000000  0  7G03G04G06G07G09G16G26               
  21047576.547 6 110605754.771 6  86186347.33148  21047587.92648
  21363086.797 6 112263779.891 6  87478306.83547  21363097.21947
  22872917.977 1 120198025.041 1                
  21655936.656 6 113802717.708 6  88677475.41247  21655945.19547
  21486805.727 6 112913873.365 6  87984877.58948  21486816.15648
  23401937.828 4 122978091.267 4  95827052.86946  23401946.32846
  24134595.891 2 126828040.313 2  98827176.68347  24134608.37147
 22  7  3 12 24 35.0000000  0  7G03G04G06G07G09G16G26               
  21050043.438 6 110618715.408 6  86196446.52448  21050054.18048
  21364852.594 6 112273056.075 6  87485535.02847  21364861.84047
  22873276.703 1 120199910.213 1                
  21654337.914 6 113794312.372 6  88670925.80247  21654345.88347
  21487100.844 6 112915422.458 6  87986084.67248  21487111.28548
  23402840.531 5 122982832.117 5  95830747.04846  23402848.77746
  24137174.227 3 126841584.736 3  98837730.75747  24137186.29747
 22  7  3 12 24 40.0000000  0  7G03G04G06G07G09G16G26               
  21052512.023 6 110631689.599 6  86206556.28148  21052523.69548
  21366618.219 6 112282336.143 6  87492766.24747  21366627.74247
  22873639.359 1 120201812.005 1                
  21652740.008 6 113785918.540 6  88664385.14647  21652748.66047
  21487395.977 6 112916975.267 6  87987294.65948  21487406.46548
  23403744.219 5 122987586.908 5  95834452.07846  23403753.50846
  24139753.453 3 126855142.228 3  98848295.03847  24139766.10247
 22  7  3 12 24 45.0000000  0  7G03G04G06G07G09G16G26               
  21054983.586 6 110644677.438 6  86216676.67048  21054994.67248
  21368385.477 6 112291620.152 6  87500000.54547  21368394.06647
  22874004.117 1 120203730.490 1                
  21651144.805 6 113777536.268 6  88657853.51447  21651153.66047
  21487692.391 6 112918531.941 6  87988507.64748  21487702.95348
  23404652.422 5 122992355.710 5  95838168.01346  23404661.41046
  24142336.039 3 126868712.800 3  98858869.51147  24142348.78547
 22  7  3 12 24 50.0000000  0  7G03G04G06G07G09G16G26               
  21057457.609 6 110657678.533 6  86226807.39448  21057468.79348
  21370152.297 6 112300907.715 6  87507237.60547  21370161.71147
  22874372.578 1 120205665.285 1                
  21649552.242 6 113769165.184 6  88651330.58847  21649560.72347
  21487988.719 6 112920092.054 6  87989723.32148  21487999.69148
  23405561.836 5 122997138.234 5  95841894.65446  23405571.09446
  24144921.008 2 126882296.095 2  98869453.90547  24144933.74247
 22  7  3 12 24 55.0000000  0  7G03G04G06G07G09G16G26               
  21059933.758 6 110670693.053 6  86236948.57748  21059945.49648
  21371920.953 6 112310199.018 6  87514477.57247  21371929.73047
  22874742.961 1 120207616.553 1                
  21647961.523 6 113760805.460 6  88644816.52447  21647970.09047
  21488286.336 6 112921655.770 6  87990941.80248  21488297.23848
  23406474.477 5 123001934.603 5  95845632.07146  23406484.02046
  24147508.852 2 126895892.218 2  98880048.28947  24147521.61347
 22  7  3 12 25  0.0000000  0  7G03G04G06G07G09G16G26               
  21062413.336 6 110683720.783 6  86247100.05148  21062424.35948
  21373689.406 6 112319493.837 6  87521720.28647  21373698.09847
  22875117.672 1 120209584.097 1                
  21646372.891 6 113752456.902 6  88638311.16047  21646381.42647
  21488584.945 6 112923222.893 6  87992162.93048  21488595.56348
  23407390.156 5 123006744.639 5  95849380.17846  23407399.01646
  24150098.047 2 126909501.018 2  98890652.53647  24150110.62547
 22  7  3 12 25  5.0000000  0  7G03G04G06G07G09G16G26               
  21064895.109 6 110696762.356 6  86257262.31848  21064906.26648
  21375458.586 6 112328792.851 6  87528966.26547  21375467.60247
  22875495.219 1 120211568.527 1                
  21644786.070 6 113744120.179 6  88631815.01047  21644794.49647
  21488884.086 6 112924794.061 6  87993387.22248  21488894.64548
  23408308.289 4 123011568.920 4  95853139.33646  23408317.40246
  24152689.867 3 126923123.111 3  98901267.17247  24152702.95747
 22  7  3 12 25 10.0000000  0  7G03G04G06G07G09G16G26               
  21067379.648 6 110709817.662 6  86267435.28048  21067390.16048
  21377229.625 6 112338095.814 6  87536215.32247  21377238.51247
  22875876.531 1 120213569.777 1                
  21643201.984 6 113735795.101 6  88625327.92647  21643210.07847
  21489183.828 6 112926369.080 6  87994614.50948  21489194.55148
  23409228.984 4 123016407.284 4  95856909.48146  23409237.76646
  24155284.836 3 126936758.327 3  98911892.01347  24155297.46147
 22  7  3 12 25 15.0000000  0  7G03G04G06G07G09G16G26               
  21069866.258 6 110722886.250 6  86277618.59748  21069877.42648
  21378999.922 6 112347402.466 6  87543467.25347  21379009.28947
  22876260.188 1 120215587.318 1                
  21641620.266 6 113727481.316 6  88618849.67047  21641628.42647
  21489483.969 6 112927947.660 6  87995844.56348  21489495.00448
  23410153.516 5 123021259.387 5  95860690.35446  23410161.32046
  24157882.617 3 126950406.321 3  98922526.82347  24157894.18447
 22  7  3 12 25 20.0000000  0  7G03G04G06G07G09G16G26               
  21072355.656 6 110735968.638 6  86287812.64948  21072366.81648
  21380772.109 6 112356713.199 6  87550722.37347  21380781.39547
  22876647.930 1 120217621.822 1                
  21640040.398 6 113719179.312 6  88612380.57847  21640048.29347
  21489785.555 6 112929530.227 6  87997077.73548  21489795.69148
  23411078.586 5 123026125.701 5  95864482.26746  23411087.31346
  24160481.094 2 126964067.560 2  98933171.92547  24160493.49247
 22  7  3 12 25 25.0000000  0  7G03G04G06G07G09G16G26               
  21074847.484 6 110749064.638 6  86298017.31948  21074858.61348
  21382544.391 6 112366027.845 6  87557980.52747  21382553.91047
  22877038.813 1 120219672.922 1                
  21638462.398 6 113710888.878 6  88605920.50148  21638470.94148
  21490086.727 6 112931116.579 6  87998313.85348  21490097.70348
  23412007.359 4 123031005.999 4  95868285.12746  23412016.31646
  24163083.430 2 126977741.769 2  98943827.14747  24163095.73047
 22  7  3 12 25 30.0000000  0  7G03G04G06G07G09G16G26               
  21077342.633 6 110762174.168 6  86308232.53248  21077353.80948
  21384317.727 6 112375346.305 6  87565241.67547  21384327.24647
  22877431.375 1 120221740.658 1                
  21636886.523 6 113702609.970 6  88599469.41048  21636895.44148
  21490389.758 6 112932706.655 6  87999552.86748  21490400.52748
  23412938.938 4 123035900.250 4  95872098.81346  23412947.74646
  24165687.898 2 126991428.982 2  98954492.49047  24165700.14147
 22  7  3 12 25 35.0000000  0  7G03G04G06G07G09G16G26               
  21079839.633 6 110775297.197 6  86318458.26548  21079850.43048
  21386091.789 6 112384668.604 6  87572505.79747  21386101.58647
  22877827.828 1 120223824.933 1                
  21635313.414 6 113694342.574 6  88593027.28247  21635322.60247
  21490692.984 6 112934300.437 6  88000794.78148  21490702.98048
  23413872.563 4 123040808.462 4  95875923.40646  23413881.74246
  24168294.805 3 127005129.089 3  98965167.89547  24168307.04747
 22  7  3 12 25 40.0000000  0  7G03G04G06G07G09G16G26               
  21082339.391 6 110788433.400 6  86328694.26548  21082350.55548
  21387866.313 6 112393994.453 6  87579772.68847  21387875.79347
  22878227.781 1 120225925.519 1                
  21633742.938 6 113686086.403 6  88586593.89947  21633751.28947
  21490997.164 6 112935897.622 6  88002039.34048  21491007.32848
  23414809.258 5 123045730.354 5  95879758.63246  23414818.36346
  24170904.531 4 127018841.803 4  98975853.11947  24170916.32847
 22  7  3 12 25 45.0000000  0  7G03G04G06G07G09G16G26               
  21084842.008 6 110801582.852 6  86338940.59148  21084852.37948
  21389641.742 6 112403323.814 6  87587042.31647  21389651.19547
  22878630.352 1 120228042.455 1                
  21632173.953 6 113677841.441 6  88580169.26147  21632181.91047
  21491301.273 6 112937498.226 6  88003286.55848  21491311.82848
  23415748.336 5 123050665.914 5  95883604.53146  23415757.52346
  24173515.234 4 127032567.115 4  98986548.17647  24173528.35947
 22  7  3 12 25 50.0000000  0  7G03G04G06G07G09G16G26               
  21087346.773 6 110814745.713 6  86349197.36348  21087357.32048
  21391417.711 6 112412656.916 6  87594314.85747  21391427.75447
  22879035.734 1 120230175.791 1                
  21630606.609 6 113669607.880 6  88573753.50147  21630615.35947
  21491606.750 6 112939102.422 6  88004536.58448  21491617.14148
  23416689.906 4 123055615.297 4  95887461.20946  23416699.57846
  24176129.930 4 127046305.223 4  98997253.18847  24176142.20347
 22  7  3 12 25 55.0000000  0  7G03G04G06G07G09G16G26               
  21089853.703 6 110827922.275 6  86359464.80548  21089864.22748
  21393194.211 6 112421994.054 6  87601590.53247  21393204.07047
  22879445.555 1 120232325.938 1                
  21629042.406 6 113661386.101 6  88567346.92547  21629050.00847
  21491912.531 6 112940710.581 6  88005789.68948  21491923.03148
  23417635.000 4 123060578.901 4  95891328.92046  23417643.84446
  24178746.984 4 127060056.461 4  99007968.45447  24178759.14147
 22  7  3 12 26  0.0000000  0  7G03G04G06G07G09G16G26               
  21092363.891 6 110841112.383 6  86369742.81148  21092374.40648
  21394971.805 6 112431335.060 6  87608869.23547  21394981.45347
  22879857.750 1 120234492.801 1                
  21627479.789 6 113653175.881 6  88560949.35247  21627488.14147
  21492219.516 6 112942322.465 6  88007045.69848  21492229.62948
  23418583.359 5 123065556.509 5  95895207.57446  23418590.85246
  24181365.008 3 127073820.631 3  99018693.77747  24181378.94147
 22  7  3 12 26  5.0000000  0  7G03G04G06G07G09G16G26               
  21094876.523 6 110854315.828 6  86380031.20348  21094887.25848
  21396749.813 6 112440679.672 6  87616150.75347  21396759.66847
  22880272.805 1                                
  21625919.781 6 113644977.037 6  88554560.64647  21625927.77747
  21492526.883 6 112943937.868 6  88008304.45748  21492537.14548
  23419533.180 5 123070547.903 5  95899096.98046  23419541.37146
  24183987.477 3 127087597.534 3  99029429.01747  24184000.52347
 22  7  3 12 26 10.0000000  0  7G03G04G06G07G09G16G26               
  21097391.836 6 110867532.623 6  86390330.00348  21097402.41048
  21398528.578 6 112450028.007 6  87623435.16147  21398538.71147
  22880691.539 1 120238875.62111                
  21624361.984 6 113636789.624 6  88548180.85147  21624369.74647
  21492835.406 6 112945556.831 6  88009565.98848  21492845.27748
  23420484.422 5 123075553.134 5  95902997.14646  23420493.37946
  24186611.805 3 127101387.153 3  99040174.17947  24186624.83647
 22  7  3 12 26 15.0000000  0  6G03G04G07G09G16G26                  
  21099908.984 6 110880762.845 6  86400639.25748  21099919.79348
  21400309.070 6 112459380.094 6  87630722.50747  21400318.13747
  21622805.750 6 113628613.721 6  88541810.01147  21622813.93447
  21493143.367 6 112947179.460 6  88010830.38148  21493153.68848
  23421440.555 5 123080572.341 5  95906908.22246  23421448.96146
  24189239.063 4 127115189.596 4  99050929.31347  24189250.66847
 22  7  3 12 26 20.0000000  0  6G03G04G07G09G16G26                  
  21102429.242 6 110894006.292 6  86410958.81548  21102440.09048
  21402089.125 5 112468735.724 5  87638012.60047  21402098.62947
  21621252.156 6 113620449.022 6  88535447.90847  21621260.15247
  21493452.594 6 112948805.538 6  88012097.45448  21493463.05148
  23422398.594 5 123085605.247 5  95910829.93846  23422406.70746
  24191867.375 4 127129004.642 4  99061694.28447  24191878.88347
 22  7  3 12 26 25.0000000  0  6G03G04G07G09G16G26                  
  21104951.813 6 110907263.268 6  86421288.92248  21104963.10248
  21403870.422 5 112478095.193 5  87645305.71147  21403879.71147
  21619701.023 6 113612295.918 6  88529094.84547  21619708.80547
  21493762.977 6 112950435.304 6  88013367.40348  21493773.58248
  23423358.734 5 123090652.140 5  95914762.58646  23423366.46146
  24194499.359 3 127142832.518 3  99072469.25047  24194510.64547
 22  7  3 12 26 30.0000000  0  6G03G04G07G09G16G26                  
  21107477.289 6 110920533.626 6  86431629.45448  21107488.26648
  21405652.219 6 112487458.399 6  87652601.69747  21405661.59447
  21618150.992 6 113604154.362 6  88522750.76847  21618159.30547
  21494073.695 6 112952068.713 6  88014640.18548  21494084.15248
  23424321.313 5 123095712.964 5  95918706.10647  23424329.46947
  24197132.477 3 127156673.198 3  99083254.20847  24197144.12547
 22  7  3 12 26 35.0000000  0  6G03G04G07G09G16G26                  
  21110005.008 6 110933817.202 6  86441980.28948  21110016.11748
  21407434.031 6 112496825.171 6  87659900.47947  21407443.87547
  21616604.438 6 113596024.147 6  88516415.53447  21616611.88747
  21494385.672 6 112953705.573 6  88015915.66348  21494395.45748
  23425287.039 5 123100787.514 5  95922660.27346  23425294.81346
  24199768.195 3 127170526.464 3  99094048.96147  24199780.30147
 22  7  3 12 26 40.0000000  0  6G03G04G07G09G16G26                  
  21112535.695 6 110947114.307 6  86452341.66748  21112546.93848
  21409217.617 6 112506195.784 6  87667202.25547  21409227.02047
  21615059.305 6 113587905.552 6  88510089.35747  21615067.31647
  21494697.859 6 112955346.135 6  88017194.02448  21494707.81348
  23426255.789 5 123105876.086 5  95926625.40346  23426262.85546
  24202407.438 2 127184392.594 2  99104853.74747  24202418.78947
 22  7  3 12 26 45.0000000  0  6G03G04G07G09G16G26                  
  21115068.453 6 110960424.689 6  86462713.39448  21115079.78948
  21411001.484 6 112515569.997 6  87674506.83947  21411011.10947
  21613516.594 6 113579798.390 6  88503772.09647  21613524.74647
  21495010.984 6 112956990.229 6  88018475.13648  21495020.49648
  23427226.586 5 123110978.479 5  95930601.28446  23427233.57446
  24205049.219 1 127198271.412 1  99115668.40447  24205059.37147
 22  7  3 12 26 50.0000000  0  6G03G04G07G09G16G26                  
  21117603.820 6 110973748.415 6  86473095.50648  21117615.36748
  21412786.078 6 112524947.935 6  87681814.31547  21412795.75447
  21611975.758 6 113571702.721 6  88497463.78847  21611983.85547
  21495324.891 6 112958637.878 6  88019759.01948  21495334.69548
  23428200.305 5 123116094.704 5  95934587.93946  23428206.93846
  24207692.555 1 127212162.872 1  99126492.91747  24207703.07047
 22  7  3 12 26 55.0000000  0  6G03G04G07G09G16G26                  
  21120141.367 6 110987085.367 6  86483487.93148  21120153.27748
  21414571.008 6 112534329.398 6  87689124.55047  21414581.35947
  21610437.742 6 113563618.414 6  88491164.33147  21610446.18847
  21495638.359 6 112960288.996 6  88021045.59848  21495648.60248
  23429176.328 5 123121224.665 5  95938585.32646  23429183.53546
  24210337.828 1 127226066.930 1  99137327.21547  24210348.83647
 22  7  3 12 27  0.0000000  0  6G03G04G07G09G16G26                  
  21122682.422 6 111000435.766 6  86493890.83848  21122693.75848
  21416357.492 6 112543714.661 6  87696437.73947  21416367.21947
  21608902.148 6 113555545.658 6  88484873.88347  21608910.02047
  21495953.523 6 112961943.745 6  88022335.01748  21495963.67648
  23430155.125 5 123126368.617 5  95942593.60046  23430162.14146
  24212987.117 2 127239983.763 2  99148171.48347  24212997.14847
 22  7  3 12 27  5.0000000  0  6G03G04G07G09G16G26                  
  21125225.555 6 111013799.733 6  86504304.31148  21125236.48848
  21418143.563 6 112553103.811 6  87703753.96147  21418154.16047
  21607367.547 6 113547484.637 6  88478592.56347  21607376.16847
  21496268.992 6 112963602.323 6  88023627.41548  21496279.20348
  23431136.711 5 123131526.677 5  95946612.86546  23431143.38746
  24215637.383 3 127253913.546 3  99159025.84447  24215647.35547
 22  7  3 12 27 10.0000000  0  6G03G04G07G09G16G26                  
  21127771.156 6 111027176.978 6  86514728.12548  21127782.67648
  21419931.070 6 112562496.630 6  87711073.04647  21419941.07047
  21605835.781 6 113539435.041 6  88472320.15647  21605844.48847
  21496585.109 6 112965264.410 6  88024922.54848  21496595.68448
  23432120.156 5 123136698.592 5  95950642.93446  23432127.68446
  24218290.586 3 127267855.867 3  99169889.99847  24218300.59847
 22  7  3 12 27 15.0000000  0  6G03G04G07G09G16G26                  
  21130319.641 6 111040567.505 6  86525162.30948  21130330.44148
  21421719.945 6 112571893.037 6  87718394.91647  21421729.39847
  21604306.109 6 113531396.866 6  88466056.64647  21604314.60547
  21496902.188 6 112966930.005 6  88026220.40748  21496912.30148
  23433107.469 5 123141884.354 5  95954683.78446  23433114.66846
  24220945.203 3 127281810.831 3  99180764.00047  24220956.81347
 22  7  3 12 27 20.0000000  0  6G03G04G07G09G16G26                  
  21132870.188 6 111053971.362 6  86535606.86548  21132881.23048
  21423508.344 6 112581293.162 6  87725719.69147  21423518.23447
  21602778.539 6 113523370.216 6  88459802.11947  21602787.42247
  21497219.313 6 112968599.156 6  88027521.04748  21497229.82048
  23434096.453 5 123147084.025 5  95958735.47646  23434104.36346
  24223603.836 4 127295778.429 4  99191647.83547  24223615.36747
 22  7  3 12 27 25.0000000  0  7G03G04G06G07G09G16G26               
  21135423.023 6 111067388.475 6  86546061.74848  21135434.51248
  21425297.492 6 112590696.850 6  87733047.23247  21425307.40647
  22887348.406 1 120273717.59911                
  21601253.891 6 113515354.991 6  88453556.49247  21601262.49647
  21497538.023 6 112970271.800 6  88028824.40548  21497548.46948
  23435088.344 5 123152297.462 5  95962797.89946  23435096.23846
  24226264.164 4 127309758.615 4  99202541.47647  24226275.21547
 22  7  3 12 27 30.0000000  0  7G03G04G06G07G09G16G26               
  21137979.195 6 111080818.751 6  86556526.90448  21137989.55148
  21427087.797 6 112600104.076 6  87740377.54447  21427097.57047
  22887815.656 1 120276180.501 1                
  21599730.477 6 113507351.161 6  88447319.74947  21599739.34447
  21497857.117 6 112971947.851 6  88030130.41748  21497867.64848
  23436084.125 5 123157524.645 5  95966871.01546  23436091.04346
  24228926.508 4 127323751.270 4  99213444.84547  24228938.09047
 22  7  3 12 27 35.0000000  0  7G03G04G06G07G09G16G26               
  21140536.930 6 111094262.484 6  86567002.54548  21140547.84848
  21428878.969 6 112609515.088 6  87747710.80647  21428888.63347
  22888286.508 1 120278659.861 1                
  21598209.383 6 113499358.958 6  88441092.06347  21598218.05147
  21498176.500 6 112973627.581 6  88031439.30448  21498187.23848
  23437081.656 5 123162765.826 5  95970955.05546  23437088.77746
  24231591.617 3 127337756.703 3  99224358.16047  24231603.82047
 22  7  3 12 27 40.0000000  0  7G03G04G06G07G09G16G26               
  21143098.227 6 111107719.992 6  86577488.90548  21143108.59448
  21430670.070 6 112618930.219 6  87755047.26647  21430680.39147
  22888760.633 1 120281156.217 1                
  21596691.063 6 113491378.751 6  88434873.69747  21596699.83247
  21498497.398 6 112975311.317 6  88032751.31148  21498507.73448
  23438080.234 5 123168021.333 5  95975050.26547  23438088.50847
  24234259.680 3 127351775.180 3  99235281.64947  24234271.26247
 22  7  3 12 27 45.0000000  0  7G03G04G06G07G09G16G26               
  21145661.266 6 111121190.928 6  86587985.73448  21145671.74248
  21432462.961 5 112628349.166 5  87762386.70547  21432472.33647
  22889240.242 1 120283669.105 1                
  21595174.297 6 113483410.132 6  88428664.40147  21595183.55147
  21498817.836 6 112976998.738 6  88034066.18248  21498828.82448
  23439083.109 5 123173290.869 5  95979156.40546  23439091.57046
  24236929.352 3 127365806.385 3  99246215.04847  24236941.37947
 22  7  3 12 27 50.0000000  0  7G03G04G06G07G09G16G26               
  21148227.234 6 111134674.923 6  86598492.74148  21148237.91448
  21434256.047 5 112637771.532 5  87769728.81847  21434265.57847
  22889722.648 1 120286198.188 1                
  21593660.195 6 113475452.857 6  88422463.92647  21593669.24647
  21499139.859 6 112978689.516 6  88035383.66548  21499150.58648
  23440089.250 5 123178574.035 5  95983273.16546  23440097.07446
  24239601.773 3 127379849.999 3  99257158.11647  24239614.26247
 22  7  3 12 27 55.0000000  0  7G03G04G06G07G09G16G26               
  21150796.156 6 111148172.582 6  86609010.39548  21150806.12948
  21436049.836 6 112647197.883 6  87777074.01547  21436059.32847
  22890206.203 1 120288744.033 1                
  21592148.055 6 113467507.448 6  88416272.70647  21592157.16447
  21499462.602 6 112980384.148 6  88036704.14648  21499472.72748
  23441096.961 5 123183871.455 5  95987401.02346  23441105.18446
  24242276.828 3 127393906.546 3  99268111.26547  24242289.19547
 22  7  3 12 28  0.0000000  0  7G03G04G06G07G09G16G26               
  21153366.898 6 111161683.326 6  86619538.24148  21153377.05148
  21437843.953 6 112656627.692 6  87784421.91947  21437853.18447
  22890694.133 1 120291306.110 1                
  21590638.148 6 113459573.381 6  88410090.31947  21590647.28547
  21499785.453 6 112982082.124 6  88038027.24148  21499796.18048
  23442108.250 5 123189182.543 5  95991539.53246  23442116.15646
  24244954.164 3 127407975.440 3  99279074.04047  24244966.81347
 22  7  3 12 28  5.0000000  0  7G03G04G06G07G09G16G26               
  21155940.219 6 111175207.123 6  86630076.25748  21155950.34448
  21439638.711 6 112666060.922 6  87791772.48947  21439648.48047
  22891183.750 1                                
  21589130.617 6 113451650.590 6  88403916.71847  21589139.82047
  21500109.430 6 112983783.415 6  88039352.92048  21500120.03548
  23443120.898 5 123194507.265 5  95995688.66947  23443129.26247
  24247634.734 2 127422056.669 2  99290046.42447  24247646.75047
 22  7  3 12 28 10.0000000  0  7G03G04G06G07G09G16G26               
  21158516.117 6 111188744.240 6  86640624.65948  21158526.60248
  21441435.039 6 112675497.831 6  87799125.91247  21441444.37147
  22891677.977 1 120296479.15311                
  21587625.156 6 113443739.414 6  88397752.17747  21587633.91047
  21500433.516 6 112985488.247 6  88040681.36548  21500444.45348
  23444137.031 5 123199845.934 5  95999848.67647  23444145.23847
  24250315.563 2 127436150.522 2  99301028.63547  24250329.30947
 22  7  3 12 28 15.0000000  0  7G03G04G06G07G09G16G26               
  21161094.789 6 111202294.747 6  86651183.47848  21161105.37948
  21443231.039 6 112684938.473 6  87806482.25747  21443240.99647
  22892175.227 1 120299090.396 1                
  21586121.852 6 113435839.911 6  88391596.71847  21586130.55547
  21500758.742 6 112987196.748 6  88042012.66048  21500769.43848
  23445156.172 5 123205198.610 5  96004019.58846  23445164.08246
  24253000.063 2 127450257.019 2  99312020.70547  24253013.58647
 22  7  3 12 28 20.0000000  0  7G03G04G06G07G09G16G26               
  21163675.633 6 111215858.837 6  86661752.89748  21163686.50048
  21445028.461 6 112694383.102 6  87813841.70047  21445038.02347
  22892676.102 1 120301718.429 1                
  21584621.930 6 113427952.272 6  88385450.50647  21584629.49247
  21501084.367 6 112988909.076 6  88043346.94048  21501095.29748
  23446176.727 5 123210565.496 5  96008201.58547  23446184.71147
  24255688.141 1 127464376.392 1  99323022.79947  24255700.37147
 22  7  3 12 28 25.0000000  0  7G03G04G06G07G09G16G26               
  21166259.328 6 111229436.359 6  86672332.77848  21166269.98448
  21446826.539 6 112703831.507 6  87821204.10247  21446836.25847
  22893178.844 1 120304363.019 1                
  21583122.242 6 113420076.327 6  88379313.41147  21583130.87147
  21501411.531 6 112990625.077 6  88044684.08148  21501422.11748
  23447200.313 6 123215946.365 6  96012394.47247  23447209.15647
  24258377.773 1 127478508.455 1  99334034.78547  24258389.84847
 22  7  3 12 28 30.0000000  0  7G03G04G06G07G09G16G26               
  21168845.805 6 111243027.353 6  86682923.15748  21168856.35248
  21448625.063 6 112713283.771 6  87828569.49947  21448634.95347
  22893686.492 1 120307024.211 1                
  21581626.039 6 113412212.157 6  88373185.49547  21581634.07047
  21501738.289 6 112992344.831 6  88046024.14748  21501749.08648
  23448227.227 5 123221341.402 5  96016598.40847  23448235.53147
  24261069.281 1 127492653.207 1  99345056.66147  24261081.30547
 22  7  3 12 28 35.0000000  0  7G03G04G06G07G09G16G26               
  21171434.695 6 111256631.696 6  86693523.93648  21171445.32448
  21450425.008 6 112722739.763 6  87835937.80847  21450434.25047
  22894195.734 1 120309701.957 1                
  21580131.234 6 113404359.617 6  88367066.63547  21580139.85547
  21502066.219 6 112994068.223 6  88047367.05548  21502077.11748
  23449256.516 5 123226750.394 5  96020813.21447  23449264.98447
  24263762.391 2 127506810.659 2  99356088.44147  24263775.55547
 22  7  3 12 28 40.0000000  0  7G03G04G06G07G09G16G26               
  21174026.008 6 111270249.416 6  86704135.13248  21174036.17648
  21452224.125 5 112732199.478 5  87843309.00947  21452234.06347
  22894706.516 1 120312396.151 1                
  21578639.570 6 113396518.729 6  88360956.85447  21578648.11747
  21502394.758 6 112995795.209 6  88048712.75348  21502405.88748
  23450289.094 5 123232173.427 5  96025038.93946  23450296.75446
  24266459.172 2 127520980.656 2  99367129.99547  24266471.92647
 22  7  3 12 28 45.0000000  0  7G03G04G06G07G09G16G26               
  21176620.203 6 111283880.500 6  86714756.75148  21176630.38348
  21454026.281 5 112741662.964 5  87850683.16047  21454034.97347
  22895222.781 1 120315106.882 1                
  21577149.586 6 113388689.562 6  88354856.21847  21577158.12147
  21502723.828 6 112997525.871 6  88050061.31448  21502734.76648
  23451322.953 5 123237610.470 5  96029275.58747  23451331.16447
  24269157.836 1 127535163.285 1  99378181.39947  24269170.68047
 22  7  3 12 28 50.0000000  0  7G03G04G06G07G09G16G26               
  21179216.391 6 111297525.025 6  86725388.83748  21179227.00848
  21455827.344 6 112751130.206 6  87858060.23347  21455836.39547
  22895742.313 1 120317834.246 1                
  21575661.578 6 113380872.121 6  88348764.72347  21575670.35547
  21503054.016 6 112999260.192 6  88051412.73748  21503064.58248
  23452360.781 5 123243061.595 5  96033523.22146  23452369.09046
  24271857.406 1 127549358.564 1  99389242.66547  24271871.44947
 22  7  3 12 28 55.0000000  0  7G03G04G06G07G09G16G26               
  21181815.078 6 111311182.672 6  86736031.14648  21181825.62548
  21457629.641 5 112760600.998 5  87865440.07447  21457638.33647
  22896264.102 1 120320577.865 1                
  21574176.484 6 113373066.161 6  88342682.16747  21574185.44947
  21503384.695 6 113000997.954 6  88052766.83248  21503395.69548
  23453399.938 5 123248526.484 5  96037781.56446  23453408.71946
  24274560.695 1 127563566.290 1  99400313.61047  24274574.78947
 22  7  3 12 29  0.0000000  0  7G03G04G06G07G09G16G26               
  21184416.617 6 111324853.840 6  86746683.99848  21184427.13348
  21459432.398 6 112770075.698 6  87872822.95047  21459441.46547
  22896788.742 1 120323338.258 1                
  21572693.313 6 113365272.071 6  88336608.85847  21572701.98847
  21503716.039 6 113002739.500 6  88054123.87148  21503727.10948
  23454443.383 5 123254005.589 5  96042050.99446  23454450.89846
  24277266.570 1 127577786.688 1  99411394.42547  24277280.58647
 22  7  3 12 29  5.0000000  0  7G03G04G06G07G09G16G26               
  21187021.242 6 111338538.441 6  86757347.32448  21187031.74248
  21461236.523 6 112779554.196 6  87880208.79947  21461245.39547
  22897318.570 1 120326115.141 1                
  21571212.516 6 113357489.736 6  88330544.70447  21571220.97747
  21504049.023 6 113004484.716 6  88055483.78948  21504059.09848
  23455488.688 5 123259498.770 5  96046331.38946  23455496.40246
  24279975.813 1 127592019.835 1  99422485.15247  24279989.34447
 22  7  3 12 29 10.0000000  0  7G03G04G06G07G09G16G26               
  21189628.039 6 111352236.270 6  86768020.94948  21189638.44148
  21463040.234 5 112789036.339 5  87887597.47947  21463049.58647
  22897849.867 1 120328908.376 1                
  21569733.523 6 113349718.968 6  88324489.56947  21569742.84447
  21504381.422 6 113006233.452 6  88056846.43848  21504391.42248
  23456536.813 5 123265005.814 5  96050622.59746  23456544.28146
  24282687.047 1 127606265.399 1  99433585.58947  24282700.21147
 22  7  3 12 29 15.0000000  0  7G03G04G06G07G09G16G26               
  21192236.930 6 111365947.529 6  86778705.04048  21192247.09848
  21464846.313 5 112798522.288 5  87894989.13147  21464855.19947
  22898386.391 1 120331718.270 1                
  21568257.500 6 113341960.014 6  88318443.64147  21568266.32847
  21504714.984 6 113007985.930 6  88058212.00248  21504725.34048
  23457587.711 5 123270527.023 5  96054924.86146  23457594.82446
  24285399.594 2 127620523.652 2  99444695.90247  24285412.75447
 22  7  3 12 29 20.0000000  0  7G03G04G06G07G09G16G26               
  21194848.742 6 111379671.970 6  86789399.39948  21194859.25048
  21466651.828 6 112808011.800 6  87902383.55047  21466660.49247
  22898922.156 1 120334544.551 1                
  21566782.859 6 113334212.535 6  88312406.65547  21566791.96947
  21505048.867 6 113009741.851 6  88059580.25548  21505059.37548
  23458640.516 5 123276062.026 5  96059237.84846  23458648.41446
  24288114.844 1 127634794.289 1  99455815.87347  24288128.47347
 22  7  3 12 29 25.0000000  0  7G03G04G06G07G09G16G26               
  21197463.063 6 111393409.508 6  86800103.97348  21197473.23448
  21468458.078 6 112817504.781 6  87909780.67747  21468467.55147
  22899463.492 1 120337387.105 1                
  21565310.797 6 113326476.587 6  88306378.65847  21565319.88347
  21505383.711 6 113011501.188 6  88060951.15148  21505393.73848
  23459696.281 5 123281610.918 5  96063561.65246  23459704.23446
  24290834.672 1 127649077.209 1  99466945.39947  24290846.33647
 22  7  3 12 29 30.0000000  0  7G03G04G06G07G09G16G26               
  21200079.438 6 111407160.279 6  86810818.85148  21200089.84448
  21470264.719 6 112827001.444 6  87917180.67347  21470274.28947
  22900006.703 1 120340246.060 1                
  21563840.586 6 113318752.264 6  88300359.71047  21563849.20747
  21505719.109 6 113013264.010 6  88062324.77148  21505729.33248
  23460754.977 5 123287173.701 5  96067896.28646  23460763.26246
  24293553.078 1 127663372.601 1  99478084.64947  24293566.89147
 22  7  3 12 29 35.0000000  0  7G03G04G06G07G09G16G26               
  21202699.094 6 111420924.512 6  86821544.22648  21202709.45748
  21472072.969 6 112836501.929 6  87924583.63647  21472082.02747
  22900553.984 1 120343121.587 1                
  21562373.563 6 113311039.832 6  88294350.02147  21562381.65247
  21506055.234 6 113015030.574 6  88063701.30848  21506065.63748
  23461815.953 5 123292750.621 5  96072241.95146  23461824.52746
  24296277.703 1 127677680.670 1  99489233.76147  24296288.94547
 22  7  3 12 29 40.0000000  0  7G03G04G06G07G09G16G26               
  21205321.000 6 111434702.098 6  86832280.00248  21205331.50848
  21473881.406 6 112846006.177 6  87931989.53447  21473890.69947
  22901105.445 1 120346013.669 1                
  21560908.430 6 113303339.165 6  88288349.49747  21560916.22747
  21506392.555 6 113016800.800 6  88065080.70748  21506402.55548
  23462879.969 5 123298341.590 5  96076598.56046  23462888.01646
  24299002.695 1 127692001.207 1  99500392.60947  24299014.07447
 22  7  3 12 29 45.0000000  0  7G03G04G06G07G09G16G26               
  21207944.805 6 111448492.678 6  86843025.91248  21207955.58648
  21475690.117 6 112855513.822 6  87939398.09247  21475700.05947
  22901659.664 1 120348921.96211                
  21559444.422 6 113295649.927 6  88282357.87847  21559453.12147
  21506729.938 6 113018574.333 6  88066462.67848  21506740.23848
  23463946.766 5 123303946.323 5  96080965.86946  23463954.90246
  24301729.461 2 127706334.079 2  99511561.08247  24301741.35247
 22  7  3 12 29 50.0000000  0  7G03G04G06G07G09G16G26               
  20910779.531 6 109886879.079 6  85626184.13648  20910790.61348
  21177708.234 6 111289606.819 6  86719210.82147  21177718.20347
  22602421.711 1 118776427.105 1                
  21258190.969 6 111712550.627 6  87048774.01647  21258198.90647
  21207275.195 6 111444931.566 6  86840247.52448  21207285.77348
  23165223.359 5 121734145.901 5  94857744.76046  23165231.23046
  24004668.086 2 126145261.957 2  98295141.22847  24004679.37947
 22  7  3 12 29 55.0000000  0  7G03G04G06G07G09G16G26               
  20913408.938 6 109900695.938 6  85636950.52148  20913420.01248
  21179518.875 6 111299121.536 6  86726624.87147  21179528.88747
  22602979.250 1 118779367.99911                
  21256731.734 6 111704884.519 6  87042800.42847  21256740.50447
  21207614.148 6 111446711.954 6  86841634.82848  21207624.71548
  23166295.164 5 121739778.278 5  94862133.63346  23166303.14146
  24007399.039 2 126159619.358 2  98306328.80947  24007411.08247
 22  7  3 12 30  0.0000000  0  6G03G04G07G09G16G26                  
  20916040.664 6 109914526.262 6  85647727.39048  20916051.84048
  21181330.219 6 111308640.119 6  86734041.96047  21181340.12147
  21255275.352 6 111697230.346 6  87036836.13847  21255283.57047
  21207953.344 6 111448496.119 6  86843025.08348  21207963.82048
  23167369.734 5 121745424.855 5  94866533.55146  23167377.77346
  24010134.211 2 126173989.510 2  98317526.32147  24010145.57047
 22  7  3 12 30  5.0000000  0  6G03G04G07G09G16G26                  
  20918675.242 6 109928370.032 6  85658514.74048  20918686.06348
  21183142.188 6 111318162.570 6  86741462.05247  21183151.88747
  21253821.391 6 111689588.077 6  87030881.12447  21253829.06347
  21208294.219 6 111450284.039 6  86844418.26648  21208304.62948
  23168446.633 5 121751085.615 5  94870944.54546  23168454.62146
  24012871.000 2 126188372.213 2  98328733.61147  24012882.55547
 22  7  3 12 30 10.0000000  0  6G03G04G07G09G16G26                  
  20921312.383 6 109942226.753 6  85669312.18048  20921322.99248
  21184955.703 5 111327688.381 5  86748884.76847  21184964.60547
  21252369.195 6 111681957.208 6  87024935.00547  21252377.09847
  21208634.625 6 111452075.208 6  86845813.98148  21208645.45348
  23169527.484 5 121756760.067 5  94875366.19246  23169534.69546
  24015609.930 3 126202767.044 3  98339950.36647  24015621.61747
 22  7  3 12 30 15.0000000  0  6G03G04G07G09G16G26                  
  20923951.875 6 109956096.355 6  85680119.65548  20923962.25848
  21186768.688 6 111337217.506 6  86756310.05247  21186778.16047
  21250919.422 6 111674337.687 6  87018997.71647  21250927.38347
  21208976.344 6 111453869.582 6  86847212.19548  21208987.06348
  23170609.805 5 121762448.138 5  94879798.45046  23170617.01646
  24018352.078 3 126217173.966 3  98351176.54447  24018362.72747
 22  7  3 12 30 20.0000000  0  6G03G04G07G09G16G26                  
  20926593.219 6 109969979.242 6  85690937.48748  20926604.14548
  21188582.563 6 111346750.350 6  86763738.24947  21188591.87947
  21249471.477 6 111666729.938 6  87013069.60547  21249479.74247
  21209318.328 6 111455667.538 6  86848613.19348  21209329.10248
  23171694.711 5 121768150.226 5  94884241.64746  23171702.51646
  24021096.508 2 126231593.332 2  98362412.41347  24021107.24647
 22  7  3 12 30 25.0000000  0  6G03G04G07G09G16G26                  
  20929237.758 6 109983875.487 6  85701765.72048  20929248.69948
  21190397.305 6 111356286.949 6  86771169.35447  21190406.76647
  21248026.297 6 111659134.022 6  87007150.71447  21248034.28147
  21209661.328 6 111457469.213 6  86850017.09948  21209671.87548
  23172781.469 5 121773866.419 5  94888695.83546  23172790.38746
  24023842.977 2 126246025.201 2  98373658.02147  24023853.39547
 22  7  3 12 30 30.0000000  0  6G03G04G07G09G16G26                  
  20931884.586 6 109997785.174 6  85712604.42848  20931895.42248
  21192212.719 6 111365827.377 6  86778603.46047  21192222.35547
  21246583.086 6 111651550.002 6  87001241.09547  21246591.13747
  21210004.547 6 111459274.574 6  86851423.87048  21210015.34848
  23173872.117 5 121779596.734 5  94893161.02447  23173880.83647
  24026591.055 3 126260469.627 3  98384913.41147  24026602.34447
 22  7  3 12 30 35.0000000  0  6G03G04G07G09G16G26                  
  20934533.805 6 110011707.646 6  85723453.09848  20934544.93448
  21194028.945 5 111375371.084 5  86786040.10747  21194038.28147
  21245141.813 6 111643977.332 6  86995340.31447  21245150.15247
  21210348.930 6 111461083.097 6  86852833.11748  21210359.74648
  23174964.758 5 121785340.674 5  94897636.80046  23174973.71146
  24029342.320 4 126274926.101 4  98396178.20347  24029353.67647
 22  7  3 12 30 40.0000000  0  6G03G04G07G09G16G26                  
  20937185.781 6 110025643.364 6  85734312.08648  20937196.77748
  21195845.625 6 111384918.449 6  86793479.61547  21195854.87147
  21243702.609 6 111636416.424 6  86989448.69747  21243711.47347
  21210694.398 6 111462895.171 6  86854245.12148  21210704.72348
  23176062.156 4 121791098.621 4  94902123.50846  23176069.73446
  24032095.297 4 126289394.910 4  98407452.60247  24032106.96147
 22  7  3 12 30 45.0000000  0  6G03G04G07G09G16G26                  
  20939839.922 6 110039592.188 6  85745181.29648  20939850.65648
  21197662.773 6 111394469.286 6  86800921.82847  21197672.18847
  21242266.180 6 111628867.050 6  86983566.06447  21242274.83647
  21211039.422 6 111464710.644 6  86855659.78348  21211050.17648
  23177159.789 4 121796870.356 4  94906620.95946  23177167.18846
  24034850.766 3 126303875.971 3  98418736.53047  24034862.81347
 22  7  3 12 30 50.0000000  0  6G03G04G07G09G16G26                  
  20942497.000 6 110053554.409 6  85756060.93848  20942507.77048
  21199481.352 5 111404024.005 5  86808367.07347  21199490.51247
  21240832.086 6 111621329.680 6  86977692.79247  21240840.86747
  21211385.594 6 111466529.896 6  86857077.37648  21211396.61348
  23178260.719 5 121802656.301 5  94911129.49946  23178268.67646
  24037609.469 2 126318369.593 2  98430030.24147  24037620.91447
 22  7  3 12 30 55.0000000  0  6G03G04G07G09G16G26                  
  20945156.188 6 110067529.668 6  85766950.74248  20945166.96148
  21201300.461 6 111413582.181 6  86815815.00047  21201309.44947
  21239400.273 6 111613803.879 6  86971828.55547  21239408.65247
  21211732.398 6 111468352.506 6  86858497.58948  21211743.22748
  23179364.008 5 121808456.094 5  94915648.79846  23179372.53146
  24040369.500 2 126332875.368 2  98441333.42447  24040381.52747
 22  7  3 12 31  0.0000000  0  6G03G04G07G09G16G26                  
  20947818.023 6 110081518.397 6  85777851.03648  20947829.00448
  21203119.695 5 111423144.230 5  86823265.95247  21203129.41047
  21237970.781 6 111606290.052 6  86965973.62547  21237978.54747
  21212080.023 6 111470178.893 6  86859920.75248  21212090.86748
  23180470.016 5 121814270.129 5  94920179.21846  23180478.71946
  24043131.656 2 126347393.758 2  98452646.43847  24043144.78547
 22  7  3 12 31  5.0000000  0  6G03G04G07G09G16G26                  
  20950482.492 6 110095520.531 6  85788761.78448  20950493.71548
  21204940.031 6 111432710.177 6  86830719.94447  21204949.60947
  21236542.547 6 111598788.189 6  86960128.02947  21236551.46947
  21212428.195 6 111472009.044 6  86861346.84748  21212439.13748
  23181579.367 5 121820098.393 5  94924720.73746  23181588.02346
  24045896.938 2 126361924.670 2  98463969.22747  24045910.15647
 22  7  3 12 31 10.0000000  0  6G03G04G07G09G16G26                  
  20953149.844 6 110109535.650 6  85799682.64948  20953160.48448
  21206760.789 6 111442279.515 6  86838176.57447  21206770.32447
  21235117.555 6 111591297.849 6  86954291.40547  21235125.76647
  21212777.453 6 111473842.502 6  86862775.51648  21212787.74648
  23182690.984 5 121825940.351 5  94929272.93046  23182699.77046
  24048664.367 1 126376467.693 1  98475301.44647  24048677.30147
 22  7  3 12 31 15.0000000  0  6G03G04G07G09G16G26                  
  20955819.156 6 110123563.727 6  85810613.60448  20955830.31348
  21208582.328 5 111451852.248 5  86845635.84147  21208591.96947
  21233694.289 6 111583819.048 6  86948463.76847  21233702.33647
  21213126.516 6 111475679.276 6  86864206.76448  21213137.18848
  23183804.844 4 121831796.111 4  94933835.86546  23183814.46146
  24051434.461 2 126391022.792 2  98486643.07947  24051446.73047
 22  7  3 12 31 20.0000000  0  6G03G04G07G09G16G26                  
  20958491.336 6 110137604.588 6  85821554.51948  20958502.09448
  21210404.555 5 111461428.231 5  86853097.64847  21210414.47347
  21232273.305 6 111576351.614 6  86942644.97947  21232281.46147
  21213476.977 6 111477519.157 6  86865640.43448  21213487.44148
  23184921.250 4 121837665.440 4  94938409.36046  23184931.11746
  24054206.008 3 126405589.771 3  98497993.97247  24054218.69547
 22  7  3 12 31 25.0000000  0  6G03G04G07G09G16G26                  
  20961165.516 6 110151658.964 6  85832505.97748  20961176.31348
  21212228.016 5 111471008.199 5  86860562.55647  21212237.84847
  21230854.164 6 111568896.283 6  86936835.63347  21230862.59847
  21213827.484 6 111479362.920 6  86867077.14348  21213838.07048
  23186041.641 5 121843549.050 5  94942993.98846  23186050.50446
  24056980.969 3 126420169.365 3  98509354.69347  24056992.87947
 22  7  3 12 31 30.0000000  0  7G03G04G06G07G09G16G26               
  20963842.094 6 110165726.281 6  85843467.51448  20963853.67648
  21214051.328 6 111480591.521 6  86868030.07847  21214060.80947
  22614207.703 1                                
  21229437.125 6 111561452.498 6  86931035.27647  21229445.86347
  21214179.469 6 111481209.946 6  86868516.38648  21214189.43848
  23187164.711 5 121849446.499 5  94947589.41147  23187173.16847
  24059756.445 3 126434761.026 3  98520724.81847  24059770.02347
 22  7  3 12 31 35.0000000  0  7G03G04G06G07G09G16G26               
  20966521.734 6 110179806.497 6  85854439.10348  20966532.89148
  21215876.039 6 111490178.255 6  86875500.25347  21215885.29747
  22614830.422 2 118841697.21512                
  21228023.297 6 111554020.271 6  86925243.93147  21228031.46547
  21214531.539 6 111483060.279 6  86869958.21348  21214542.23448
  23188288.938 5 121855357.665 5  94952195.52346  23188298.08246
  24062536.203 3 126449364.721 3  98532104.32147  24062548.78947
 22  7  3 12 31 40.0000000  0  7G03G04G06G07G09G16G26               
  20969203.391 6 110193900.146 6  85865421.15248  20969215.11348
  21217700.453 5 111499768.812 5  86882973.41647  21217710.30947
  22615455.672 2 118844982.140 2                
  21226611.383 6 111546600.007 6  86919461.91047  21226619.96147
  21214884.289 6 111484914.368 6  86871402.95348  21214894.76248
  23189416.836 5 121861283.086 5  94956812.73346  23189425.41446
  24065318.625 2 126463980.927 2  98543493.56047  24065330.46947
 22  7  3 12 31 45.0000000  0  7G03G04G06G07G09G16G26               
  20971888.359 6 110208006.765 6  85876413.32048  20971899.44148
  21219526.641 5 111509362.838 5  86890449.28147  21219535.99247
  22616083.516 3 118848283.298 3                
  21225201.828 6 111539191.323 6  86913688.90747  21225210.18847
  21215237.516 6 111486771.767 6  86872850.27448  21215247.94148
  23190547.430 5 121867222.297 5  94961440.68846  23190555.63746
  24068101.273 3 126478609.194 3  98554892.19747  24068114.05147
 22  7  3 12 31 50.0000000  0  7G03G04G06G07G09G16G26               
  20974574.852 6 110222126.237 6  85887415.50148  20974586.23048
  21221352.547 5 111518960.167 5  86897927.71947  21221362.52347
  22616715.016 2 118851600.546 2                
  21223794.125 6 111531794.121 6  86907924.85947  21223802.46547
  21215591.938 6 111488632.420 6  86874300.13448  21215602.21148
  23191679.508 5 121873175.195 5  94966079.29746  23191688.59046
  24070886.664 3 126493249.431 3  98566300.14647  24070900.28947
 22  7  3 12 31 55.0000000  0  7G03G04G06G07G09G16G26               
  20977264.648 6 110236258.920 6  85898427.97248  20977275.62948
  21223179.680 5 111528561.153 5  86905409.00347  21223189.54747
  22617349.250 2 118854934.209 2                
  21222388.523 6 111524408.802 6  86902170.07247  21222397.06347
  21215946.633 6 111490496.611 6  86875752.74948  21215956.78148
  23192815.086 5 121879142.101 5  94970728.83946  23192824.01246
  24073676.023 3 126507901.922 3  98577717.66547  24073688.71147
 22  7  3 12 32  0.0000000  0  7G03G04G06G07G09G16G26               
  20979956.508 6 110250404.609 6  85909450.58948  20979967.42248
  21225007.375 5 111538165.636 5  86912893.01447  21225017.00847
  22617986.625 2 118858284.165 2                
  21220985.250 6 111517035.135 6  86896424.35947  21220993.67647
  21216301.961 6 111492364.208 6  86877208.02448  21216312.12548
  23193953.148 5 121885122.889 5  94975389.19146  23193961.85946
  24076466.570 2 126522566.545 2  98589144.62247  24076479.55547
 22  7  3 12 32  5.0000000  0  7G03G04G06G07G09G16G26               
  20982650.648 6 110264563.249 6  85920483.28748  20982661.92648
  21226835.508 5 111547773.535 5  86920379.69047  21226845.47747
  22618626.336 1 118861650.263 1                
  21219584.430 6 111509673.046 6  86890687.66247  21219593.09847
  21216657.750 6 111494235.128 6  86878665.87948  21216668.36348
  23195093.742 5 121891117.461 5  94980060.30046  23195102.44946
  24079258.711 2 126537243.188 2  98600580.95047  24079272.29747
 22  7  3 12 32 10.0000000  0  7G03G04G06G07G09G16G26               
  20985347.391 6 110278735.092 6  85931526.27548  20985358.69148
  21228665.102 5 111557385.124 5  86927869.24347  21228674.77747
  22619270.492 1 118865032.817 1                
  21218185.953 6 111502322.834 6  86884960.23447  21218194.15247
  21217014.734 6 111496109.603 6  86880126.51348  21217024.94948
  23196238.047 5 121897126.101 5  94984742.34146  23196245.68046
  24082052.844 2 126551932.073 2  98612026.83147  24082067.42647
 22  7  3 12 32 15.0000000  0  7G03G04G06G07G09G16G26               
  20988046.500 6 110292920.285 6  85942579.66448  20988058.06648
  21230494.266 6 111567000.513 6  86935361.74847  21230504.26647
  22619917.438 1 118868431.926 1                
  21216789.922 6 111494984.656 6  86879242.17247  21216797.73447
  21217371.797 6 111497987.802 6  86881590.03848  21217382.13748
  23197383.813 5 121903148.930 5  94989435.45446  23197391.84046
  24084851.797 2 126566633.445 2  98623482.44147  24084864.68447
 22  7  3 12 32 20.0000000  0  7G03G04G06G07G09G16G26               
  20990748.836 6 110307118.383 6  85953643.11148  20990760.09048
  21232325.438 6 111576619.279 6  86942856.89847  21232334.62547
  22620567.781 1 118871847.166 1                
  21215395.398 6 111487658.046 6  86873533.12447  21215403.61347
  21217729.891 6 111499869.294 6  86883056.14048  21217740.24648
  23198531.523 5 121909185.501 5  94994139.27646  23198540.31346
  24087651.727 2 126581346.701 2  98634947.30947  24087664.44947
 22  7  3 12 32 25.0000000  0  7G03G04G06G07G09G16G26               
  20993452.852 6 110321329.609 6  85964716.78848  20993464.05948
  21234156.500 6 111586241.706 6  86950354.88547  21234165.74247
  22621221.328 2 118875278.774 2                
  21214003.273 6 111480343.270 6  86867833.29247  21214011.37147
  21218088.867 6 111501754.318 6  86884524.98348  21218098.89548
  23199683.000 5 121915236.111 5  94998854.04546  23199691.68846
  24090453.258 1 126596072.270 1  98646421.76747  24090466.44947
 22  7  3 12 32 30.0000000  0  7G03G04G06G07G09G16G26               
  20996159.430 6 110335553.881 6  85975800.64248  20996170.94148
  21235988.648 6 111595867.616 6  86957855.58447  21235997.28947
  22621876.297 2 118878726.713 2                
  21212613.453 6 111473040.221 6  86862142.60347  21212621.87147
  21218447.867 6 111503642.740 6  86885996.47948  21218458.05948
  23200837.453 5 121921300.657 5  95003579.66446  23200845.78146
  24093259.008 2 126610809.837 2  98657905.58647  24093270.98847
 22  7  3 12 32 35.0000000  0  7G03G04G06G07G09G16G26               
  20998868.250 6 110349791.116 6  85986894.58448  20998880.08248
  21237820.086 6 111605496.997 6  86965358.99647  21237829.83247
  22622534.883 2 118882190.832 2                
  21211226.242 6 111465748.829 6  86856460.99447  21211234.18047
  21218808.352 6 111505534.521 6  86887470.59148  21218818.37948
  23201993.883 5 121927379.020 5  95008316.01146  23202002.34046
  24096065.148 2 126625559.457 2  98669398.77047  24096077.97347
 22  7  3 12 32 40.0000000  0  7G03G04G06G07G09G16G26               
  21001580.773 6 110364041.220 6  85997998.55648  21001592.16048
  21239653.484 6 111615129.746 6  86972865.03147  21239662.60947
  22623196.625 1 118885671.058 1                
  21209840.594 6 111458469.013 6  86850788.41947  21209848.94547
  21219168.680 6 111507429.566 6  86888947.24348  21219179.07048
  23203153.773 5 121933471.191 5  95013063.18846  23203161.33246
  24098874.430 2 126640321.034 2  98680901.27047  24098886.67247
 22  7  3 12 32 45.0000000  0  7G03G04G06G07G09G16G26               
  21004294.594 6 110378304.003 6  86009112.41248  21004306.16448
  21241486.781 6 111624765.623 6  86980373.50847  21241496.54347
  22623862.898 1                                
  21208457.680 6 111451200.593 6  86845124.71547  21208466.18447
  21219529.828 6 111509327.696 6  86890426.30148  21219539.93848
  23204315.820 5 121939576.914 5  95017820.89446  23204323.38746
  24101686.125 3 126655094.149 3  98692412.78747  24101698.03547
 22  7  3 12 32 50.0000000  0  7G03G04G06G07G09G16G26               
  21007010.945 6 110392580.183 6  86020236.69348  21007022.40648
  21243321.656 6 111634405.442 6  86987885.04947  21243330.65647
  22624534.273 1 118892680.02111                
  21207076.594 6 111443944.339 6  86839470.50347  21207085.25047
  21219891.383 6 111511229.596 6  86891908.29548  21219901.94948
  23205479.766 5 121945696.958 5  95022589.75046  23205488.29746
  24104499.195 3 126669879.858 3  98703934.11247  24104511.69147
 22  7  3 12 32 55.0000000  0  7G03G04G06G07G09G16G26               
  21009730.320 6 110406869.468 6  86031371.18248  21009741.81348
  21245156.805 6 111644048.800 6  86995399.34647  21245165.64847
  22625204.805 1 118896209.121 1                
  21205698.156 6 111436699.820 6  86833825.42547  21205706.55547
  21220253.820 6 111513134.989 6  86893393.01648  21220264.76248
  23206647.742 5 121951830.986 5  95027369.50146  23206655.37146
  24107314.688 3 126684677.663 3  98715464.86947  24107327.84447
 22  7  3 12 33  0.0000000  0  7G03G04G06G07G09G16G26               
  21012451.453 6 110421171.568 6  86042515.67648  21012463.43448
  21246992.398 6 111653695.505 6  87002916.26647  21247001.24247
  22625878.891 2 118899754.328 2                
  21204322.039 6 111429466.918 6  86828189.40847  21204330.17247
  21220616.914 6 111515043.609 6  86894880.24848  21220627.84448
  23207817.086 4 121957978.752 4  95032159.96546  23207825.07846
  24110132.344 3 126699487.304 3  98727004.84847  24110145.94947
 22  7  3 12 33  5.0000000  0  7G03G04G06G07G09G16G26               
  21015175.633 6 110435486.328 6  86053670.02748  21015187.65248
  21248828.578 5 111663345.396 5  87010435.65047  21248837.71947
  22626555.727 1 118903315.509 1                
  21202948.164 6 111422245.438 6  86822562.28747  21202956.53547
  21220981.070 6 111516955.306 6  86896369.87148  21220991.82048
  23208990.516 4 121964140.097 4  95036960.99846  23208997.75846
  24112953.680 3 126714308.646 3  98738553.95247  24112966.81347
 22  7  3 12 33 10.0000000  0  7G03G04G06G07G09G16G26               
  21017902.234 6 110449813.850 6  86064834.31848  21017913.73848
  21250665.945 6 111672998.546 6  87017957.57847  21250674.79747
  22627236.711 1 118906892.660 1                
  21201575.477 6 111415035.461 6  86816944.10647  21201583.90247
  21221345.430 6 111518870.200 6  86897861.99148  21221356.31348
  23210165.234 5 121970315.095 5  95041772.71246  23210172.94946
  24115776.695 3 126729141.802 3  98750112.24647  24115789.91447
 22  7  3 12 33 15.0000000  0  7G03G04G06G07G09G16G26               
  21020631.055 6 110464154.261 6  86076008.65148  21020642.77348
  21252503.063 6 111682655.105 6  87025482.17847  21252512.02747
  22627921.492 1 118910485.960 1                
  21200205.570 6 111407837.181 6  86811335.06047  21200214.25047
  21221710.555 6 111520788.364 6  86899356.66648  21221720.82048
  23211343.273 4 121976503.947 4  95046595.18446  23211350.88346
  24118601.516 4 126743986.892 4  98761679.83147  24118614.99247
 22  7  3 12 33 20.0000000  0  7G03G04G06G07G09G16G26               
  21023362.070 6 110478507.674 6  86087193.12648  21023374.15648
  21254341.133 6 111692315.160 6  87033009.49147  21254350.02047
  22628607.984 1 118914095.445 1                
  21198837.953 6 111400650.674 6  86805735.18047  21198846.80947
  21222076.359 6 111522709.971 6  86900854.02248  21222086.69548
  23212522.789 4 121982706.688 4  95051428.47546  23212531.29746
  24121429.078 3 126758843.963 3  98773256.76047  24121442.58647
 22  7  3 12 33 25.0000000  0  7G03G04G06G07G09G16G26               
  21026096.000 6 110492873.819 6  86098387.51748  21026107.59048
  21256179.984 6 111701978.464 6  87040539.33147  21256188.99247
  22629295.570 1                                
  21197472.469 6 111393475.654 6  86800144.26047  21197481.68447
  21222442.258 6 111524634.699 6  86902353.80948  21222453.23048
  23213706.117 5 121988923.198 5  95056272.50746  23213714.08646
  24124258.828 3 126773712.813 3  98784842.85647  24124271.79347
 22  7  3 12 33 30.0000000  0  7G03G04G06G07G09G16G26               
  21028832.336 6 110507253.404 6  86109592.38248  21028844.15248
  21258020.281 6 111711645.754 6  87048072.29147  21258028.65247
  22629986.672 1                                
  21196109.430 6 111386312.942 6  86794562.92947  21196118.27047
  21222809.742 6 111526563.301 6  86903856.61248  21222819.83248
  23214891.313 5 121995154.068 5  95061127.71546  23214900.37146
  24127089.867 3 126788594.087 3  98796438.63947  24127103.53147
 22  7  3 12 33 35.0000000  0  7G03G04G06G07G09G16G26               
  21031571.320 6 110521645.971 6  86120807.35948  21031583.17648
  21259860.023 6 111721316.537 6  87055607.96347  21259869.34447
  22630683.406 1                                
  21194748.945 6 111379161.982 6  86788990.74947  21194757.53147
  21223176.891 6 111528495.316 6  86905362.07648  21223187.77048
  23216079.172 5 122001398.827 5  95065993.78646  23216088.56646
  24129923.875 3 126803487.329 3  98808043.75747  24129937.03547
 22  7  3 12 33 40.0000000  0  7G03G04G06G07G09G16G26               
  21034312.383 6 110536051.320 6  86132032.29048  21034324.23448
  21261701.313 6 111730990.637 6  87063146.21547  21261710.05147
  22631380.906 1                                
  21193390.406 6 111372022.629 6  86783427.62147  21193398.77747
  21223545.141 6 111530430.557 6  86906870.05048  21223556.00848
  23217270.703 4 122007657.363 4  95070870.56346  23217279.47346
  24132760.742 3 126818392.387 3  98819658.07747  24132773.46547
 22  7  3 12 33 45.0000000  0  7G03G04G06G07G09G16G26               
  21037055.891 6 110550469.568 6  86143267.27948  21037068.26648
  21263542.570 6 111740668.148 6  87070687.13347  21263551.81347
  22632084.953 1                                
  21192034.516 6 111364894.982 6  86777873.61347  21192042.89147
  21223914.430 6 111532369.120 6  86908380.61748  21223924.94148
  23218464.281 4 122013929.727 4  95075758.09846  23218473.15646
  24135599.063 3 126833309.281 3  98831281.64247  24135611.41447
 22  7  3 12 33 50.0000000  0  7G03G04G07G09G16G26G30               
  21039802.609 6 110564900.786 6  86154512.37848  21039814.34848
  21265385.234 6 111750349.177 6  87078230.79247  21265394.18047
  21190679.414 6 111357779.188 6  86772328.84347  21190688.62947
  21224284.055 6 111534311.126 6  86909893.86548  21224294.44948
  23219660.406 5 122020215.993 5  95080656.50147  23219669.38347
  24138439.867 3 126848238.203 3  98842914.56447  24138452.71547
  24091677.867 4 126602602.09814  98651441.80656  24091689.77346
 22  7  3 12 33 55.0000000  0  7G03G04G07G09G16G26G30               
  21042551.203 6 110579345.089 6  86165767.66248  21042562.74648
  21267227.594 6 111760033.795 6  87085777.25247  21267237.01247
  21189327.797 6 111350675.284 6  86766793.32747  21189336.94947
  21224654.391 6 111536256.620 6  86911409.83548  21224664.27348
  23220859.414 4 122026516.244 4  95085565.78846  23220868.32446
  24141282.742 3 126863179.108 3  98854556.83247  24141296.15647
  24089620.852 3 126591790.018 3  98643016.81246  24089632.76246
 22  7  3 12 34  0.0000000  0  7G03G04G07G09G16G26G30               
  21045302.461 6 110593802.280 6  86177032.99748  21045314.00448
  21269071.398 6 111769721.864 6  87093326.40247  21269080.20347
  21187978.641 6 111343583.168 6  86761266.99647  21187987.33647
  21225025.258 6 111538205.450 6  86912928.40448  21225035.51248
  23222061.406 4 122032830.379 4  95090485.88746  23222069.99246
  24144128.430 3 126878131.968 3  98866208.39647  24144141.08247
  24087563.680 3 126580983.863 3  98634596.43646  24087575.80546
 22  7  3 12 34  5.0000000  0  7G03G04G07G09G16G26G30               
  21048056.031 6 110608272.368 6  86188308.38448  21048067.45748
  21270915.797 6 111779413.391 6  87100878.23647  21270925.23047
  21186631.289 6 111336502.757 6  86755749.81047  21186639.64547
  21225396.594 6 111540157.642 6  86914449.58148  21225407.13748
  23223266.078 4 122039158.357 4  95095416.78146  23223273.77346
  24146975.625 3 126893096.718 3  98877869.22747  24146988.87947
  24085509.477 4 126570183.545 4  98626180.58846  24085520.45346
 22  7  3 12 34 10.0000000  0  7G03G04G07G09G16G26G30               
  21050812.000 6 110622754.779 6  86199593.38048  21050823.36748
  21272761.016 6 111789107.733 6  87108432.26147  21272769.53147
  21185285.984 6 111329433.544 6  86750241.33947  21185294.28947
  21225768.586 6 111542112.597 6  86915972.92648  21225778.84448
  23224472.828 4 122045499.650 4  95100358.01846  23224480.69546
  24149826.141 4 126908072.681 4  98889538.80747  24149838.54347
  24083454.648 4 126559388.563 4  98617768.93946  24083466.37546
 22  7  3 12 34 15.0000000  0  7G03G04G07G09G16G26G30               
  21053570.453 6 110637249.857 6  86210888.24248  21053581.55548
  21274605.625 6 111798805.338 6  87115988.83847  21274615.23847
  21183943.375 6 111322375.872 6  86744741.86147  21183951.67647
  21226141.227 6 111544070.659 6  86917498.68548  21226151.46948
  23225682.961 4 122051854.548 4  95105309.90046  23225690.48846
  24152677.859 4 126923060.340 4  98901217.51247  24152690.83647
  24081401.859 4 126548599.225 4  98609361.66246  24081412.96946
 22  7  3 12 34 20.0000000  0  7G03G04G07G09G16G26G30               
  21056331.219 6 110651758.257 6  86222193.48248  21056342.95748
  21276452.078 6 111808506.789 6  87123548.40547  21276461.64547
  21182603.398 6 111315330.396 6  86739251.88347  21182610.58647
  21226514.414 6 111546032.528 6  86919027.41548  21226524.62548
  23226893.969 4 122058223.764 4  95110272.93246  23226902.07046
  24155532.773 4 126938060.301 4  98912905.80547  24155545.49647
  24079349.625 4 126537816.221 4  98600959.30746  24079361.28546
 22  7  3 12 34 25.0000000  0  7G03G04G07G09G16G26G30               
  21059094.633 6 110666279.538 6  86233508.75948  21059106.02048
  21278299.016 6 111818211.696 6  87131110.66947  21278308.08647
  21181263.961 6 111308296.715 6  86733771.10547  21181272.42647
  21226888.188 6 111547997.727 6  86920558.73248  21226898.58248
  23228108.406 4 122064606.869 4  95115246.75346  23228117.11746
  24158389.086 3 126953072.013 3  98924603.25147  24158401.93447
  24077298.531 3 126527039.157 3  98592561.60646  24077309.78946
 22  7  3 12 34 30.0000000  0  7G03G04G07G09G16G26G30               
  21061860.289 6 110680813.560 6  86244833.96748  21061871.83648
  21280146.375 6 111827919.898 6  87138675.50547  21280155.42647
  21179927.375 6 111301274.663 6  86728299.38147  21179936.27747
  21227262.805 6 111549966.153 6  86922092.56848  21227273.30948
  23229324.172 4 122071003.702 4  95120231.31146  23229333.87546
  24161247.766 3 126968095.499 3  98936309.86047  24161261.26247
  24075247.492 3 126516267.753 3  98584168.31446  24075260.18846
 22  7  3 12 34 35.0000000  0  7G03G04G07G09G16G26G30               
  21064627.969 6 110695360.567 6  86256169.28548  21064639.70748
  21281994.117 6 111837631.637 6  87146243.08747  21282003.93047
  21178593.523 6 111294264.526 6  86722836.92647  21178602.25047
  21227637.836 6 111551938.006 6  86923629.07748  21227648.68848
  23230545.227 5 122077414.490 5  95125226.73446  23230554.50046
  24164109.352 4 126983130.884 4  98948025.74947  24164121.58647
  24073199.922 3 126505502.478 3  98575779.79146  24073211.38346
 22  7  3 12 34 40.0000000  0  7G03G04G07G09G16G26G30               
  21067399.023 6 110709920.554 6  86267514.72148  21067410.24248
  21283842.969 6 111847346.923 6  87153813.44147  21283852.40247
  21177262.211 6 111287266.303 6  86717383.76147  21177270.46947
  21228014.438 6 111553913.294 6  86925168.26248  21228024.58248
  23231767.039 5 122083839.348 5  95130233.10946  23231776.71546
  24166971.516 3 126998178.240 3  98959750.95047  24166985.10947
  24071152.453 2 126494743.188 2  98567395.93046  24071164.67246
 22  7  3 12 34 45.0000000  0  7G03G04G07G09G16G26G30               
  21070172.438 6 110724493.632 6  86278870.36448  21070183.65248
  21285692.742 6 111857065.875 6  87161386.64447  21285702.09047
  21175932.594 6 111280280.067 6  86711939.93247  21175940.82447
  21228390.867 6 111555892.195 6  86926710.26348  21228401.34048
  23232992.438 4 122090278.308 4  95135250.49546  23233001.90646
  24169838.109 3 127013237.645 3  98971485.53547  24169851.25447
  24069106.102 2 126483990.021 2  98559016.81546  24069118.56646
 22  7  3 12 34 50.0000000  0  8G03G04G06G07G09G16G26G30            
  21072948.375 6 110739079.890 6  86290236.28148  21072958.93448
  21287542.750 6 111866788.582 6  87168962.78747  21287552.33247
  22641498.031 1 118981975.26911                
  21174605.406 6 111273305.960 6  86706505.56347  21174613.63747
  21228768.031 6 111557874.747 6  86928255.10348  21228778.40648
  23234221.398 4 122096731.440 4  95140278.91746  23234230.26646
  24172706.141 2 127028309.129 2  98983229.54347  24172719.15247
  24067061.766 2 126473243.179 2  98550642.69046  24067073.52746
 22  7  3 12 34 55.0000000  0  8G03G04G06G07G09G16G26G30            
  21075726.367 6 110753679.134 6  86301612.31048  21075737.58648
  21289393.555 6 111876514.842 6  87176541.68847  21289402.88347
  22642241.320 1 118985892.808 1                
  21173280.922 6 111266343.768 6  86701080.47447  21173289.01647
  21229146.242 6 111559860.741 6  86929802.63248  21229156.16048
  23235451.625 4 122103198.592 4  95145318.23246  23235460.80546
  24175577.109 2 127043392.568 2  98994982.84847  24175589.56647
  24065017.016 2 126462502.295 2  98542273.16846  24065029.27746
 22  7  3 12 35  0.0000000  0  8G03G04G06G07G09G16G26G30            
  21078507.094 6 110768291.326 6  86312998.42648  21078517.82048
  21291245.305 6 111886244.625 6  87184123.32847  21291254.65647
  22642991.586 1 118989826.644 1                
  21171958.664 6 111259393.479 6  86695664.65747  21171966.64847
  21229523.961 6 111561850.208 6  86931352.86648  21229534.47348
  23236685.406 4 122109679.689 4  95150368.44446  23236694.02346
  24178450.211 2 127058487.884 2  99006745.41747  24178461.96547
  24062974.039 2 126451767.492 2  98533908.42746  24062986.77346
 22  7  3 12 35  5.0000000  0  8G03G04G06G07G09G16G26G30            
  21081289.828 6 110782916.521 6  86324394.67548  21081300.73048
  21293097.742 6 111895978.018 6  87191707.79047  21293106.56647
  22643743.180 1 118993776.714 1                
  21170638.031 6 111252455.137 6  86690258.14847  21170646.04347
  21229903.234 6 111563843.131 6  86932905.78248  21229913.74648
  23237921.102 4 122116174.903 4  95155429.65246  23237930.17246
  24181325.430 2 127073595.120 2  99018517.28047  24181336.96947
  24060932.797 1 126441038.858 1  98525548.40546  24060945.62946
 22  7  3 12 35 10.0000000  0  8G03G04G06G07G09G16G26G30            
  21084075.359 6 110797554.753 6  86335801.08648  21084086.86748
  21294950.352 6 111905715.014 6  87199295.05047  21294959.56647
  22644498.602 1 118997743.066 1                
  21169319.750 6 111245528.780 6  86684860.99647  21169328.37147
  21230283.375 6 111565839.615 6  86934461.49148  21230293.49648
  23239159.273 4 122122684.192 4  95160501.81346  23239168.53946
  24184201.219 3 127088714.325 3  99030298.47147  24184213.81647
  24058893.711 2 126430316.285 2  98517193.19546  24058904.69546
 22  7  3 12 35 15.0000000  0  8G03G04G06G07G09G16G26G30            
  21086863.617 6 110812206.054 6  86347217.67548  21086874.46148
  21296803.805 6 111915455.647 6  87206885.16447  21296813.39547
  22645256.148 2 119001725.886 2                
  21168003.789 6 111238614.517 6  86679473.25547  21168012.16047
  21230664.258 6 111567839.631 6  86936019.94348  21230674.45748
  23240400.734 4 122129207.565 4  95165584.96546  23240409.70746
  24187080.367 3 127103845.507 3  99042089.00047  24187093.09847
  24056854.000 1 126419599.884 1  98508842.72546  24056865.86746
 22  7  3 12 35 20.0000000  0  8G03G04G06G07G09G16G26G30            
  21089654.172 6 110826870.468 6  86358644.47948  21089664.98048
  21298657.711 6 111925200.012 6  87214478.16847  21298667.56647
  22646019.406 2 119005725.061 2                
  21166690.523 6 111231712.338 6  86674094.93147  21166698.96947
  21231045.516 6 111569843.276 6  86937581.24248  21231055.32848
  23241644.531 4 122135745.159 4  95170679.16646  23241653.87546
  24189962.641 3 127118988.693 3  99053888.88847  24189974.42647
  24054816.148 1 126408889.750 1  98500497.17246  24054828.41446
 22  7  3 12 35 25.0000000  0  8G03G04G06G07G09G16G26G30            
  21092446.898 6 110841547.734 6  86370081.30448  21092458.10248
  21300512.375 6 111934947.834 6  87222073.86947  21300522.23847
  22646781.906 2 119009740.411 2                
  21165379.281 6 111224822.043 6  86668725.86847  21165387.58647
  21231426.984 6 111571850.295 6  86939145.15448  21231437.33648
  23242891.938 5 122142296.645 5  95175784.22546  23242900.24646
  24192845.914 2 127134143.672 2  99065697.95747  24192858.27047
  24052776.844 1 126398185.554 1  98492156.27846  24052790.59846
 22  7  3 12 35 30.0000000  0  7G03G04G06G07G09G16G30               
  21095242.555 6 110856238.024 6  86381528.27648  21095253.23848
  21302368.648 6 111944699.249 6  87229672.37447  21302378.28947
  22647548.938 1 119013772.033 1                
  21164070.313 6 111217943.775 6  86663366.18847  21164078.69947
  21231810.102 6 111573860.840 6  86940711.81148  21231820.30948
  23244141.219 5 122148862.165 5  95180900.23946  23244149.85546
  24050744.539 1 126387487.640 1  98483820.21246  24050755.07446
 22  7  3 12 35 35.0000000  0  7G03G04G06G07G09G16G30               
  21098040.539 6 110870941.233 6  86392985.31448  21098051.43848
  21304224.406 6 111954454.195 6  87237273.63547  21304234.52347
  22648320.375 1 119017819.962 1                
  21162763.906 6 111211077.478 6  86658015.81647  21162772.03947
  21232193.055 6 111575874.797 6  86942281.13348  21232203.39148
  23245392.469 5 122155441.689 5  95186027.12547  23245402.16847
  24048704.961 1 126376795.715 1  98475488.82646  24048720.45746
 22  7  3 12 35 40.0000000  0  7G03G04G06G07G09G16G30               
  21100840.625 6 110885657.504 6  86404452.53848  21100851.87148
  21306081.727 6 111964212.820 6  87244877.74747  21306091.16847
  22649094.805 1 119021884.186 1                
  21161459.773 6 111204223.214 6  86652674.82847  21161468.01247
  21232577.234 6 111577892.358 6  86943853.25748  21232587.41048
  23246648.023 4 122162035.330 4  95191165.03147  23246656.95347
  24046674.125 1 126366110.059 1  98467162.38746  24046687.18046
 22  7  3 12 35 45.0000000  0  7G03G04G06G07G09G16G30               
  21103643.703 6 110900386.641 6  86415929.78948  21103654.69948
  21307939.719 6 111973974.902 6  87252484.57247  21307949.02347
  22649873.813 1 119025964.582 1                
  21160157.203 6 111197380.819 6  86647343.08647  21160165.58647
  21232961.852 6 111579913.325 6  86945428.03848  21232971.76248
  23247905.500 5 122168642.835 5  95196313.73847  23247913.59447
  24044641.313 1 126355430.426 1  98458840.61246  24044655.03946
 22  7  3 12 35 50.0000000  0  7G03G04G06G07G09G16G30               
  21106448.922 6 110915128.831 6  86427417.20348  21106460.03148
  21309797.914 6 111983740.688 6  87260094.27347  21309807.62947
  22650654.500 1 119030061.34011                
  21158857.711 6 111190550.517 6  86642020.77547  21158866.29747
  21233346.977 6 111581937.832 6  86947005.58048  21233357.55948
  23249165.266 4 122175264.473 4  95201473.45046  23249173.84446
  24042610.031 1 126344757.044 1  98450523.68746  24042623.92646
 22  7  3 12 35 55.0000000  0  7G03G04G06G07G09G16G30               
  21109257.188 6 110929884.283 6  86438914.95148  21109268.23048
  21311657.125 6 111993510.290 6  87267706.94147  21311666.30147
  22651442.719 1 119034174.65811                
  21157559.867 6 111183732.536 6  86636708.05447  21157568.65647
  21233732.625 6 111583966.131 6  86948586.07048  21233743.23448
  23250428.156 5 122181900.470 5  95206644.35447  23250436.40647
  24040580.547 1 126334090.109 1  98442211.81946  24040593.93046
 22  7  3 12 36  0.0000000  0  7G03G04G06G07G09G16G30               
  21112067.664 6 110944652.328 6  86450422.51348  21112078.41848
  21313517.156 6 112003283.169 6  87275322.17147  21313526.25847
  22652237.602 1                                
  21156265.320 6 111176926.196 6  86631404.41548  21156273.80948
  21234119.438 6 111585997.551 6  86950168.99748  21234129.69148
  23251693.820 5 122188550.159 5  95211825.93846  23251702.07046
  24038552.750 1 126323428.978 1  98433904.40946  24038565.34446
 22  7  3 12 36  5.0000000  0  7G03G04G06G07G09G16G30               
  21114880.383 6 110959433.582 6  86461940.36948  21114891.17648
  21315377.141 6 112013059.832 6  87282940.35847  21315386.77347
  22653028.117 1                                
  21154972.656 6 111170132.117 6  86626110.31947  21154980.69947
  21234506.688 6 111588032.704 6  86951754.83048  21234517.19948
  23252960.805 5 122195214.159 5  95217018.65646  23252969.95746
  24036525.375 2 126312774.271 2  98425602.05546  24036538.11746
 22  7  3 12 36 10.0000000  0  7G03G04G06G07G09G16G30               
  21117695.531 6 110974227.836 6  86473468.35248  21117706.72348
  21317238.336 6 112022840.118 6  87290561.35547  21317247.77747
  22653813.648 1                                
  21153681.469 6 111163350.125 6  86620825.65847  21153690.31347
  21234894.969 6 111590071.411 6  86953343.44148  21234905.14848
  23254232.766 5 122201892.263 5  95222222.36646  23254240.78146
  24034499.570 3 126302125.800 3  98417304.54846  24034511.27746
 22  7  3 12 36 15.0000000  0  7G03G04G06G07G09G16G30               
  21120513.039 6 110989034.967 6  86485006.36348  21120524.17648
  21319100.617 6 112032623.935 6  87298185.11647  21319109.43847
  22654598.539 1                                
  21152393.508 6 111156580.090 6  86615550.30148  21152402.35548
  21235283.359 6 111592113.576 6  86954934.73648  21235294.00448
  23255505.992 5 122208584.387 5  95227436.99946  23255514.23446
  24032473.781 3 126291483.429 3  98409011.76446  24032485.93846
 22  7  3 12 36 20.0000000  0  6G03G04G07G09G16G30                  
  21123333.352 6 111003855.372 6  86496554.72948  21123344.64848
  21320963.047 6 112042411.654 6  87305811.90147  21320972.05147
  21151107.234 6 111149822.393 6  86610284.56947  21151116.41847
  21235672.656 6 111594159.517 6  86956528.97348  21235683.22748
  23256782.320 5 122215290.855 5  95232662.81446  23256790.61346
  24030449.625 2 126280847.617 2  98400724.14646  24030462.44146
 22  7  3 12 36 25.0000000  0  6G03G04G07G09G16G30                  
  21126156.531 6 111018688.452 6  86508112.96848  21126167.67648
  21322826.344 6 112052202.720 6  87313441.31747  21322835.38347
  21149823.914 6 111143076.498 6  86605028.02647  21149832.75447
  21236062.664 6 111596208.723 6  86958125.75948  21236073.10548
  23258061.266 5 122222011.173 5  95237899.43646  23258069.41046
  24028426.742 2 126270217.699 2  98392441.08946  24028439.23846
 22  7  3 12 36 30.0000000  0  6G03G04G07G09G16G30                  
  21128981.242 6 111033534.571 6  86519681.37048  21128992.64848
  21324689.836 5 112061997.429 5  87321073.55747  21324699.31647
  21148542.016 6 111136342.732 6  86599780.93747  21148550.93847
  21236452.859 6 111598261.480 6  86959725.30848  21236463.55948
  23259342.633 5 122228745.596 5  95243147.05146  23259351.26646
  24026405.328 2 126259594.074 2  98384162.93046  24026417.79346
 22  7  3 12 36 35.0000000  0  6G03G04G07G09G16G30                  
  21131809.250 6 111048393.796 6  86531259.97948  21131820.36748
  21326554.969 5 112071795.923 5  87328708.75447  21326563.28947
  21147263.320 6 111129621.208 6  86594543.39247  21147272.22747
  21236844.820 6 111600317.949 6  86961327.74748  21236855.27748
  23260627.430 5 122235494.275 5  95248405.74546  23260635.30946
  24024385.102 2 126248976.872 2  98375889.77546  24024397.51246
 22  7  3 12 36 40.0000000  0  6G03G04G07G09G16G30                  
  21134638.773 6 111063265.908 6  86542848.64048  21134650.07448
  21328419.430 6 112081597.933 6  87336346.68647  21328429.35947
  21145986.961 6 111122911.709 6  86589315.19748  21145995.16448
  21237236.859 6 111602377.839 6  86962932.85448  21237247.37948
  23261913.125 5 122242256.938 5  95253675.35646  23261922.12146
  24022364.539 2 126238365.795 2  98367621.42046  24022377.80546
 22  7  3 12 36 45.0000000  0  6G03G04G07G09G16G30                  
  21137471.648 6 111078150.972 6  86554447.38748  21137482.93448
  21330285.227 6 112091403.564 6  87343987.43547  21330294.76247
  21144711.781 6 111116214.294 6  86584096.43547  21144720.60947
  21237629.141 6 111604441.230 6  86964540.68848  21237639.64848
  23263203.219 5 122249033.710 5  95258955.97846  23263211.68446
  24020347.531 2 126227761.053 2  98359358.01446  24020359.96946
 22  7  3 12 36 50.0000000  0  6G03G04G07G09G16G30                  
  21140306.625 6 111093048.908 6  86566056.16348  21140317.90648
  21332152.242 6 112101212.714 6  87351630.91747  21332161.46547
  21143439.609 6 111109528.861 6  86578887.00947  21143448.48447
  21238022.625 6 111606508.130 6  86966151.25048  21238033.39848
  23264495.570 5 122255824.487 5  95264247.47346  23264504.16846
  24018331.484 1 126217162.383 1  98351099.30946  24018343.12546
 22  7  3 12 36 55.0000000  0  6G03G04G07G09G16G30                  
  21143143.828 6 111107959.689 6  86577674.94548  21143155.09848
  21334019.219 6 112111025.394 6  87359277.15647  21334028.84047
  21142169.484 6 111102855.431 6  86573686.92548  21142178.10948
  21238416.523 7 111608578.390 7  86967764.43448  21238426.92248
  23265790.867 5 122262629.239 5  95269549.88346  23265798.63746
  24016314.602 1 126206569.886 1  98342845.41345  24016327.53545
 22  7  3 12 37  0.0000000  0  6G03G04G07G09G16G30                  
  21145983.773 6 111122883.683 6  86589304.01948  21145995.39548
  21335886.891 6 112120841.946 6  87366926.41947  21335896.72747
  21140902.430 6 111096194.398 6  86568496.51347  21140910.57447
  21238811.617 7 111610652.473 7  86969380.60548  21238821.91848
  23267088.086 5 122269448.364 5  95274863.49146  23267096.41846
  24014301.805 1 126195984.031 1  98334596.69146  24014312.91846
 22  7  3 12 37  5.0000000  0  6G03G04G07G09G16G30                  
  21148826.063 6 111137820.302 6  86600942.93848  21148837.52348
  21337756.031 6 112130661.779 6  87374578.23147  21337765.60247
  21139636.922 6 111089545.129 6  86563315.26547  21139645.77047
  21239206.523 7 111612729.772 7  86970999.28048  21239217.06348
  23268388.828 5 122276281.252 5  95280187.82446  23268396.57846
  24012287.352 1 126185404.055 1  98326352.60146  24012299.91046
 22  7  3 12 37 10.0000000  0  6G03G04G07G09G16G30                  
  21151671.336 6 111152770.260 6  86612592.24748  21151682.72348
  21339625.914 6 112140485.612 6  87382233.17247  21339634.86347
  21138374.508 6 111082908.378 6  86558143.78348  21138382.55148
  21239602.000 7 111614810.964 7  86972620.98748  21239612.61348
  23269692.453 5 122283128.664 5  95285523.46646  23269699.60546
  24010275.211 2 126174830.829 2  98318113.70346  24010287.68446
 22  7  3 12 37 15.0000000  0  6G03G04G07G09G16G30                  
  21154518.438 6 111167732.911 6  86624251.45548  21154529.82448
  21341496.328 6 112150312.844 6  87389890.73747  21341505.03947
  21137113.672 6 111076283.525 6  86552981.55647  21137121.68047
  21239998.914 6 111616895.461 6  86974245.27148  21240009.95348
  23270997.086 5 122289989.914 5  95290869.90146  23271004.92646
  24008264.023 3 126164263.614 3  98309879.51346  24008276.66846
 22  7  3 12 37 20.0000000  0  6G03G04G07G09G16G30                  
  21157368.742 6 111182708.357 6  86635920.61948  21157379.40248
  21343367.273 6 112160143.509 6  87397550.99847  21343375.76247
  21135855.414 6 111069670.675 6  86547828.68848  21135862.89548
  21240396.047 6 111618983.351 6  86975872.19548  21240406.93848
  23272305.328 5 122296865.149 5  95296227.22746  23272313.44546
  24006253.422 3 126153702.575 3  98301650.06746  24006267.03146
 22  7  3 12 37 25.0000000  0  6G03G04G07G09G16G30                  
  21160220.484 6 111197696.663 6  86647599.81848  21160232.12948
  21345237.859 6 112169977.773 6  87405214.06047  21345247.64147
  21134599.680 6 111063069.852 6  86542685.19247  21134606.84847
  21240794.602 6 111621074.688 6  86977501.80948  21240804.92248
  23273616.016 5 122303754.432 5  95301595.48846  23273624.49246
  24004246.281 3 126143147.752 3  98293425.57546  24004258.94946
 22  7  3 12 37 30.0000000  0  6G03G04G07G09G16G30                  
  21163074.750 6 111212697.775 6  86659288.98648  21163086.32448
  21347110.555 6 112179815.517 6  87412879.83547  21347119.20747
  21133345.023 6 111056481.074 6  86537551.07548  21133353.06348
  21241193.398 6 111623169.469 6  86979134.10348  21241203.32448
  23274929.500 5 122310657.695 5  95306974.65446  23274938.16046
  24002238.844 3 126132599.160 3  98285205.91546  24002251.37946
 22  7  3 12 37 35.0000000  0  6G03G04G07G09G16G30                  
  21165931.805 6 111227711.562 6  86670988.03448  21165943.56648
  21348983.344 6 112189656.584 6  87420548.19447  21348991.74247
  21132093.758 6 111049904.150 6  86532426.19048  21132101.40648
  21241592.523 6 111625267.460 6  86980768.90048  21241602.60548
  23276245.875 5 122317574.761 5  95312364.58646  23276254.01246
  24000232.219 3 126122056.587 3  98276990.90046  24000244.99246
 22  7  3 12 37 40.0000000  0  6G03G04G07G09G16G30                  
  21168791.383 6 111242737.895 6  86682696.86448  21168802.61348
  21350855.680 6 112199500.935 6  87428219.11747  21350865.42647
  21130844.742 6 111043338.992 6  86527310.49348  21130852.18448
  21241992.406 6 111627368.654 6  86982406.19448  21242002.55948
  23277564.820 5 122324505.568 5  95317765.21746  23277572.89546
  23998226.398 2 126111520.017 2  98268780.59446  23998239.78146
 22  7  3 12 37 45.0000000  0  6G03G04G07G09G16G30                  
  21171653.188 6 111257777.116 6  86694415.73048  21171664.09448
  21352729.813 6 112209348.871 6  87435892.82547  21352739.16847
  21129597.555 6 111036786.001 6  86522204.25848  21129605.09448
  21242392.586 6 111629473.366 6  86984046.23048  21242403.03148
  23278886.266 5 122331450.536 5  95323176.87846  23278894.90646
  23996224.031 2 126100989.755 2  98260575.19046  23996236.57446
 22  7  3 12 37 50.0000000  0  6G03G04G07G09G16G30                  
  21174517.602 6 111272829.318 6  86706144.72248  21174528.72748
  21354604.500 6 112219200.503 6  87443569.41247  21354614.83247
  21128352.859 6 111030245.258 6  86517107.57348  21128360.51648
  21242794.078 6 111631581.700 6  86985689.08248  21242804.10548
  23280211.281 5 122338409.672 5  95328599.57746  23280219.20346
  23994221.219 2 126090465.862 2  98252374.76746  23994234.10946
 22  7  3 12 37 55.0000000  0  6G03G04G07G09G16G30                  
  21177384.773 6 111287894.616 6  86717883.91248  21177395.51648
  21356480.500 6 112229055.964 6  87451248.99247  21356489.93847
  21127109.969 6 111023716.859 6  86512020.50748  21127118.56348
  21243195.867 6 111633693.749 6  86987334.83248  21243205.83248
  23281538.375 5 122345383.115 5  95334033.41546  23281546.22746
  23992221.461 3 126079948.550 3  98244179.51546  23992232.57046
 22  7  3 12 38  0.0000000  0  6G03G04G07G09G16G30                  
  21180253.625 6 111302972.880 6  86729633.19948  21180265.25048
  21358356.320 6 112238915.061 6  87458931.39647  21358366.09047
  21125869.898 6 111017200.636 6  86506942.92748  21125878.44948
  21243598.375 6 111635809.376 6  86988983.36948  21243608.31648
  23282867.953 5 122352370.660 5  95339478.23546  23282876.14846
  23990219.008 3 126069437.622 3  98235989.16146  23990232.25846
 22  7  3 12 38  5.0000000  0  6G03G04G07G09G16G30                  
  21183125.352 6 111318064.234 6  86741392.69348  21183136.89548
  21360233.492 5 112248777.985 5  87466616.79547  21360242.93047
  21124632.375 6 111010696.789 6  86501875.00148  21124641.24648
  21244001.305 6 111637928.721 6  86990634.81148  21244011.64848
  23284200.172 5 122359372.563 5  95344934.28946  23284208.31646
  23988220.891 3 126058933.258 3  98227803.96046  23988233.25046
 22  7  3 12 38 10.0000000  0  6G03G04G07G09G16G30                  
  21185999.453 6 111333168.209 6  86753162.02948  21186010.82448
  21362110.594 6 112258644.251 6  87474304.79547  21362120.51247
  21123397.305 6 111004204.884 6  86496816.37547  21123405.48447
  21244405.336 6 111640051.345 6  86992288.78848  21244415.76248
  23285535.328 5 122366388.317 5  95350401.10846  23285543.73046
  23986223.695 4 126048434.988 4  98219623.43446  23986235.12946
 22  7  3 12 38 15.0000000  0  6G03G04G07G09G16G30                  
  21188875.867 6 111348285.082 6  86764941.40148  21188887.83248
  21363989.055 6 112268514.138 6  87481995.61247  21363998.52747
  21122164.078 6 110997725.184 6  86491767.25548  21122172.53548
  21244810.328 6 111642177.521 6  86993945.55048  21244820.55548
  23286872.961 5 122373418.144 5  95355878.89546  23286881.21146
  23984227.313 4 126037943.101 4  98211447.97446  23984238.79346
 22  7  3 12 38 20.0000000  0  6G03G04G07G09G16G30                  
  21191754.961 6 111363414.454 6  86776730.51748  21191766.86348
  21365867.711 5 112278387.204 5  87489688.90947  21365877.22347
  21120933.539 6 110991257.248 6  86486727.30847  21120941.75847
  21245215.258 6 111644306.804 6  86995604.73248  21245225.08248
  23288212.805 5 122380461.715 5  95361367.39446  23288221.80146
  23982231.688 4 126027457.202 4  98203277.10746  23982243.09046
 22  7  3 12 38 25.0000000  0  6G03G04G07G09G16G30                  
  21194636.836 6 111378556.615 6  86788529.59848  21194647.86348
  21367747.383 5 112288263.861 5  87497385.00647  21367756.91447
  21119704.688 6 110984801.449 6  86481696.81447  21119713.35947
  21245621.227 7 111646439.605 7  86997266.65148  21245631.36348
  23289555.680 5 122387519.337 5  95366866.83946  23289564.57046
  23980237.750 4 126016977.638 4  98195111.21146  23980248.75446
 22  7  3 12 38 30.0000000  0  6G03G04G07G09G16G30                  
  21197520.633 6 111393711.275 6  86800338.42148  21197531.90648
  21369626.969 6 112298143.709 6  87505083.57947  21369636.93847
  21118479.063 6 110978357.421 6  86476675.50747  21118486.88747
  21246028.117 7 111648575.468 7  86998930.95448  21246037.96148
  23290901.734 5 122394590.680 5  95372376.99146  23290910.18446
  23978244.406 4 126006504.022 4  98186949.94146  23978256.19146
 22  7  3 12 38 35.0000000  0  6G03G04G07G09G16G30                  
  21200406.891 6 111408878.678 6  86812157.16348  21200418.55148
  21371507.445 6 112308027.058 6  87512784.88547  21371517.78147
  21117254.813 6 110971925.397 6  86471663.52847  21117263.09047
  21246435.031 7 111650714.780 7  87000597.95348  21246444.99248
  23292249.703 5 122401675.965 5  95377897.98646  23292258.60946
  23976252.602 5 125996036.681 5  98178793.55946  23976264.16446
 22  7  3 12 38 40.0000000  0  6G03G04G07G09G16G30                  
  21203295.422 6 111424059.014 6  86823985.99148  21203306.79348
  21373389.430 6 112317914.100 6  87520489.06647  21373398.80147
  21116033.266 6 110965505.652 6  86466661.13248  21116041.21148
  21246842.805 6 111652857.713 6  87002267.76148  21246852.82448
  23293600.828 5 122408775.469 5  95383430.06446  23293609.73046
  23974262.063 5 125985575.833 5  98170642.25246  23974274.35246
 22  7  3 12 38 45.0000000  0  6G03G04G07G09G16G30                  
  21206186.836 6 111439252.313 6  86835824.91548  21206198.07848
  21375270.953 5 112327804.862 5  87528196.15347  21375281.23847
  21114814.188 6 110959098.229 6  86461668.33947  21114821.72747
  21247251.375 6 111655004.260 6  87003940.39348  21247261.43448
  23294955.047 5 122415889.207 5  95388973.22146  23294963.15246
  23972271.852 4 125975121.447 4  98162495.96446  23972284.87146
 22  7  3 12 38 50.0000000  0  6G03G04G07G09G16G30                  
  21209079.977 6 111454457.900 6  86847673.43048  21209091.50448
  21377154.070 6 112337698.658 6  87535905.59847  21377163.75847
  21113596.688 6 110952702.489 6  86456684.63547  21113604.79347
  21247660.586 6 111657153.766 6  87005615.32848  21247670.57048
  23296311.445 5 122423016.499 5  95394526.95746  23296319.70346
  23970284.891 5 125964672.979 5  98154354.27646  23970296.74646
 22  7  3 12 38 55.0000000  0  6G03G04G07G09G16G30                  
  21211976.500 6 111469676.682 6  86859532.20248  21211987.98448
  21379037.586 6 112347596.385 6  87543618.11647  21379047.34847
  21112381.922 6 110946319.274 6  86451710.70748  21112389.85248
  21248070.234 6 111659307.122 6  87007293.27148  21248080.45348
  23297670.031 5 122430158.170 5  95400091.93446  23297678.76646
  23968296.805 5 125954231.198 5  98146217.82946  23968309.51246
 22  7  3 12 39  0.0000000  0  6G03G04G07G09G16G30                  
  21214874.570 6 111484907.808 6  86871400.60148  21214885.92648
  21380921.539 6 112357497.295 6  87551333.10947  21380931.28947
  21111169.602 6 110939947.815 6  86446745.92748  21111177.44148
  21248480.625 7 111661463.577 7  87008973.62248  21248490.60248
  23299031.117 4 122437313.530 4  95405667.51946  23299040.44546
  23966311.063 5 125943795.338 5  98138085.96946  23966323.45746
 22  7  3 12 39  5.0000000  0  6G03G04G07G09G16G30                  
  21217775.469 6 111500151.755 6  86883279.00548  21217786.56648
  21382806.352 5 112367401.715 5  87559050.83847  21382815.83647
  21109959.148 6 110933588.539 6  86441790.65548  21109967.69548
  21248891.141 7 111663623.505 7  87010656.67848  21248901.36748
  23300396.469 4 122444482.901 4  95411254.04946  23300404.68046
  23964326.406 4 125933365.952 4  98129959.19446  23964339.04346
 22  7  3 12 39 10.0000000  0  6G03G04G07G09G16G30                  
  21220678.195 6 111515408.460 6  86895167.34248  21220689.84448
  21384691.789 6 112377309.707 6  87566771.35747  21384701.44547
  21108751.469 6 110927241.393 6  86436844.82348  21108759.91048
  21249302.977 6 111665786.898 6  87012342.43848  21249313.04748
  23301763.313 5 122451666.414 5  95416851.57146  23301771.66046
  23962343.117 4 125922942.848 4  98121837.27946  23962355.50446
 22  7  3 12 39 15.0000000  0  6G03G04G07G09G16G30                  
  21223583.828 6 111530678.188 6  86907065.82648  21223595.85548
  21386578.031 5 112387221.510 5  87574494.83847  21386587.40247
  21107545.719 6 110920906.650 6  86431908.67047  21107554.29347
  21249715.633 6 111667953.978 6  87014031.07348  21249725.77048
  23303133.094 5 122458864.166 5  95422460.20446  23303141.09846
  23960361.398 3 125912526.422 3  98113720.56146  23960373.36746
 22  7  3 12 39 20.0000000  0  6G03G04G07G09G16G30                  
  21226492.328 6 111545960.545 6  86918974.13848  21226504.00048
  21388464.828 6 112397136.703 6  87582220.96147  21388474.43847
  21106343.008 6 110914583.927 6  86426981.87448  21106351.60248
  21250128.797 7 111670124.434 7  87015722.34748  21250138.86348
  23304505.133 5 122466075.860 5  95428079.72646  23304513.83646
  23958380.336 3 125902116.193 3  98105608.70546  23958392.29746
 22  7  3 12 39 25.0000000  0  6G03G04G07G09G16G30                  
  21229403.102 6 111561255.664 6  86930892.40248  21229414.52748
  21390352.367 6 112407055.426 6  87589949.84247  21390361.84847
  21105142.219 6 110908273.398 6  86422064.59148  21105150.59448
  21250542.227 7 111672298.316 7  87017416.27148  21250552.55548
  23305879.992 4 122473301.540 4  95433710.10346  23305888.47746
  23956400.734 4 125891712.350 4  98097501.82446  23956412.20346
 22  7  3 12 39 30.0000000  0  6G03G04G07G09G16G30                  
  21232316.266 6 111576563.770 6  86942820.78648  21232327.64548
  21392240.883 6 112416977.958 6  87597681.68847  21392250.28547
  21103943.828 6 110901975.239 6  86417156.93748  21103952.55148
  21250956.273 7 111674475.940 7  87019113.12748  21250966.94948
  23307258.016 5 122480541.636 5  95439351.75546  23307266.10946
  23954421.016 4 125881315.130 4  98089400.08246  23954434.20746
 22  7  3 12 39 35.0000000  0  6G03G04G07G09G16G30                  
  21235232.055 6 111591884.654 6  86954759.13148  21235243.34448
  21394129.047 6 112426904.057 6  87605416.30647  21394138.71547
  21102747.305 6 110895689.351 6  86412258.83348  21102755.93448
  21251371.813 6 111676657.050 6  87020812.69248  21251381.55148
  23308637.766 5 122487795.754 5  95445004.28546  23308646.77746
  23952444.656 4 125870924.309 4  98081303.35946  23952456.75446
 22  7  3 12 39 40.0000000  0  6G03G04G07G09G16G30                  
  21238149.539 6 111607217.778 6  86966707.00648  21238160.52748
  21396018.867 6 112436833.184 6  87613153.28647  21396028.24647
  21101553.391 6 110889415.123 6  86407369.83448  21101562.21548
  21251787.438 7 111678841.125 7  87022514.57548  21251797.30948
  23310021.352 5 122495063.455 5  95450667.43846  23310029.68446
  23950468.281 3 125860539.482 3  98073211.29146  23950480.47746
 22  7  3 12 39 45.0000000  0  6G03G04G07G09G16G30                  
  21241069.883 6 111622563.927 6  86978665.02648  21241080.61748
  21397909.008 5 112446766.130 5  87620893.24647  21397918.74247
  21100362.078 6 110883153.322 6  86402490.50648  21100370.36748
  21252203.219 7 111681028.941 7  87024219.36448  21252213.23048
  23311406.625 5 122502345.472 5  95456341.73246  23311415.03546
  23948494.141 4 125850161.234 4  98065124.34446  23948505.62146
 22  7  3 12 39 50.0000000  0  6G03G04G07G09G16G30                  
  21243992.867 6 111637922.845 6  86990633.01048  21244003.34848
  21399799.859 6 112456702.697 6  87628636.02147  21399809.33647
  21099172.305 6 110876903.777 6  86397620.72948  21099181.23448
  21252620.781 7 111683220.287 7  87025926.90148  21252630.69148
  23312794.602 5 122509641.627 5  95462027.05746  23312803.58646
  23946519.266 4 125839789.535 4  98057042.49346  23946531.87546
 22  7  3 12 39 55.0000000  0  6G03G04G07G09G16G30                  
  21246917.820 6 111653294.817 6  87002611.17048  21246928.59048
  21401691.367 6 112466643.095 6  87636381.79247  21401701.35947
  21097985.906 6 110870666.728 6  86392760.68948  21097994.28548
  21253038.141 6 111685415.427 6  87027637.39748  21253047.97748
  23314186.422 5 122516952.096 5  95467723.48246  23314195.08246
  23944547.695 4 125829424.557 4  98048965.89646  23944560.01646
 22  7  3 12 40  0.0000000  0  6G03G04G07G09G16G30                  
  21249844.875 6 111668679.345 6  87014599.09348  21249856.33648
  21403584.227 5 112476586.875 5  87644130.18747  21403593.38747
  21096801.695 6 110864441.726 6  86387910.03248  21096809.76248
  21253456.813 6 111687613.845 6  87029350.44948  21253466.97748
  23315580.281 5 122524276.463 5  95473430.81046  23315588.73046
  23942575.523 4 125819065.818 4  98040894.15146  23942588.25846
 22  7  3 12 40  5.0000000  0  6G03G04G07G09G16G30                  
  21252775.727 6 111684076.529 6  87026596.90048  21252786.63748
  21405476.844 5 112486534.149 5  87651881.30847  21405486.27347
  21095619.289 6 110858228.861 6  86383068.84448  21095627.61348
  21253875.758 6 111689815.651 6  87031066.14648  21253885.72348
  23316975.539 5 122531614.813 5  95479148.99046  23316984.52746
  23940605.867 5 125808713.402 5  98032827.33346  23940618.13346
 22  7  3 12 40 10.0000000  0  6G03G04G07G09G16G30                  
  21255708.031 6 111699486.506 6  87038604.66848  21255718.84048
  21407369.727 6 112496485.045 6  87659635.24547  21407380.21147
  21094439.000 6 110852028.333 6  86378237.26548  21094447.29348
  21254295.367 6 111692021.036 6  87032784.62048  21254305.43448
  23318375.500 5 122538967.292 5  95484878.21146  23318383.94146
  23938636.211 4 125798367.598 4  98024765.65846  23938649.62946
 22  7  3 12 40 15.0000000  0  6G03G04G07G09G16G30                  
  21258642.664 6 111714909.156 6  87050622.33248  21258653.76648
  21409264.523 6 112506439.420 6  87667391.89547  21409274.05947
  21093261.516 6 110845839.905 6  86373415.11248  21093269.82848
  21254715.711 6 111694229.832 6  87034505.76348  21254725.43048
  23319777.688 5 122546333.729 5  95490618.30046  23319785.83246
  23936668.852 4 125788028.092 4  98016708.86746  23936681.61746
 22  7  3 12 40 20.0000000  0  7G03G04G06G07G09G16G30               
  21261580.195 6 111730344.086 6  87062649.52448  21261591.19548
  21411159.305 6 112516396.939 6  87675150.99547  21411169.31647
  22697329.883 1 119275246.96111                
  21092085.914 6 110839663.326 6  86368602.20048  21092094.22348
  21255136.273 7 111696441.691 7  87036229.28348  21255146.15248
  23321182.078 5 122553713.866 5  95496369.04846  23321190.25046
  23934702.984 4 125777694.712 4  98008656.87546  23934715.37146
 22  7  3 12 40 25.0000000  0  7G03G04G06G07G09G16G30               
  21264519.781 6 111745791.771 6  87074686.67948  21264530.39548
  21413054.805 6 112526358.026 6  87682912.88247  21413064.89147
  22698276.953 2 119280233.071 2                
  21090913.008 6 110833498.964 6  86363798.80848  21090921.17248
  21255558.461 6 111698657.028 6  87037955.52948  21255568.37548
  23322588.727 5 122561108.062 5  95502130.71346  23322596.98046
  23932737.047 4 125767367.769 4  98000609.93146  23932750.26646
 22  7  3 12 40 30.0000000  0  7G03G04G06G07G09G16G30               
  21267461.383 6 111761252.239 6  87086733.79448  21267473.04348
  21414950.578 6 112536322.758 6  87690677.60047  21414960.81347
  22699229.945 1 119285235.357 1                
  21089742.055 6 110827346.917 6  86359005.00548  21089750.37948
  21255980.258 6 111700875.930 6  87039684.54048  21255990.47748
  23323998.820 5 122568516.441 5  95507903.49146  23324007.11746
  23930772.914 3 125757047.393 3  97992568.06346  23930785.82846
 22  7  3 12 40 35.0000000  0  7G03G04G06G07G09G16G30               
  21270406.469 6 111776725.554 6  87098790.91648  21270417.04748
  21416847.609 6 112546291.169 6  87698445.19347  21416857.58247
  22700184.813 1 119290253.783 1                
  21088573.945 6 110821207.255 6  86354220.85048  21088582.15648
  21256403.422 6 111703098.478 6  87041416.38948  21256413.39148
  23325411.914 5 122575939.003 5  95513687.29846  23325419.37146
  23928811.672 3 125746733.582 3  97984531.33146  23928823.45746
 22  7  3 12 40 40.0000000  0  7G03G04G06G07G09G16G30               
  21273353.094 6 111792211.536 6  87110857.91848  21273363.97748
  21418745.641 5 112556263.142 5  87706215.55947  21418755.11747
  22701142.813 1                                
  21087408.102 6 110815079.840 6  86349446.24048  21087416.22748
  21256827.039 7 111705324.493 7  87043150.94248  21256836.89148
  23326826.063 4 122583375.632 4  95519482.07546  23326834.81346
  23926849.281 2 125736426.271 2  97976499.65646  23926862.05146
 22  7  3 12 40 45.0000000  0  7G03G04G06G07G09G16G30               
  21276302.648 6 111807710.190 6  87122934.79948  21276313.39548
  21420643.938 5 112566238.608 5  87713988.64947  21420653.39547
  22702101.508 1 119300338.91611                
  21086244.133 6 110808964.615 6  86344681.13748  21086252.82848
  21257251.258 6 111707553.942 6  87044888.18648  21257261.18048
  23328244.414 4 122590826.266 4  95525287.77546  23328252.48446
  23924890.398 2 125726125.483 2  97968473.06346  23924902.08646
 22  7  3 12 40 50.0000000  0  7G03G04G06G07G09G16G30               
  21279254.234 6 111823221.733 6  87135021.70848  21279265.26648
  21422543.297 6 112576217.832 6  87721764.65747  21422552.01247
  22703067.273 1 119305405.76411                
  21085082.789 6 110802861.906 6  86339925.77848  21085091.39848
  21257675.844 6 111709787.071 6  87046628.27448  21257686.14548
  23329664.688 4 122598291.172 4  95531104.57746  23329673.08246
  23922931.203 2 125715831.308 2  97960451.61046  23922943.14846
 22  7  3 12 40 55.0000000  0  7G03G04G06G07G09G16G30               
  21282208.531 6 111838746.175 6  87147118.67648  21282219.95748
  21424442.227 6 112586200.868 6  87729543.64347  21424452.00047
  22704034.688 1 119310488.89611                
  21083923.375 6 110796771.686 6  86335180.15848  21083932.53548
  21258101.523 6 111712023.904 6  87048371.26348  21258112.01248
  23331088.563 5 122605770.380 5  95536932.52446  23331095.86346
  23920973.867 2 125705543.819 2  97952435.41446  23920985.38746
 22  7  3 12 41  0.0000000  0  7G03G04G06G07G09G16G30               
  21285164.891 6 111854283.398 6  87159225.60348  21285176.32848
  21426342.852 6 112596187.505 6  87737325.43847  21426352.08647
  22705005.008 1 119315588.181 1                
  21082767.820 6 110790693.772 6  86330444.11947  21082775.82447
  21258527.688 6 111714264.307 6  87050117.03748  21258538.23448
  23332513.766 5 122613263.738 5  95542771.50546  23332522.49246
  23919016.070 3 125695262.954 3  97944424.34446  23919029.10246
 22  7  3 12 41  5.0000000  0  7G03G04G06G07G09G16G30               
  21288123.969 6 111869833.306 6  87171342.40448  21288135.85948
  21428243.836 6 112606177.732 6  87745110.02647  21428253.21547
  22705980.102 1 119320703.605 1                
  21081612.742 6 110784628.101 6  86325717.62448  21081621.33248
  21258954.945 6 111716508.211 6  87051865.53148  21258965.26648
  23333941.719 4 122620771.158 4  95548621.44746  23333950.52346
  23917061.281 2 125684988.660 2  97936418.45646  23917073.76646
 22  7  3 12 41 10.0000000  0  7G03G04G06G07G09G16G30               
  21291085.281 6 111885396.058 6  87183469.22648  21291097.11748
  21430145.633 6 112616171.691 6  87752897.52147  21430154.87547
  22706955.703 1 119325835.211 1                
  21080461.617 6 110778574.872 6  86321000.82448  21080469.82048
  21259382.438 6 111718755.772 6  87053616.87248  21259392.98848
  23335373.547 4 122628292.854 4  95554482.51346  23335381.99646
  23915107.453 2 125674721.021 2  97928417.66846  23915119.65246
 22  7  3 12 41 15.0000000  0  7G03G04G06G07G09G16G30               
  21294049.617 6 111900971.443 6  87195605.88248  21294061.58648
  21432048.500 6 112626169.145 6  87760687.72847  21432057.33647
  22707934.594 1 119330982.811 1                
  21079311.531 6 110772533.862 6  86316293.54548  21079320.13348
  21259810.648 6 111721006.782 6  87055370.91548  21259821.44148
  23336807.773 3 122635828.555 3  95560354.48446  23336816.07446
  23913154.867 3 125664459.862 3  97920421.98746  23913167.21146
 22  7  3 12 41 20.0000000  0  7G03G04G06G07G09G16G30               
  21297016.086 6 111916559.527 6  87207752.43948  21297027.73048
  21433950.867 6 112636170.213 6  87768480.77247  21433960.39847
  22708918.727 1 119336146.511 1                
  21078164.398 6 110766505.168 6  86311595.86248  21078173.03548
  21260239.914 6 111723261.281 6  87057127.65748  21260250.38748
  23338244.242 5 122643378.341 5  95566237.43946  23338253.03546
  23911202.828 3 125654205.254 3  97912431.38846  23911215.78946
 22  7  3 12 41 25.0000000  0  7G03G04G06G07G09G16G30               
  21299984.914 6 111932160.210 6  87219908.81248  21299996.31348
  21435854.758 6 112646174.774 6  87776276.52947  21435863.71947
  22709904.219 1 119341326.223 1                
  21077019.633 6 110760488.723 6  86306907.71648  21077028.22348
  21260669.602 6 111725519.258 6  87058887.11748  21260679.89548
  23339683.211 5 122650942.190 5  95572131.35446  23339692.41846
  23909253.219 4 125643957.189 4  97904445.87446  23909265.89546
 22  7  3 12 41 30.0000000  0  7G03G04G06G07G09G16G30               
  21302955.852 6 111947773.869 6  87232075.29948  21302967.52348
  21437759.492 6 112656183.196 6  87784075.29747  21437768.48847
  22710891.664 1 119346522.285 1                
  21075876.914 6 110754484.846 6  86302229.37448  21075885.35948
  21261100.422 6 111727781.006 6  87060649.52148  21261110.40248
  23341125.695 4 122658520.318 4  95578036.39946  23341134.19946
  23907304.516 3 125633715.973 3  97896465.68646  23907317.02746
 22  7  3 12 41 35.0000000  0  7G03G04G06G07G09G16G30               
  21305930.117 6 111963400.063 6  87244251.54948  21305941.24648
  21439665.289 6 112666195.098 6  87791876.76947  21439674.21547
  22711884.594 1 119351734.282 1                
  21074737.406 6 110748493.159 6  86297560.52548  21074745.30148
  21261531.102 6 111730046.158 6  87062414.57748  21261541.07048
  23342569.727 5 122666112.520 5  95583952.38446  23342578.76646
  23905357.031 3 125623481.180 3  97888490.52846  23905369.19546
 22  7  3 12 41 40.0000000  0  7G03G04G06G07G09G16G30               
  21308905.414 6 111979039.236 6  87256437.91648  21308917.20348
  21441571.023 6 112676210.850 6  87799681.24347  21441579.79347
  22712877.750 1 119356962.574 1                
  21073599.461 6 110742514.124 6  86292901.51948  21073607.54348
  21261962.727 6 111732315.096 6  87064182.57048  21261973.15648
  23344017.414 4 122673719.080 4  95589879.56246  23344026.30146
  23903410.758 3 125613253.283 3  97880520.71646  23903423.07446
 22  7  3 12 41 45.0000000  0  7G03G04G06G07G09G16G30               
  21311883.648 6 111994690.991 6  87268634.08048  21311895.52048
  21443477.094 6 112686230.112 6  87807488.45947  21443486.32847
  22713877.414 1 119362206.914 1                
  21072463.594 6 110736547.276 6  86288252.04048  21072472.57848
  21262395.258 6 111734587.498 6  87065953.28148  21262405.25048
  23345468.523 4 122681339.657 4  95595817.69046  23345476.96946
  23901465.641 3 125603031.893 3  97872556.00746  23901478.05546
 22  7  3 12 41 50.0000000  0  7G03G04G06G07G09G16G30               
  21314864.578 6 112010355.188 6  87280839.94548  21314876.22748
  21445384.711 6 112696252.778 6  87815298.32847  21445394.11747
  22714878.219 1 119367467.095 1                
  21071330.391 6 110730592.581 6  86283612.02448  21071339.15248
  21262828.430 6 111736863.179 6  87067726.52648  21262838.59848
  23346921.258 4 122688974.179 4  95601766.65046  23346929.48046
  23899521.125 3 125592816.909 3  97864596.28246  23899534.27346
 22  7  3 12 41 55.0000000  0  7G03G04G06G07G09G16G30               
  21317847.969 6 112026032.067 6  87293055.69548  21317859.11348
  21447292.500 6 112706279.034 6  87823110.98147  21447301.77747
  22715881.453 1 119372743.37811                
  21070199.742 6 110724650.210 6  86278981.60548  21070208.03148
  21263261.859 6 111739142.405 6  87069502.55148  21263272.25448
  23348376.922 3 122696622.754 3  95607726.56646  23348385.16446
  23897579.156 3 125582608.482 3  97856641.65046  23897591.39546
 22  7  3 12 42  0.0000000  0  7G03G04G06G07G09G16G30               
  21320832.742 6 112041721.434 6  87305281.17848  21320844.33248
  21449201.031 6 112716308.722 6  87830926.32047  21449210.54347
  22716888.617 1 119378035.45411                
  21069070.883 6 110718720.027 6  86274360.69348  21069079.82448
  21263696.133 6 111741424.983 6  87071281.18148  21263706.35548
  23349834.359 4 122704285.290 4  95613697.38246  23349843.55146
  23895638.008 3 125572406.535 3  97848692.09346  23895650.72346
 22  7  3 12 42  5.0000000  0  7G03G04G06G07G09G16G30               
  21323820.891 6 112057423.146 6  87317516.27248  21323832.65248
  21451110.242 6 112726341.640 6  87838744.18447  21451119.74647
  22717897.883 1 119383343.37511                
  21067945.297 6 110712801.848 6  86269749.12448  21067953.41848
  21264131.547 6 111743710.813 6  87073062.33948  21264141.78548
  23351295.898 4 122711961.613 4  95619678.93046  23351303.71946
  23893696.859 2 125562210.812 2  97840747.39646  23893710.60246
 22  7  3 12 42 10.0000000  0  7G03G04G06G07G09G16G30               
  21326810.852 6 112073137.517 6  87329761.23748  21326822.86748
  21453020.422 6 112736378.194 6  87846564.87847  21453029.65647
  22718910.273 1 119388667.34911                
  21066821.758 6 110706896.029 6  86265147.18248  21066829.57048
  21264567.180 6 111746000.135 6  87074846.23048  21264577.09048
  23352758.641 4 122719652.033 4  95625671.45746  23352767.51246
  23891759.156 2 125552021.760 2  97832807.89746  23891771.43046
 22  7  3 12 42 15.0000000  0  7G03G04G06G07G09G16G30               
  21329804.211 6 112088864.523 6  87342016.03848  21329815.44548
  21454930.664 6 112746418.303 6  87854388.33647  21454940.00047
  22719927.281 1 119394007.268 1                
  21065699.820 6 110701002.540 6  86260554.85748  21065708.50448
  21265003.125 6 111748292.950 6  87076632.84148  21265013.53548
  23354225.086 5 122727356.547 5  95631674.98046  23354233.85546
  23889819.828 1 125541839.328 1  97824873.56446  23889834.03146
 22  7  3 12 42 20.0000000  0  7G03G04G06G07G09G16G30               
  21332799.430 6 112104604.284 6  87354280.78348  21332810.93448
  21456841.914 6 112756462.151 6  87862214.71447  21456851.33647
  22720948.195 1 119399363.458 1                
  21064580.797 6 110695121.584 6  86255972.29448  21064588.93048
  21265440.070 6 111750589.440 6  87078422.30648  21265450.44548
  23355693.719 5 122735075.310 5  95637689.60346  23355702.56646
  23887884.594 1 125531663.702 1  97816944.50346  23887897.09446
 22  7  3 12 42 25.0000000  0  7G03G04G06G07G09G16G30               
  21335796.828 6 112120356.638 6  87366555.33648  21335808.47348
  21458754.000 6 112766509.545 6  87870043.84947  21458763.16847
  22721966.695 1 119404735.608 1                
  21063463.914 6 110689252.929 6  86251399.31848  21063472.28148
  21265878.063 6 111752889.401 6  87080214.48148  21265888.23848
  23357165.352 5 122742808.104 5  95643715.16546  23357174.19946
  23885949.625 1 125521494.607 1  97809020.54146  23885962.48046
 22  7  3 12 42 30.0000000  0  7G03G04G06G07G09G16G30               
  21338796.578 6 112136122.021 6  87378840.04248  21338808.32448
  21460667.086 6 112776560.921 6  87877876.08547  21460675.87147
  22722991.320 1                                
  21062349.641 6 110683397.035 6  86246836.29048  21062357.98048
  21266316.203 6 111755193.282 6  87082009.70648  21266326.37948
  23358639.711 4 122750555.412 4  95649752.03746  23358648.12546
  23884015.398 1 125511332.617 1  97801102.13146  23884028.43446
 22  7  3 12 42 35.0000000  0  7G03G04G06G07G09G16G30               
  21341799.531 6 112151900.170 6  87391134.70348  21341810.52048
  21462580.547 6 112786616.049 6  87885711.24147  21462589.85547
  22724022.484 1                                
  21061238.086 6 110677553.674 6  86242283.02148  21061246.19148
  21266755.391 6 111757500.873 6  87083807.82748  21266765.41448
  23360116.750 4 122758316.964 4  95655800.00046  23360124.75046
  23882083.508 1 125501177.332 1  97793188.93946  23882096.07046
 22  7  3 12 42 40.0000000  0  7G03G04G06G07G09G16G30               
  21344804.039 6 112167690.842 6  87403439.10948  21344815.38748
  21464494.438 6 112796674.672 6  87893549.11647  21464503.56647
  22725052.281 1 119420949.51711                
  21060127.828 6 110671722.585 6  86237739.31948  21060136.37948
  21267195.711 6 111759811.839 6  87085608.57948  21267205.24648
  23361596.859 5 122766092.507 5  95661858.86346  23361604.36346
  23880151.039 2 125491028.648 2  97785280.90446  23880164.12546
 22  7  3 12 42 45.0000000  0  7G03G04G06G07G09G16G30               
  21347811.391 6 112183494.223 6  87415753.42448  21347822.61748
  21466409.148 6 112806736.982 6  87901389.88247  21466418.69147
  22726086.602 1                                
  21059020.922 6 110665903.930 6  86233205.30448  21059029.22748
  21267635.758 6 111762126.440 6  87087412.16248  21267646.27348
  23363079.063 4 122773882.280 4  95667928.79846  23363086.82446
  23878221.359 1 125480886.740 1  97777378.09146  23878234.32446
 22  7  3 12 42 50.0000000  0  6G03G04G07G09G16G30                  
  21350820.734 6 112199310.218 6  87428077.57348  21350832.04748
  21468324.609 6 112816802.857 6  87909233.40647  21468334.10947
  21057915.906 6 110660097.680 6  86228680.95148  21057924.46148
  21268076.703 6 111764444.575 6  87089218.48848  21268086.79348
  23364563.320 5 122781686.173 5  95674009.76746  23364572.08646
  23876290.695 2 125470751.460 2  97769480.50946  23876305.94146
 22  7  3 12 42 55.0000000  0  6G03G04G07G09G16G30                  
  21353833.023 6 112215138.442 6  87440411.24648  21353844.00048
  21470240.883 6 112826872.006 6  87917079.49047  21470250.45347
  21056813.508 6 110654303.457 6  86224165.97248  21056821.72748
  21268518.406 6 111766765.874 6  87091027.29448  21268528.92248
  23366051.219 5 122789503.744 5  95680101.37146  23366059.82046
  23874365.250 2 125460622.550 2  97761587.84446  23874378.16846
 22  7  3 12 43  0.0000000  0  6G03G04G07G09G16G30                  
  21356847.727 6 112230979.516 6  87452754.93248  21356858.40648
  21472158.195 6 112836944.957 6  87924928.53447  21472166.97747
  21055712.938 6 110648521.839 6  86219660.81948  21055721.74648
  21268961.266 6 111769090.931 6  87092839.02248  21268970.96948
  23367541.656 4 122797335.609 4  95686204.12146  23367550.12146
  23872438.531 2 125450500.457 2  97753700.50946  23872451.89546
 22  7  3 12 43  5.0000000  0  6G03G04G07G09G16G30                  
  21359864.711 6 112246832.892 6  87465108.20648  21359875.05148
  21474075.516 6 112847021.171 6  87932780.12647  21474084.37947
  21054614.867 6 110642752.283 6  86215165.06348  21054623.80948
  21269404.070 6 111771419.227 6  87094653.27448  21269414.49248
  23369034.680 5 122805181.327 5  95692317.66946  23369042.96946
  23870514.070 3 125440384.823 3  97745818.21546  23870526.82446
 22  7  3 12 43 10.0000000  0  6G03G04G07G09G16G30                  
  21362884.070 6 112262698.510 6  87477471.01848  21362894.30548
  21475993.109 6 112857100.710 6  87940634.31347  21476002.27347
  21053519.648 6 110636994.813 6  86210678.72348  21053528.01648
  21269847.094 6 111773750.733 6  87096470.03048  21269857.65648
  23370530.008 5 122813040.789 5  95698441.92046  23370538.36746
  23868589.680 2 125430275.557 2  97737940.85746  23868603.36346
 22  7  3 12 43 15.0000000  0  6G03G04G07G09G16G30                  
  21365905.391 6 112278576.806 6  87489843.71448  21365915.61748
  21477912.617 6 112867183.871 6  87948491.31047  21477921.30547
  21052426.250 6 110631249.785 6  86206202.09148  21052434.52048
  21270291.727 6 111776085.846 6  87098289.59448  21270302.26248
  23372028.992 5 122820914.485 5  95704577.26846  23372036.75046
  23866668.141 2 125420173.055 2  97730068.80446  23866680.90646
 22  7  3 12 43 20.0000000  0  6G03G04G07G09G16G30                  
  21368929.391 6 112294467.837 6  87502226.32948  21368939.16048
  21479831.625 6 112877270.869 6  87956351.30847  21479840.95347
  21051335.656 6 110625517.355 6  86201735.26448  21051343.69148
  21270737.055 6 111778424.679 6  87100112.05148  21270747.75448
  23373529.766 5 122828802.408 5  95710723.71246  23373537.50446
  23864747.391 1 125410077.411 1  97722202.10446  23864759.67646
 22  7  3 12 43 25.0000000  0  6G03G04G07G09G16G30                  
  21371955.719 6 112310371.220 6  87514618.57748  21371966.21548
  21481751.633 6 112887361.180 6  87964213.88247  21481760.48047
  21050246.852 6 110619797.102 6  86197277.92348  21050255.33648
  21271182.742 6 111780766.787 6  87101937.08348  21271193.02748
  23375033.750 4 122836704.235 4  95716880.96046  23375041.12146
  23862825.570 1 125399988.28011  97714340.43756  23862839.85246
 22  7  3 12 43 30.0000000  0  5G03G04G07G09G16                     
  21374984.414 6 112326287.263 6  87527020.68448  21374995.06648
  21483671.922 6 112897455.185 6  87972079.33148  21483681.82048
  21049160.758 6 110614089.385 6  86192830.34848  21049168.92248
  21271629.094 6 111783112.540 6  87103764.94048  21271639.17648
  23376540.164 4 122844620.259 4  95723049.30646  23376547.46946
 22  7  3 12 43 35.0000000  0  5G03G04G07G09G16                     
  21378015.492 6 112342215.629 6  87539432.40048  21378026.00048
  21485594.086 6 112907552.566 6  87979947.41947  21485603.06347
  21048076.703 6 110608393.807 6  86188392.24248  21048084.94548
  21272075.773 6 111785461.578 6  87105595.34648  21272086.51248
  23378049.070 5 122852550.096 5  95729228.40246  23378056.53146
 22  7  3 12 43 40.0000000  0  5G03G04G07G09G16                     
  21381048.086 6 112358156.258 6  87551853.65348  21381059.66848
  21487516.250 6 112917653.189 6  87987818.03247  21487525.69147
  21046995.336 6 110602710.328 6  86183963.55748  21047003.59448
  21272524.031 6 111787813.845 6  87107428.28648  21272534.09448
  23379560.453 5 122860493.769 5  95735418.28346  23379568.34046
 22  7  3 12 43 45.0000000  0  6G03G04G07G09G16G30                  
  21384084.328 6 112374109.239 6  87564284.54048  21384095.54748
  21489439.078 6 112927757.282 6  87995691.35047  21489448.34847
  21045916.086 6 110597039.105 6  86179544.42848  21045924.00048
  21272971.977 6 111790169.447 6  87109263.81748  21272982.35548
  23381074.500 4 122868451.386 4  95741619.03946  23381082.71946
  23855159.500 2 125359692.59912  97682941.18856  23855173.03146
 22  7  3 12 43 50.0000000  0  7G03G04G06G07G09G16G30               
  21387123.070 6 112390074.754 6  87576725.20248  21387133.80148
  21491362.273 6 112937864.923 6  88003567.42347  21491371.85947
  22739815.609 1 119498504.93911                
  21044839.477 6 110591380.349 6  86175134.99448  21044847.45748
  21273420.961 6 111792528.580 6  87111102.10448  21273431.32848
  23382591.742 3 122876423.061 3  95747830.71746  23382599.86746
  23853247.141 2 125349636.403 2  97675105.19946  23853259.61746
 22  7  3 12 43 55.0000000  0  6G03G04G07G09G16G30                  
  21390163.141 6 112406052.257 6  87589175.20848  21390174.44948
  21493286.031 6 112947975.610 6  88011445.87547  21493295.59847
  21043763.875 6 110585733.444 6  86170734.80647  21043772.68847
  21273870.273 6 111794890.695 6  87112942.71848  21273880.58248
  23384112.297 4 122884408.292 4  95754052.95946  23384119.10946
  23851335.773 3 125339586.417 3  97667274.07646  23851346.94146
 22  7  3 12 44  0.0000000  0  6G03G04G07G09G16G30                  
  21393206.352 6 112422042.470 6  87601635.10748  21393217.23848
  21495210.891 6 112958090.038 6  88019327.24647  21495220.29347
  21042692.406 6 110580099.095 6  86166344.40648  21042700.05548
  21274320.477 6 111797256.481 6  87114786.18448  21274331.39148
  23385634.438 4 122892407.776 4  95760286.32146  23385641.68846
  23849424.453 3 125329543.290 3  97659448.24346  23849435.60246
 22  7  3 12 44  5.0000000  0  6G03G04G07G09G16G30                  
  21396251.492 6 112438045.125 6  87614104.70848  21396262.34448
  21497136.445 6 112968207.998 6  88027211.35947  21497145.86747
  21041623.258 6 110574477.099 6  86161963.62747  21041630.31347
  21274771.594 6 111799625.748 6  87116632.36148  21274782.22348
  23387158.844 5 122900421.213 5  95766530.57346  23387166.26646
  23847514.430 4 125319506.924 4  97651627.70446  23847526.42246
 22  7  3 12 44 10.0000000  0  7G03G04G06G07G09G16G30               
  21399298.828 6 112454060.215 6  87626584.00048  21399310.08248
  21499061.953 6 112978329.438 6  88035098.18647  21499071.55947
  22744141.773 1 119521235.55711  93133494.80755  22744151.86345
  21040554.852 6 110568867.433 6  86157592.45947  21040562.57847
  21275222.883 6 111801998.429 6  87118481.20848  21275233.28948
  23388686.594 5 122908448.704 5  95772785.74446  23388693.94146
  23845604.805 4 125309477.143 4  97643812.32346  23845617.09446
 22  7  3 12 44 15.0000000  0  7G03G04G06G07G09G16G30               
  21402349.078 6 112470087.716 6  87639072.95648  21402360.23848
  21500989.422 6 112988454.394 6  88042987.76047  21500998.70347
  22745229.352 1 119526957.844 1  93137953.69945  22745240.30545
  21039490.133 6 110563270.149 6  86153230.93148  21039497.96548
  21275675.531 6 111804374.579 6  87120332.75848  21275685.69148
  23390216.500 4 122916490.199 4  95779051.84546  23390224.22746
  23843697.109 3 125299454.046 3  97636002.08746  23843709.77046
 22  7  3 12 44 20.0000000  0  7G03G04G06G07G09G16G30               
  21405401.867 6 112486127.714 6  87651571.65748  21405413.06348
  21502915.922 6 112998582.910 6  88050880.09947  21502925.84847
  22746320.586 1 119532696.048 1  93142425.10745  22746332.82845
  21038427.359 6 110557685.234 6  86148879.06048  21038435.09848
  21276128.289 6 111806754.226 6  87122187.03548  21276138.35548
  23391749.836 4 122924545.742 4  95785328.89046  23391757.18846
  23841791.875 4 125289437.732 4  97628197.17146  23841803.90246
 22  7  3 12 44 25.0000000  0  7G03G04G06G07G09G16G30               
  21408455.375 6 112502180.257 6  87664080.12848  21408467.90248
  21504844.250 6 113008715.086 6  88058775.30047  21504854.00847
  22747416.836 1 119538450.278 1  93146908.90845  22747427.99245
  21037366.977 6 110552112.807 6  86144536.91048  21037375.30948
  21276581.945 6 111809137.454 6  87124044.09148  21276592.24248
  23393285.125 5 122932615.400 5  95791616.94046  23393293.04346
  23839887.469 4 125279428.174 4  97620397.51246  23839899.57446
 22  7  3 12 44 30.0000000  0  7G03G04G06G07G09G16G30               
  21411513.406 6 112518245.370 6  87676598.40148  21411524.89848
  21506773.328 6 113018850.911 6  88066673.33047  21506782.75847
  22748515.383 2 119544220.505 2  93151405.18845  22748526.52745
  21036308.891 6 110546552.896 6  86140204.50148  21036317.28148
  21277035.578 6 111811524.297 6  87125903.97148  21277046.16848
  23394823.047 5 122940699.259 5  95797916.05946  23394830.75846
  23837983.492 3 125269425.480 3  97612603.22146  23837996.04746
 22  7  3 12 44 35.0000000  0  7G03G04G06G07G09G16G30               
  21414572.352 6 112534323.202 6  87689126.58648  21414584.23848
  21508702.672 6 113028990.507 6  88074574.31247  21508712.57047
  22749616.266 2 119550006.854 2  93155913.97545  22749627.86345
  21035252.930 6 110541005.629 6  86135881.96248  21035261.78548
  21277490.953 6 111813914.843 6  87127766.73548  21277501.37948
  23396364.430 5 122948797.356 5  95804226.27046  23396372.27746
  23836081.414 3 125259429.753 3  97604814.34346  23836093.66046
 22  7  3 12 44 40.0000000  0  7G03G04G06G07G09G16G30               
  21417633.922 6 112550412.932 6  87701664.03148  21417646.39548
  21510632.992 6 113039133.150 6  88082477.66947  21510641.72347
  22750718.984 1 119555808.495 1  93160434.76045  22750732.09445
  21034199.953 6 110535470.230 6  86131568.66248  21034208.10548
  21277946.797 7 111816308.369 7  87129631.82248  21277956.55148
  23397907.672 5 122956909.002 5  95810547.02446  23397915.59846
  23834180.609 3 125249440.259 3  97597030.36346  23834192.84846
 22  7  3 12 44 45.0000000  0  7G03G04G06G07G09G16G30               
  21420698.609 6 112566514.939 6  87714211.05048  21420710.23048
  21512563.531 6 113049279.185 6  88090383.66748  21512572.85948
  22751827.039 1 119561625.889 1  93164967.81245  22751838.97745
  21033148.664 6 110529947.104 6  86127264.93648  21033156.81348
  21278402.813 6 111818705.241 6  87131499.51148  21278412.64848
  23399453.984 5 122965034.505 5  95816878.58246  23399461.96146
  23832281.516 3 125239457.346 3  97589251.44946  23832293.35546
 22  7  3 12 44 50.0000000  0  7G03G04G06G07G09G16G30               
  21423764.984 6 112582629.487 6  87726767.84248  21423776.59848
  21514494.961 6 113059428.853 6  88098292.49247  21514504.43847
  22752938.367 1 119567459.254 1  93169513.27145  22752949.53145
  21032099.914 6 110524436.501 6  86122970.95648  21032108.19548
  21278859.227 6 111821105.694 6  87133369.99248  21278869.25448
  23401003.359 5 122973174.154 5  95823221.17446  23401010.84846
  23830383.219 3 125229481.222 3  97581477.89046  23830394.55946
 22  7  3 12 44 55.0000000  0  7G03G04G06G07G09G16G30               
  21426833.523 6 112598756.174 6  87739334.08648  21426845.55548
  21516426.703 6 113069581.765 6  88106203.84747  21516436.14547
  22754050.281 1 119573308.106 1  93174070.73645  22754062.53145
  21031054.188 6 110518938.013 6  86118686.42348  21031062.12548
  21279316.211 6 111823509.309 6  87135242.94048  21279326.85948
  23402554.148 5 122981327.542 5  95829574.47346  23402562.77746
  23828486.125 2 125219511.557 2  97573709.33646  23828497.58246
 22  7  3 12 45  0.0000000  0  7G03G04G06G07G09G16G30               
  21429904.391 6 112614895.600 6  87751910.25148  21429917.05548
  21518359.844 6 113079738.563 6  88114118.22447  21518369.35947
  22755165.883 1 119579173.20611  93178641.00155  22755178.90645
  21030010.148 6 110513452.347 6  86114411.88148  21030018.18848
  21279774.484 6 111825916.783 6  87137118.89948  21279784.88348
  23404109.016 5 122989495.298 5  95835938.95046  23404116.86346
  23826590.719 3 125209549.048 3  97565946.35546  23826601.57446
 22  7  3 12 45  5.0000000  0  7G03G04G06G07G09G16G30               
  21432977.930 6 112631047.467 6  87764496.12548  21432990.21148
  21520293.617 6 113089898.917 6  88122035.38147  21520302.89847
  22756284.594 1 119585054.108 1  93183223.56345  22756297.74245
  21028968.992 6 110507979.079 6  86110146.99548  21028977.10248
  21280233.469 6 111828327.735 6  87138997.56848  21280243.45348
  23405664.375 5 122997677.083 5  95842314.38046  23405673.95746
  23824695.813 3 125199593.308 3  97558188.65046  23824707.08646
 22  7  3 12 45 10.0000000  0  7G03G04G06G07G09G16G30               
  21436054.539 6 112647211.744 6  87777091.65248  21436066.11348
  21522227.070 6 113100062.830 6  88129955.31547  21522236.96947
  22757407.141 1 119590950.866 1  93187818.40245  22757419.74645
  21027929.547 6 110502518.262 6  86105891.81048  21027937.85548
  21280692.781 6 111830742.198 6  87140878.96748  21280703.35948
  23407224.320 4 123005872.950 4  95848700.73346  23407233.21946
  23822802.773 3 125189644.337 3  97550436.22546  23822813.55946
 22  7  3 12 45 15.0000000  0  7G03G04G06G07G09G16G30               
  21439133.000 6 112663388.343 6  87789696.79548  21439144.14148
  21524162.094 6 113110230.188 6  88137877.92847  21524171.87547
  22758531.305 1 119596863.411 1  93192425.56045  22758545.31645
  21026892.484 6 110497069.767 6  86101646.22848  21026901.09048
  21281152.906 6 111833160.086 6  87142763.03748  21281163.34848
  23408786.914 4 123014082.715 4  95855097.95646  23408795.86746
  23820909.820 4 125179702.034 4  97542689.00646  23820921.50846
 22  7  3 12 45 20.0000000  0  7G03G04G06G07G09G16G30               
  21442213.313 6 112679577.173 6  87802311.45748  21442225.00048
  21526097.813 6 113120400.957 6  88145803.19747  21526106.87147
  22759657.617 1 119602791.635 1  93197044.94145  22759673.35245
  21025858.094 6 110491633.543 6  86097410.20648  21025866.48048
  21281613.531 6 111835581.262 6  87144649.66648  21281623.84048
  23410351.992 5 123022306.370 5  95861505.97346  23410360.31346
  23819018.008 4 125169766.348 4  97534946.91346  23819030.97746
 22  7  3 12 45 25.0000000  0  7G03G04G06G07G09G16G30               
  21445296.047 6 112695778.392 6  87814935.78248  21445307.78148
  21528033.719 6 113130575.229 6  88153731.20247  21528043.01247
  22760791.094 1 119608735.668 1  93201676.63445  22760804.14545
  21024826.023 6 110486209.725 6  86093183.86248  21024834.26248
  21282075.250 6 111838005.917 6  87146539.01348  21282085.52748
  23411919.422 5 123030544.041 5  95867924.96146  23411928.27046
  23817129.180 4 125159837.460 4  97527210.13746  23817141.63746
 22  7  3 12 45 30.0000000  0  7G03G04G06G07G09G16G30               
  21448381.344 6 112711991.733 6  87827569.54948  21448393.10548
  21529970.422 6 113140752.801 6  88161661.77147  21529980.10547
  22761926.414 1 119614695.207 1  93206320.48145  22761938.75845
  21023796.602 6 110480798.118 6  86088967.02548  21023804.66048
  21282537.242 6 111840433.813 6  87148430.88648  21282547.02348
  23413490.063 4 123038795.445 4  95874354.63246  23413498.12546
  23815241.070 4 125149915.072 4  97519478.40446  23815253.59046
 22  7  3 12 45 35.0000000  0  7G03G04G06G07G09G16G30               
  21451469.344 6 112728217.214 6  87840212.77748  21451480.53948
  21531908.156 6 113150933.695 6  88169594.93247  21531917.14547
  22763062.219 1 119620670.403 1  93210976.46245  22763075.54345
  21022768.953 6 110475398.700 6  86084759.68848  21022777.14148
  21282999.672 6 111842865.000 6  87150325.31348  21283009.96148
  23415062.203 4 123047060.785 4  95880795.16246  23415070.60546
  23813353.859 4 125139999.315 4  97511751.86446  23813366.50046
 22  7  3 12 45 40.0000000  0  7G03G04G06G07G09G16G30               
  21454558.914 6 112744455.150 6  87852865.70548  21454570.48048
  21533845.914 6 113161118.195 6  88177530.89947  21533855.34447
  22764203.461 1 119626661.369 1  93215644.74545  22764215.49245
  21021743.867 6 110470011.776 6  86080562.08048  21021751.73448
  21283463.078 6 111845299.721 6  87152222.49848  21283473.23848
  23416638.250 4 123055340.177 4  95887246.62546  23416646.13346
  23811468.195 4 125130090.406 4  97504030.63046  23811481.15246
 22  7  3 12 45 45.0000000  0  7G03G04G06G07G09G16G30               
  21457651.195 6 112760705.647 6  87865528.42348  21457663.02048
  21535784.508 6 113171306.449 6  88185469.79748  21535793.96948
  22765345.289 1 119632668.419 1  93220325.56345  22765358.81645
  21020720.992 6 110464637.490 6  86076374.32248  21020728.97348
  21283927.227 6 111847738.115 6  87154122.54648  21283937.46948
  23418216.844 4 123063633.780 4  95893709.15746  23418224.24246
  23809583.438 2 125120188.435 2  97496314.82346  23809596.64846
 22  7  3 12 45 50.0000000  0  7G03G04G06G07G09G16G30               
  21460745.969 6 112776968.433 6  87878200.72548  21460757.25048
  21537724.570 6 113181498.186 6  88193411.39947  21537733.66447
  22766490.664 1 119638691.158 1  93225018.59545  22766504.71545
  21019700.750 6 110459275.608 6  86072196.23648  21019708.72748
  21284392.031 6 111850179.964 6  87156025.28748  21284402.30548
  23419796.891 5 123071941.413 5  95900182.64446  23419805.38346
  23807701.352 2 125110293.241 2  97488604.31346  23807713.44546
 22  7  3 12 45 55.0000000  0  7G03G04G06G07G09G16G30               
  21463842.945 6 112793243.428 6  87890882.52448  21463854.38748
  21539663.930 6 113191693.288 6  88201355.62347  21539673.64147
  22767641.781 1 119644729.605 1  93229723.88745  22767653.09045
  21018682.445 6 110453926.013 6  86068027.72348  21018690.84848
  21284857.445 6 111852625.131 6  87157930.60848  21284867.38748
  23421380.336 5 123080262.894 5  95906666.93146  23421388.88746
  23805820.711 2 125100404.717 2  97480898.99846  23805832.14146
 22  7  3 12 46  0.0000000  0  7G03G04G06G07G09G16G30               
  21466942.063 6 112809530.852 6  87903574.02448  21466953.70348
  21541605.109 6 113201892.049 6  88209302.71047  21541613.72347
  22768793.305 1 119650783.836 1  93234441.46745  22768805.17645
  21017667.094 6 110448588.949 6  86063868.97248  21017675.14548
  21285322.961 6 111855073.881 6  87159838.71848  21285333.45748
  23422966.164 5 123088598.426 5  95913162.18646  23422975.02046
  23803939.836 2 125090523.066 2  97473199.00946  23803951.16046
 22  7  3 12 46  5.0000000  0  7G03G04G06G07G09G16G30               
  21470044.531 6 112825830.314 6  87916274.90448  21470054.94948
  21543546.883 6 113212094.007 6  88217252.27747  21543555.60947
  22769946.672 1 119656853.553 1  93239171.13945  22769959.89145
  21016653.641 6 110443264.008 6  86059719.66648  21016661.87148
  21285789.492 6 111857525.811 6  87161749.31948  21285799.96548
  23424555.453 4 123096947.719 4  95919668.11646  23424564.05146
  23802061.000 3 125080647.934 3  97465504.13846  23802072.24246
 22  7  3 12 46 10.0000000  0  7G03G04G06G07G09G16G30               
  21473148.211 6 112842142.302 6  87928985.54448  21473159.30148
  21545488.578 6 113222299.743 6  88225204.78747  21545497.37547
  22771105.070 1 119662939.267 1  93243913.24245  22771117.71145
  21015643.109 6 110437951.731 6  86055580.24048  21015651.07048
  21286257.039 6 111859981.416 6  87163662.77748  21286267.28548
  23426147.211 4 123105311.203 4  95926185.10346  23426155.43046
  23800183.352 3 125070779.836 3  97457814.73246  23800194.59846
 22  7  3 12 46 15.0000000  0  7G03G04G06G07G09G16G30               
  21476254.906 6 112858466.620 6  87941705.78248  21476265.35548
  21547431.031 6 113232508.971 6  88233160.02347  21547439.98047
  22772268.070 1 119669040.679 1  93248667.61045  22772278.87145
  21014634.328 6 110432651.913 6  86051450.50848  21014642.91848
  21286724.766 6 111862440.463 6  87165578.91748  21286735.61748
  23427740.953 4 123113688.676 4  95932712.99446  23427749.20346
  23798305.672 3 125060918.527 3  97450130.62746  23798318.23046
 22  7  3 12 46 20.0000000  0  7G03G04G06G07G09G16G30               
  21479363.352 6 112874803.062 6  87954435.47548  21479373.62948
  21549374.617 6 113242721.567 6  88241117.88348  21549383.77048
  22773431.156 1 119675157.692 1  93253434.05745  22773442.95345
  21013628.023 6 110427364.389 6  86047330.35748  21013636.46548
  21287193.211 7 111864902.891 7  87167497.69348  21287204.09048
  23429338.273 3 123122079.986 3  95939251.68346  23429346.40246
  23796430.227 4 125051063.915 4  97442451.69046  23796442.67646
 22  7  3 12 46 25.0000000  0  7G03G04G06G07G09G16G30               
  21482474.602 6 112891151.849 6  87967174.79448  21482484.95748
  21551318.461 6 113252937.740 6  88249078.52847  21551327.86747
  22774600.039 1 119681290.563 1  93258212.94045  22774610.02045
  21012624.422 6 110422089.344 6  86043219.93048  21012632.53948
  21287662.961 6 111867368.798 6  87169419.16648  21287672.94148
  23430938.094 3 123130485.329 3  95945801.29246  23430945.77046
  23794556.219 4 125041216.190 4  97434778.15446  23794568.61746
 22  7  3 12 46 30.0000000  0  7G03G04G06G07G09G16G30               
  21485587.969 6 112907512.854 6  87979923.62548  21485598.57448
  21553263.266 6 113263157.342 6  88257041.85147  21553272.40247
  22775768.633 1 119687439.043 1  93263003.93345  22775779.55945
  21011622.773 6 110416826.629 6  86039119.11348  21011631.36748
  21288132.547 6 111869838.090 6  87171343.28548  21288142.84048
  23432540.172 3 123138904.521 3  95952361.69046  23432548.30146
  23792684.031 4 125031375.148 4  97427109.81546  23792696.07046
 22  7  3 12 46 35.0000000  0  7G03G04G06G07G09G16G30               
  21488703.461 6 112923885.830 6  87992681.77848  21488714.08648
  21555208.375 6 113273380.188 6  88265007.69547  21555218.02347
  22776941.477 1 119693602.903 1  93267806.97245  22776952.44145
  21010623.914 6 110411576.044 6  86035027.75148  21010631.96948
  21288603.250 6 111872310.569 6  87173269.89348  21288613.54748
  23434144.625 3 123147337.416 3  95958932.75846  23434152.87946
  23790811.875 4 125021540.667 4  97419446.59946  23790824.49646
 22  7  3 12 46 40.0000000  0  7G03G04G06G07G09G16G30               
  21491821.828 6 112940270.782 6  88005449.26848  21491831.87548
  21557154.500 6 113283606.191 6  88272975.99447  21557164.05147
  22778117.477 1 119699782.237 1  93272622.02345  22778128.89145
  21009627.047 6 110406337.626 6  86030945.86648  21009635.23448
  21289074.438 6 111874786.179 6  87175198.93848  21289084.48848
  23435752.805 4 123155784.032 4  95965514.53946  23435759.87146
  23788941.609 5 125011712.738 5  97411788.46746  23788954.28946
 22  7  3 12 46 45.0000000  0  7G03G04G06G07G09G16G30               
  21494942.031 6 112956667.676 6  88018226.07548  21494951.81648
  21559100.789 6 113293835.425 6  88280946.82447  21559110.34047
  22779295.977 1 119705976.933 1  93277449.04045  22779307.53945
  21008632.297 6 110401111.360 6  86026873.44448  21008640.75048
  21289546.117 6 111877264.954 6  87177130.45448  21289556.51248
  23437360.813 4 123164244.249 4  95972106.93846  23437369.78946
  23787072.164 5 125001891.242 5  97404135.34546  23787084.93446
 22  7  3 12 46 50.0000000  0  7G03G04G06G07G09G16G30               
  21498064.688 6 112973077.051 6  88031012.59448  21498075.00048
  21561048.320 6 113304068.383 6  88288920.54547  21561057.47347
  22780477.352 1 119712187.521 1  93282288.49745  22780489.50845
  21007640.125 6 110395897.701 6  86022810.85648  21007648.48048
  21290018.625 6 111879747.418 6  87179064.83948  21290028.77748
  23438973.664 4 123172718.685 4  95978710.39946  23438982.78946
  23785205.289 4 124992076.878 4  97396487.80446  23785217.52046
 22  7  3 12 46 55.0000000  0  7G03G04G06G07G09G16G30               
  21501189.242 6 112989499.134 6  88043809.01248  21501199.48848
  21562996.578 6 113314305.305 6  88296897.35847  21563006.21547
  22781662.180 2 119718414.246 2  93287140.45645  22781674.33645
  21006650.414 6 110390696.997 6  86018758.35648  21006658.70748
  21290491.344 6 111882233.778 6  87181002.25848  21290502.23048
  23440589.367 3 123181207.558 3  95985325.09846  23440597.75446
  23783338.773 4 124982269.792 4  97388845.91546  23783351.12946
 22  7  3 12 47  0.0000000  0  7G03G04G06G07G09G16G30               
  21504317.484 6 113005933.817 6  88056615.26648  21504327.33648
  21564945.211 6 113324546.111 6  88304877.21247  21564954.84447
  22782850.797 2 119724657.101 2  93292005.05645  22782862.24245
  21005663.203 6 110385509.132 6  86014715.86348  21005671.43448
  21290965.352 6 111884723.990 6  87182942.69248  21290975.62548
  23442208.141 3 123189710.741 3  95991950.96946  23442216.20346
  23781475.031 4 124972469.889 4  97381209.66246  23781486.57046
 22  7  3 12 47  5.0000000  0  7G03G04G06G07G09G16G30               
  21507446.703 6 113022380.690 6  88069430.99648  21507457.07848
  21566895.023 6 113334790.357 6  88312859.73347  21566903.75047
  22784039.805 2 119730915.511 2  93296881.72645  22784053.69545
  21004678.461 6 110380333.627 6  86010683.00448  21004686.29748
  21291439.797 6 111887217.600 6  87184885.75948  21291450.24648
  23443829.141 2 123198227.858 2  95998587.68646  23443837.17246
  23779609.969 4 124962676.829 4  97373578.69146  23779622.56646
 22  7  3 12 47 10.0000000  0  7G03G04G06G07G09G16G30               
  21510579.078 6 113038839.478 6  88082256.02748  21510589.84848
  21568844.906 6 113345037.800 6  88320844.74947  21568854.59847
  22785234.484 2 119737189.374 2  93301770.41845  22785247.30145
  21003695.578 6 110375170.333 6  86006659.65848  21003703.94548
  21291915.078 7 111889714.369 7  87186831.29148  21291925.50448
  23445453.031 2 123206758.633 2  96005235.03646  23445460.16846
  23777749.438 4 124952890.266 4  97365952.82046  23777760.29746
 22  7  3 12 47 15.0000000  0  7G03G04G06G07G09G16G30               
  21513713.359 6 113055310.438 6  88095090.54148  21513723.83648
  21570795.609 6 113355288.670 6  88328832.42647  21570804.83647
  22786431.836 2 119743478.692 2  93306671.20045  22786444.25845
  21002715.906 6 110370019.407 6  86002645.94748  21002723.93448
  21292390.813 6 111892214.504 6  87188779.44448  21292401.09048
  23447078.695 2 123215303.302 2  96011893.22746  23447086.37146
  23775887.109 4 124943110.505 4  97358332.20246  23775899.19546
 22  7  3 12 47 20.0000000  0  7G03G04G06G07G09G16G30               
  21516849.805 6 113071793.625 6  88107934.56848  21516860.02748
  21572746.922 6 113365543.131 6  88336822.91747  21572756.50847
  22787631.492 3 119749783.810 3  93311584.29945  22787643.77745
  21001738.039 6 110364881.028 6  85998642.01048  21001746.48048
  21292867.438 6 111894718.164 6  87190730.34848  21292877.53548
  23448706.813 3 123223861.964 3  96018562.29346  23448715.07046
  23774027.422 4 124933337.637 4  97350717.02046  23774039.77046
 22  7  3 12 47 25.0000000  0  7G03G04G06G07G09G16G30               
  21519988.781 6 113088289.188 6  88120788.24648  21519999.44548
  21574698.570 6 113375801.199 6  88344816.20547  21574708.34847
  22788834.688 3 119756104.731 3  93316509.67845  22788847.16845
  21000762.703 6 110359755.226 6  85994647.87848  21000770.91448
  21293344.945 6 111897225.401 6  87192684.04648  21293354.59048
  23450338.180 3 123232434.729 3  96025242.33946  23450346.56646
  23772170.258 4 124923571.801 4  97343107.28646  23772181.35546
 22  7  3 12 47 30.0000000  0  7G03G04G06G07G09G16G30               
  21523130.016 6 113104796.797 6  88133651.31747  21523140.68847
  21576651.477 6 113386062.656 6  88352812.13747  21576661.29347
  22790041.148 3 119762441.127 3  93321447.15445  22790052.81645
  20999789.359 6 110354641.709 6  85990663.35148  20999797.80148
  21293821.953 6 111899735.969 6  87194640.32948  21293832.57448
  23451972.039 4 123241021.289 4  96031933.18646  23451980.64546
  23770312.906 4 124913812.626 4  97335502.74746  23770324.60546
 22  7  3 12 47 35.0000000  0  7G03G04G06G07G09G16G30               
  21526273.703 6 113121316.657 6  88146523.93547  21526284.33647
  21578605.078 6 113396327.682 6  88360810.83847  21578614.52047
  22791248.836 3 119768793.259 3  93326396.84645  22791261.80945
  20998819.375 6 110349540.763 6  85986688.59148  20998827.30948
  21294300.422 6 111902250.053 6  87196599.35448  21294310.54748
  23453608.539 4 123249621.923 4  96038634.97046  23453617.72746
  23768457.297 4 124904060.433 4  97327903.64346  23768468.70346
 22  7  3 12 47 40.0000000  0  7G03G04G06G07G09G16G30               
  21529419.500 6 113137848.555 6  88159405.92447  21529429.97747
  21580558.844 6 113406596.032 6  88368812.14547  21580568.80947
  22792461.109 3 119775160.857 3  93331358.61545  22792473.62545
  20997850.438 6 110344452.123 6  85982723.41248  20997859.11748
  21294779.398 6 111904767.474 6  87198560.97948  21294789.52348
  23455246.836 4 123258236.311 4  96045347.49346  23455256.74246
  23766601.492 5 124894314.967 5  97320309.80946  23766614.30946
 22  7  3 12 47 45.0000000  0  7G03G04G06G07G09G16G30               
  21532567.867 6 113154392.874 6  88172297.60448  21532578.67248
  21582513.727 6 113416868.128 6  88376816.36747  21582523.49247
  22793674.867 3 119781544.302 3  93336332.72745  22793687.99645
  20996884.516 6 110339376.194 6  85978768.14348  20996892.88348
  21295259.133 6 111907288.569 6  87200525.46648  21295269.49648
  23456889.773 4 123266864.896 4  96052071.08246  23456898.64546
  23764748.648 5 124884576.602 5  97312721.47946  23764761.41846
 22  7  3 12 47 50.0000000  0  7G03G04G06G07G09G16G30               
  21535718.617 6 113170949.292 6  88185198.69748  21535729.53148
  21584469.188 6 113427143.647 6  88384823.26047  21584478.97347
  22794893.805 3 119787943.316 3  93341318.96245  22794905.49645
  20995920.813 6 110334312.635 6  85974822.51548  20995929.14848
  21295739.477 6 111909813.001 6  87202492.55848  21295749.55148
  23458534.031 3 123275507.370 3  96058805.46646  23458543.12146
  23762897.406 4 124874845.050 4  97305138.44846  23762909.62546
 22  7  3 12 47 55.0000000  0  7G03G04G06G07G09G16G30               
  21538871.148 6 113187517.750 6  88198109.17748  21538882.02048
  21586425.477 6 113437422.530 6  88392832.78147  21586434.84847
  22796114.461 2 119794357.819 2  93346317.31745  22796126.13745
  20994959.672 6 110329261.465 6  85970886.54248  20994967.57448
  21296220.656 6 111912340.832 6  87204462.29848  21296230.69148
  23460181.172 3 123284163.670 3  96065550.62346  23460190.48046
  23761046.680 5 124865120.282 5  97297560.72046  23761058.65646
 22  7  3 12 48  0.0000000  0  7G03G04G06G07G09G16G30               
  21542027.086 6 113204098.563 6  88211029.29048  21542037.63348
  21588382.219 6 113447705.110 6  88400845.17147  21588391.21547
  22797337.758 2 119800788.084 2  93351327.91145  22797349.82045
  20994001.031 6 110324222.924 6  85966960.40448  20994008.75048
  21296702.188 6 111914872.282 6  87206434.85948  21296712.44948
  23461831.977 3 123292834.157 3  96072306.83046  23461840.53946
  23759197.102 4 124855402.559 4  97289988.46746  23759209.18446
 22  7  3 12 48  5.0000000  0  7G03G04G06G07G09G16G30               
  21545183.805 6 113220691.398 6  88223958.76948  21545195.06348
  21590339.375 6 113457991.108 6  88408860.23348  21590348.75848
  22798564.523 2 119807233.877 2  93356350.59045  22798576.52745
  20993044.445 6 110319196.743 6  85963043.90048  20993052.39548
  21297184.945 6 111917407.078 6  87208410.02248  21297194.98048
  23463484.469 3 123301518.533 3  96079073.89346  23463493.09846
  23757349.086 4 124845691.694 4  97282421.55746  23757360.92246
 22  7  3 12 48 10.0000000  0  7G03G04G06G07G09G16G30               
  21548343.578 6 113237296.485 6  88236897.78548  21548355.09048
  21592296.820 6 113468280.664 6  88416878.05847  21592306.80947
  22799794.102 2 119813695.416 2  93361385.55145  22799806.45745
  20992090.664 6 110314183.132 6  85959137.19348  20992098.37948
  21297668.133 6 111919945.414 6  87210387.95748  21297677.85948
  23465139.375 4 123310216.803 4  96085851.74346  23465148.43846
  23755502.828 4 124835987.754 4  97274860.07346  23755514.77746
 22  7  3 12 48 15.0000000  0  7G03G04G06G07G09G16G30               
  21551505.883 6 113253913.498 6  88249846.10548  21551517.19548
  21594255.531 6 113478573.513 6  88424898.45047  21594265.14547
  22801027.453 1 119820172.247 1  93366432.48045  22801038.82445
  20991138.828 6 110309181.784 6  85955240.04648  20991146.79348
  21298151.344 6 111922487.006 6  87212368.41748  21298161.31648
  23466797.453 4 123318928.830 4  96092640.34146  23466806.20746
  23753657.266 4 124826290.572 4  97267303.79946  23753668.66046
 22  7  3 12 48 20.0000000  0  7G03G04G06G07G09G16G30               
  21554670.367 6 113270542.932 6  88262804.09848  21554681.93048
  21596215.289 6 113488870.172 6  88432921.82047  21596224.84047
  22802261.969 1 119826664.959 1  93371491.67545  22802274.46145
  20990189.383 6 110304193.229 6  85951352.86048  20990197.25848
  21298636.070 6 111925032.316 6  87214351.77648  21298646.14548
  23468457.227 4 123327655.003 4  96099439.95146  23468466.71946
  23751813.156 4 124816600.490 4  97259753.11246  23751825.07046
 22  7  3 12 48 25.0000000  0  7G03G04G06G07G09G16G30               
  21557836.688 6 113287184.564 6  88275771.59048  21557849.01248
  21598175.211 6 113499170.358 6  88440947.93547  21598184.65647
  22803501.734 1 119833173.356 1  93376563.17545  22803513.24645
  20989242.258 6 110299217.206 6  85947475.44248  20989250.52048
  21299120.734 6 111927581.172 6  87216337.90648  21299130.94548
  23470121.344 4 123336395.242 4  96106250.56546  23470130.10546
  23749970.227 4 124806917.461 4  97252207.90146  23749982.63346
 22  7  3 12 48 30.0000000  0  7G03G04G06G07G09G16G30               
  21561006.617 6 113303838.413 6  88288748.60448  21561017.87948
  21600136.656 6 113509474.122 6  88448976.82947  21600145.50847
  22804744.641 1 119839697.407 1  93381646.81645  22804754.73045
  20988298.438 6 110294253.773 6  85943607.82148  20988306.17648
  21299606.484 6 111930133.558 6  87218326.77748  21299616.65648
  23471787.000 4 123345149.554 4  96113072.07546  23471795.73046
  23748129.320 4 124797241.408 4  97244668.12646  23748140.93046
 22  7  3 12 48 35.0000000  0  7G03G04G06G07G09G16G30               
  21564177.938 6 113320504.215 6  88301734.93948  21564189.27748
  21602097.414 6 113519781.324 6  88457008.41847  21602107.13347
  22805985.727 1 119846236.978 1  93386742.60345  22805999.29345
  20987355.844 6 110289302.703 6  85939749.85048  20987364.19548
  21300092.742 6 111932689.319 6  87220318.27848  21300103.11348
  23473455.086 4 123353917.622 4  96119904.32346  23473464.49646
  23746289.922 4 124787572.185 4  97237133.67446  23746301.12146
 22  7  3 12 48 40.0000000  0  7G03G04G06G07G09G16G30               
  21567351.148 6 113337181.935 6  88314730.56247  21567362.73447
  21604059.133 6 113530091.785 6  88465042.53447  21604068.82447
  22807231.563 1 119852791.810 1  93391850.20845  22807246.94945
  20986416.641 6 110284363.932 6  85935901.45948  20986424.25048
  21300579.391 6 111935248.294 6  87222312.28448  21300590.15648
  23475126.695 4 123362699.377 4  96126747.25946  23475135.37146
  23744450.289 4 124777909.610 4  97229604.39346  23744462.65246
 22  7  3 12 48 45.0000000  0  7G03G04G06G07G09G16G30               
  21570527.242 6 113353871.340 6  88327735.27947  21570539.00047
  21606022.164 6 113540405.315 6  88473079.04347  21606031.93047
  22808485.609 1 119859361.767 1  93396969.67845  22808496.72345
  20985478.609 6 110279437.231 6  85932062.47048  20985486.80948
  21301067.375 6 111937810.321 6  87224308.67448  21301077.51248
  23476800.227 4 123371494.622 4  96133600.69246  23476809.08646
  23742612.820 4 124768253.585 4  97222080.24646  23742624.88746
 22  7  3 12 48 50.0000000  0  7G03G04G06G07G09G16G30               
  21573705.938 6 113370573.021 6  88340749.57448  21573717.59048
  21607984.969 6 113550722.540 6  88481118.43447  21607995.01247
  22809737.430 1 119865947.450 1  93402101.36645  22809749.97345
  20984543.523 6 110274523.220 6  85928233.37748  20984551.78948
  21301556.070 6 111940375.992 6  87226307.89448  21301565.74648
  23478477.766 4 123380304.026 4  96140465.18146  23478485.07446
  23740776.883 4 124758604.673 4  97214561.64146  23740788.93846
 22  7  3 12 48 55.0000000  0  7G03G04G06G07G09G16G30               
  21576886.188 6 113387286.883 6  88353773.35348  21576897.65648
  21609948.688 6 113561043.362 6  88489160.62547  21609959.14147
  22810994.203 1 119872548.876 1  93407245.30845  22811005.65245
  20983610.688 6 110269621.806 6  85924414.08848  20983618.98048
  21302044.445 6 111942945.197 6  87228309.87948  21302054.98848
  23480155.883 4 123389127.422 4  96147340.54146  23480164.64146
  23738942.063 4 124748962.859 4  97207048.52346  23738953.79746
 22  7  3 12 49  0.0000000  0  7G03G04G06G07G09G16G30               
  21580069.047 6 113404012.617 6  88366806.38248  21580080.36348
  21611914.102 6 113571367.458 6  88497205.36647  21611923.53947
  22812253.219 2 119879165.542 2  93412401.12945  22812265.09845
  20982680.023 6 110264732.680 6  85920604.38848  20982688.76648
  21302533.961 6 111945517.686 6  87230314.41348  21302544.35248
  23481837.750 4 123397964.574 4  96154226.63846  23481846.11346
  23737108.797 4 124739327.748 4  97199540.67746  23737120.41046
 22  7  3 12 49  5.0000000  0  7G03G04G06G07G09G16G30               
  21583253.773 6 113420750.272 6  88379848.70748  21583265.54748
  21613879.234 6 113581694.936 6  88505252.74447  21613889.03547
  22813514.469 2 119885797.604 2  93417568.94945  22813527.00045
  20981752.313 6 110259855.936 6  85916804.32148  20981760.87948
  21303023.836 6 111948093.445 6  87232321.50148  21303034.17648
  23483521.922 4 123406815.484 4  96161123.45546  23483530.32446
  23735276.547 5 124729699.477 5  97192038.12846  23735288.73446
 22  7  3 12 49 10.0000000  0  7G03G04G06G07G09G16G30               
  21586441.148 6 113437499.765 6  88392900.24848  21586452.67248
  21615844.773 6 113592025.640 6  88513302.64047  21615854.56647
  22814778.859 3 119892444.928 3  93422748.69145  22814791.82445
  20980827.086 6 110254991.454 6  85913013.82248  20980835.12948
  21303514.945 6 111950672.476 6  87234331.14548  21303525.39148
  23485208.586 4 123415680.090 4  96168030.92046  23485217.17246
  23733445.289 5 124720077.889 5  97184540.80346  23733457.82446
 22  7  3 12 49 15.0000000  0  7G03G04G06G07G09G16G30               
  21589630.859 6 113454261.951 6  88405961.69048  21589642.47348
  21617811.469 6 113602360.483 6  88521355.76247  21617821.35947
  22816046.648 2 119899108.417 2  93427941.06345  22816060.04345
  20979903.625 6 110250140.064 6  85909233.51548  20979912.04748
  21304006.758 6 111953255.559 6  87236343.93348  21304016.95348
  23486897.828 4 123424559.166 4  96174949.70146  23486906.46546
  23731616.273 5 124710463.903 5  97177049.38946  23731628.30546
 22  7  3 12 49 20.0000000  0  7G03G04G06G07G09G16G30               
  21592822.789 6 113471035.971 6  88419032.34348  21592834.09448
  21619778.758 6 113612698.606 6  88529411.43247  21619788.53147
  22817318.227 3 119905787.245 3  93433145.34945  22817330.57045
  20978982.523 6 110245301.027 6  85905462.83448  20978990.84848
  21304498.195 6 111955841.898 6  87238359.26248  21304509.10548
  23488590.891 4 123433451.914 4  96181879.11546  23488599.29746
  23729787.438 5 124700856.631 5  97169563.21346  23729799.94946
 22  7  3 12 49 25.0000000  0  7G03G04G06G07G09G16G30               
  21596017.031 6 113487821.950 6  88432112.33148  21596028.43848
  21621747.281 6 113623040.167 6  88537469.77847  21621756.39147
  22818591.836 3 119912481.410 3  93438361.54645  22818604.54345
  20978064.539 6 110240474.426 6  85901701.84648  20978072.22348
  21304991.430 6 111958431.613 6  87240377.22848  21305001.98848
  23490286.000 4 123442358.618 4  96188819.38546  23490293.36346
  23727960.500 5 124691256.292 5  97162082.43246  23727972.89146
 22  7  3 12 49 30.0000000  0  7G03G04G06G07G09G16G30               
  21599213.484 6 113504619.834 6  88445201.57948  21599225.15648
  21623715.172 6 113633385.093 6  88545530.75947  21623724.82447
  22819868.797 4 119919191.013 4  93443589.86845  22819881.60945
  20977148.328 7 110235660.185 7  85897950.49148  20977156.68448
  21305484.820 6 111961024.682 6  87242397.80248  21305495.28548
  23491982.508 4 123451279.017 4  96195770.34646  23491991.21146
  23726135.242 4 124681662.777 4  97154606.97746  23726147.00446
 22  7  3 12 49 35.0000000  0  7G03G04G06G07G09G16G30               
  21602412.461 6 113521429.660 6  88458300.14247  21602423.72747
  21625684.508 6 113643733.388 6  88553594.35747  21625694.33247
  22821148.281 4 119925916.001 4  93448830.11645  22821160.89145
  20976233.953 6 110230858.342 6  85894208.80148  20976242.56348
  21305979.109 6 111963621.072 6  87244420.95448  21305989.51248
  23493683.773 4 123460213.199 4  96202732.03746  23493691.27346
  23724311.328 4 124672076.162 4  97147136.87946  23724322.58646
 22  7  3 12 49 40.0000000  0  7G03G04G06G07G09G16G30               
  21605613.336 6 113538251.400 6  88471407.97948  21605624.67648
  21627653.953 6 113654085.070 6  88561660.60047  21627664.04347
  22822431.703 4 119932656.347 4  93454082.37245  22822443.25045
  20975323.359 6 110226068.903 6  85890476.77348  20975331.28148
  21306473.758 6 111966220.822 6  87246446.73648  21306483.87948
  23495386.609 4 123469161.249 4  96209704.53246  23495393.85946
  23722488.180 5 124662496.401 5  97139672.14346  23722499.43446
 22  7  3 12 49 45.0000000  0  7G03G04G06G07G09G16G30               
  21608817.211 6 113555085.211 6  88484525.22048  21608827.99248
  21629624.719 6 113664440.303 6  88569729.60847  21629634.57047
  22823717.656 4 119939412.203 4  93459346.66645  22823728.91045
  20974413.859 6 110221292.004 6  85886754.52148  20974422.03948
  21306968.852 6 111968824.081 6  87248475.25148  21306979.11348
  23497091.852 4 123478123.169 4  96216687.84446  23497099.03146
  23720666.719 5 124652923.666 5  97132212.86746  23720677.85246
 22  7  3 12 49 50.0000000  0  7G03G04G06G07G09G16G30               
  21612022.633 6 113571930.951 6  88497651.76048  21612033.75048
  21631595.922 6 113674798.973 6  88577801.30347  21631605.64147
  22825006.047 4 119946183.488 4  93464622.97345  22825017.08245
  20973507.211 6 110216527.569 6  85883041.97748  20973515.27048
  21307464.516 6 111971430.739 6  87250506.40648  21307475.23448
  23498799.133 5 123487098.932 5  96223681.97046  23498807.29346
  23718845.984 5 124643357.838 5  97124758.99346  23718857.18446
 22  7  3 12 49 55.0000000  0  7G03G04G06G07G09G16G30               
  21615230.563 6 113588788.735 6  88510787.69148  21615241.68048
  21633568.070 6 113685161.140 6  88585875.71147  21633577.91047
  22826296.594 4 119952970.252 4  93469911.39145  22826308.61745
  20972603.031 6 110211775.689 6  85879339.21548  20972611.13748
  21307961.844 6 111974040.859 6  87252540.27148  21307972.19948
  23500510.109 5 123496088.632 5  96230686.92946  23500517.80546
  23717027.328 4 124633799.047 4  97117310.60646  23717038.46146
 22  7  3 12 50  0.0000000  0  7G03G04G06G07G09G16G30               
  21618440.648 6 113605658.117 6  88523932.65748  21618451.80948
  21635540.617 6 113695526.423 6  88593952.55047  21635549.86347
  22827591.164 4 119959772.088 4  93475211.50445  22827603.05945
  20971700.820 6 110207035.977 6  85875645.93848  20971709.05548
  21308458.859 6 111976654.066 6  87254576.53748  21308469.36348
  23502223.477 5 123505091.872 5  96237702.44546  23502231.17646
  23715209.289 4 124624246.887 4  97109867.38346  23715220.98846
 22  7  3 12 50  5.0000000  0  7G03G04G06G07G09G16G30               
  21621653.125 6 113622539.757 6  88537087.17148  21621663.84048
  21637513.594 6 113705895.458 6  88602032.30847  21637523.30547
  22828889.898 3 119966589.616 3  93480523.95345  22828900.54745
  20970802.031 6 110202309.161 6  85871962.70448  20970809.33648
  21308956.984 6 111979270.998 6  87256615.70048  21308967.46548
  23503938.602 5 123514109.251 5  96244728.97046  23503947.17246
  23713393.570 4 124614701.987 4  97102429.80846  23713404.65246
 22  7  3 12 50 10.0000000  0  7G03G04G06G07G09G16G30               
  21624867.445 6 113639432.832 6  88550250.59248  21624878.48048
  21639487.563 6 113716267.430 6  88610114.35447  21639496.74247
  22830189.047 3 119973422.040 3  93485847.83945  22830200.55145
  20969904.508 6 110197594.311 6  85868288.79948  20969912.53948
  21309455.852 6 111981890.844 6  87258657.13648  21309465.89148
  23505657.727 4 123523139.938 4  96251765.88046  23505665.88346
  23711578.328 4 124605163.499 4  97094997.21646  23711589.68446
 22  7  3 12 50 15.0000000  0  7G03G04G06G07G09G16G30               
  21628084.000 6 113656337.603 6  88563423.13248  21628095.46148
  21641461.547 6 113726642.607 6  88618198.90247  21641471.46147
  22831493.359 3 119980269.648 3  93491183.70545  22831503.61345
  20969009.672 6 110192891.642 6  85864624.38548  20969017.99248
  21309954.719 6 111984513.854 6  87260701.04448  21309965.24248
  23507378.133 5 123532184.222 5  96258813.35646  23507386.89146
  23709763.953 4 124595631.766 4  97087569.90046  23709775.51646
 22  7  3 12 50 20.0000000  0  7G03G04G06G07G09G16G30               
  21631303.977 6 113673254.249 6  88576604.92348  21631314.51248
  21643437.094 6 113737021.203 6  88626286.10547  21643446.64847
  22832798.625 2 119987132.550 2  93496531.41545  22832809.46545
  20968117.000 6 110188201.468 6  85860969.70248  20968125.56648
  21310454.398 6 111987140.226 6  87262747.56948  21310464.85548
  23509103.367 4 123541242.272 4  96265871.60246  23509110.78946
  23707950.961 4 124586106.964 4  97080147.98146  23707963.27346
 22  7  3 12 50 25.0000000  0  7G03G04G06G07G09G16G30               
  21634524.883 6 113690183.204 6  88589796.30648  21634536.27748
  21645412.984 6 113747403.604 6  88634376.28447  21645422.63347
  22834107.344 2 119994011.209 2  93501891.41545  22834118.91445
  20967226.688 6 110183524.131 6  85857325.02548  20967235.27048
  21310954.633 6 111989770.412 6  87264797.05948  21310965.69148
  23510829.070 4 123550314.505 4  96272940.86646  23510837.14846
  23706140.414 4 124576589.571 4  97072731.80846  23706152.11746
 22  7  3 12 50 30.0000000  0  7G03G04G06G07G09G16G30               
  21637748.586 6 113707123.751 6  88602996.71748  21637759.41848
  21647388.695 6 113757789.217 6  88642468.97147  21647398.58247
  22835419.266 1 120000905.026 1  93507263.12245  22835430.75445
  20966339.164 6 110178858.946 6  85853689.81848  20966347.59048
  21311455.883 6 111992403.727 6  87266848.99948  21311466.54748
  23512558.398 4 123559400.332 4  96280020.71546  23512566.02046
  23704330.930 4 124567078.785 4  97065320.82746  23704342.28146
 22  7  3 12 50 35.0000000  0  7G03G04G06G07G09G16G30               
  21640974.305 6 113724076.197 6  88616206.40348  21640985.75848
  21649365.203 6 113768178.184 6  88650564.26047  21649375.11347
  22836733.625 1                                  22836746.03545
  20965453.172 6 110174206.233 6  85850064.33448  20965462.37948
  21311958.094 6 111995040.432 6  87268903.57048  21311968.55148
  23514289.547 5 123568499.970 5  96287111.33246  23514297.25046
  23702521.398 4 124557574.990 4  97057915.25246  23702533.69146
 22  7  3 12 50 40.0000000  0  7G03G04G06G07G09G16G30               
  21644202.742 6 113741040.980 6  88629425.70848  21644213.93048
  21651343.523 5 113778571.085 5  88658662.61647  21651353.10247
  22838051.617 1 120014739.17411                
  20964570.570 6 110169566.484 6  85846448.95248  20964579.00048
  21312460.141 6 111997681.005 6  87270961.15948  21312470.83648
  23516023.336 5 123577613.839 5  96294213.06046  23516031.89846
  23700714.859 4 124548078.635 4  97050515.53246  23700727.00846
 22  7  3 12 50 45.0000000  0  7G03G04G06G07G09G16G30               
  21647433.313 6 113758017.483 6  88642654.14248  21647444.81348
  21653322.211 5 113788967.242 5  88666763.52147  21653331.15647
  22839370.469 1                                
  20963690.203 6 110164939.000 6  85842843.11648  20963698.95748
  21312963.055 6 112000324.796 6  87273021.25248  21312973.82448
  23517760.469 5 123586741.377 5  96301325.42646  23517769.07446
  23698908.930 4 124538589.090 4  97043121.09646  23698921.40246
 22  7  3 12 50 50.0000000  0  7G03G04G06G07G09G16G30               
  21650666.352 6 113775005.879 6  88655891.83548  21650677.53148
  21655300.781 6 113799366.869 6  88674867.11147  21655310.02047
  22840693.328 1 120028634.73011                
  20962812.070 6 110160324.054 6  85839247.06248  20962820.46148
  21313467.453 6 112002972.008 6  87275084.01248  21313477.67648
  23519499.867 4 123595882.733 4  96308448.56646  23519508.82046
  23697104.367 3 124529106.548 3  97035732.09446  23697117.03546
 22  7  3 12 50 55.0000000  0  6G03G04G07G09G16G30                  
  21653901.266 6 113792005.756 6  88669138.49248  21653911.68448
  21657279.836 6 113809769.582 6  88682973.11047  21657289.84047
  20961936.203 6 110155721.194 6  85835660.41048  20961944.45348
  21313971.703 6 112005622.295 6  87277149.16948  21313981.76248
  23521241.313 4 123605037.537 4  96315582.18646  23521250.86346
  23695301.625 4 124519630.645 4  97028348.30046  23695314.14146
 22  7  3 12 51  0.0000000  0  6G03G04G07G09G16G30                  
  21657138.398 6 113809017.435 6  88682394.32948  21657149.53148
  21659260.602 6 113820175.582 6  88691081.68147  21659270.12147
  20961062.867 6 110151130.738 6  85832083.44448  20961071.39848
  21314476.797 6 112008275.875 6  87279216.89748  21314486.46948
  23522986.695 5 123614206.092 5  96322726.50046  23522995.27746
  23693499.867 4 124510161.618 4  97020969.84146  23693512.28946
 22  7  3 12 51  5.0000000  0  6G03G04G07G09G16G30                  
  21660378.078 6 113826040.846 6  88695659.32148  21660388.80148
  21661241.273 5 113830584.986 5  88699192.89647  21661250.69947
  20960190.945 6 110146552.732 6  85828516.16448  20960199.97348
  21314982.422 6 112010932.794 6  87281287.22648  21314992.66448
  23524733.742 5 123623388.369 5  96329881.53246  23524742.98846
  23691699.195 3 124500699.528 3  97013596.80346  23691711.43846
 22  7  3 12 51 10.0000000  0  6G03G04G07G09G16G30                  
  21663619.250 6 113843076.159 6  88708933.58348  21663630.59048
  21663223.422 6 113840997.876 6  88707306.83647  21663232.27047
  20959322.680 6 110141987.244 6  85824958.65148  20959331.16048
  21315488.117 6 112013593.170 6  87283360.23748  21315498.28548
  23526484.352 5 123632584.479 5  96337047.33046  23526492.70746
  23689900.664 3 124491244.442 3  97006229.21046  23689912.22346
 22  7  3 12 51 15.0000000  0  6G03G04G07G09G16G30                  
  21666862.867 6 113860123.510 6  88722217.22547  21666874.75847
  21665205.094 5 113851414.354 5  88715423.55247  21665214.78147
  20958456.523 6 110137434.443 6  85821411.01948  20958464.74648
  21315995.672 6 112016257.123 6  87285436.03548  21316005.68448
  23528236.813 5 123641794.507 5  96344223.95446  23528245.32046
  23688102.086 3 124481796.624 3  96998867.29146  23688114.39146
 22  7  3 12 51 20.0000000  0  6G03G04G07G09G16G30                  
  21670109.594 6 113877182.239 6  88735509.73548  21670120.79348
  21667187.906 6 113861833.873 6  88723542.67047  21667197.64847
  20957592.039 6 110132893.758 6  85817872.83348  20957601.01248
  21316502.938 6 112018924.086 6  87287514.19548  21316512.90648
  23529991.727 4 123651017.949 4  96351411.06446  23530000.58246
  23686306.180 4 124472355.358 4  96991510.44246  23686317.55946
 22  7  3 12 51 25.0000000  0  6G03G04G07G09G16G30                  
  21673357.664 6 113894252.353 6  88748811.11547  21673369.25447
  21669171.063 5 113872256.351 5  88731664.07447  21669180.65647
  20956730.898 6 110128365.105 6  85814344.01348  20956738.66848
  21317011.102 6 112021593.977 6  87289594.62848  21317021.28548
  23531749.820 4 123660254.747 4  96358608.56546  23531758.25046
  23684510.547 4 124462920.676 4  96984158.73146  23684521.72346
 22  7  3 12 51 30.0000000  0  7G03G04G06G07G09G16G30               
  21676608.469 6 113911334.301 6  88762121.72548  21676619.66448
  21671155.188 5 113882682.262 5  88739788.16647  21671164.78947
  22851386.867 1 120084754.72611                
  20955871.297 6 110123848.932 6  85810824.92348  20955879.59848
  21317519.859 6 112024267.301 6  87291677.73348  21317530.10948
  23533509.859 4 123669505.295 4  96365816.79446  23533518.47746
  23682715.898 4 124453492.992 4  96976812.53746  23682727.60246
 22  7  3 12 51 35.0000000  0  7G03G04G06G07G09G16G30               
  21679861.438 6 113928428.286 6  88775441.70348  21679872.77048
  21673140.070 5 113893111.896 5  88747915.15047  21673149.76247
  22852735.195 1                                
  20955014.469 6 110119345.529 6  85807315.78748  20955022.16048
  21318028.836 6 112026944.299 6  87293763.70948  21318039.11348
  23535273.281 5 123678769.928 5  96373035.97246  23535281.68846
  23680923.344 3 124444072.607 3  96969471.95346  23680934.67646
 22  7  3 12 51 40.0000000  0  7G03G04G06G07G09G16G30               
  21683117.547 6 113945534.110 6  88788770.91348  21683127.97748
  21675124.906 5 113903544.994 5  88756044.82147  21675135.07447
  22854088.609 1 120098954.53911                
  20954159.641 6 110114854.629 6  85803816.38248  20954167.62948
  21318538.883 6 112029624.731 6  87295852.35248  21318549.26648
  23537038.469 5 123688048.308 5  96380265.87946  23537047.33246
  23679131.234 4 124434659.252 4  96962136.87246  23679144.01646
 22  7  3 12 51 45.0000000  0  7G03G04G06G07G09G16G30               
  21686374.469 6 113962651.235 6  88802108.90747  21686385.47347
  21677110.844 5 113913981.024 5  88764176.79247  21677120.46547
  22855445.703 2 120106076.876 2                
  20953306.969 6 110110375.782 6  85800326.37248  20953315.53148
  21319049.797 6 112032308.085 6  87297943.27348  21319060.34848
  23538806.578 5 123697340.020 5  96387506.19346  23538815.92246
  23677342.039 4 124425252.482 4  96954806.93546  23677353.73846
 22  7  3 12 51 50.0000000  0  7G03G04G06G07G09G16G30               
  21689633.305 6 113979779.875 6  88815455.91048  21689644.97748
  21679096.773 6 113924420.233 6  88772311.23147  21679107.05147
  22856804.148 2 120113214.157 2                
  20952457.297 6 110105909.163 6  85796845.89148  20952465.66848
  21319561.039 6 112034994.553 6  87300036.62548  21319571.44148
  23540577.250 5 123706645.239 5  96394756.97746  23540586.05546
  23675553.727 4 124415852.456 4  96947482.23946  23675565.44946
 22  7  3 12 51 55.0000000  0  7G03G04G06G07G09G16G30               
  21692896.023 6 113996920.284 6  88828812.06848  21692906.91448
  21681084.820 5 113934862.871 5  88780448.35147  21681094.37147
  22858163.883 3 120120366.728 3                
  20951609.688 7 110101455.083 7  85793375.17848  20951618.27748
  21320072.359 6 112037684.455 6  87302132.64448  21320082.94948
  23542350.406 4 123715964.235 4  96402018.54146  23542359.25046
  23673765.375 4 124406459.440 4  96940163.00946  23673777.91446
 22  7  3 12 52  0.0000000  0  7G03G04G06G07G09G16G30               
  21696159.977 6 114014072.455 6  88842177.39648  21696170.65648
  21683072.227 5 113945308.859 5  88788588.07247  21683082.16847
  22859529.797 3 120127534.501 3                
  20950764.602 6 110097013.424 6  85789914.14348  20950772.85948
  21320584.938 6 112040377.711 6  87304231.28548  21320596.02048
  23544126.430 4 123725297.033 4  96409290.85346  23544135.60546
  23671979.422 4 124397073.455 4  96932849.26646  23671992.44146
 22  7  3 12 52  5.0000000  0  7G03G04G06G07G09G16G30               
  21699426.398 6 114031236.447 6  88855551.92148  21699436.79348
  21685060.961 5 113955758.429 5  88796730.58647  21685070.69947
  22860894.602 2 120134717.568 2                
  20949921.547 7 110092584.362 7  85786462.92048  20949929.28148
  21321098.719 7 112043074.469 7  87306332.66048  21321109.14848
  23545905.367 4 123734643.749 4  96416574.00546  23545914.50446
  23670195.156 3 124387694.600 3  96925541.10346  23670207.76246
 22  7  3 12 52 10.0000000  0  7G03G04G06G07G09G16G30               
  21702694.547 6 114048412.290 6  88868935.68948  21702705.49248
  21687050.164 5 113966211.456 5  88804875.79847  21687060.29747
  22862265.078 2 120141915.913 2                
  20949080.844 6 110088167.894 6  85783021.51848  20949089.52348
  21321611.672 6 112045774.712 6  87308436.74148  21321622.87148
  23547686.867 4 123744004.241 4  96423867.88246  23547695.54746
  23668411.102 3 124378322.889 3  96918238.45746  23668423.72746
 22  7  3 12 52 15.0000000  0  7G03G04G06G07G09G16G30               
  21705965.023 6 114065599.728 6  88882328.49048  21705976.30148
  21689040.383 6 113976667.805 6  88813023.59447  21689050.00447
  22863636.945 2 120149129.352 2                
  20948242.813 6 110083763.792 6  85779589.74948  20948250.99648
  21322126.539 6 112048478.241 6  87310543.39148  21322137.45748
  23549469.797 4 123753378.360 4  96431172.41346  23549479.63746
  23666629.656 3 124368958.100 3  96910941.24746  23666642.16446
 22  7  3 12 52 20.0000000  0  7G03G04G06G07G09G16G30               
  21709237.953 6 114082799.099 6  88895730.59548  21709249.03148
  21691030.492 5 113987127.797 5  88821174.23647  21691040.37147
  22865013.188 2 120156358.233 2                
  20947407.320 6 110079372.416 6  85776167.89648  20947415.60248
  21322642.102 6 112051185.370 6  87312652.84348  21322652.38348
  23551257.180 3 123762766.420 3  96438487.76746  23551265.98846
  23664849.500 4 124359600.530 4  96903649.65846  23664861.39546
 22  7  3 12 52 25.0000000  0  7G03G04G06G07G09G16G30               
  21712512.797 6 114100010.341 6  88909141.94048  21712524.53948
  21693021.711 6 113997591.345 6  88829327.63847  21693031.54347
  22866392.656 2 120163602.361 2                
  20946574.422 6 110074993.669 6  85772755.89548  20946582.55148
  21323157.539 6 112053896.044 6  87314765.05848  21323168.01648
  23553045.703 3 123772168.348 3  96445813.94646  23553055.08246
  23663069.773 4 124350250.158 4  96896363.65746  23663081.72746
 22  7  3 12 52 30.0000000  0  7G03G04G06G07G09G16G30               
  21715790.469 6 114117233.277 6  88922562.40148  21715802.16848
  21695013.219 6 114008058.274 6  88837483.68047  21695022.94147
  22867774.891 1 120170861.751 1                
  20945743.406 6 110070627.416 6  85769353.62948  20945751.44548
  21323673.492 6 112056610.071 6  87316879.88348  21323684.27048
  23554837.961 3 123781583.970 3  96453150.79046  23554846.74646
  23661291.250 4 124340906.868 4  96889083.16246  23661304.02746
 22  7  3 12 52 35.0000000  0  7G03G04G06G07G09G16G30               
  21719070.203 6 114134467.997 6  88935992.04748  21719081.85248
  21697005.875 5 114018528.719 5  88845642.46747  21697015.96147
  22869158.133 1 120178136.348 1                
  20944915.125 6 110066273.777 6  85765961.17748  20944923.33248
  21324191.094 6 112059327.602 6  87318997.44148  21324201.51648
  23556632.328 3 123791013.373 3  96460498.37946  23556641.23446
  23659515.703 4 124331570.663 4  96881808.21446  23659527.56646
 22  7  3 12 52 40.0000000  0  7G03G04G06G07G09G16G30               
  21722352.383 6 114151714.406 6  88949430.80048  21722363.38748
  21698998.453 5 114029002.563 5  88853803.90447  21699008.75047
  22870549.266 2 120185426.099 2                
  20944088.977 6 110061932.626 6  85762578.47148  20944097.35548
  21324709.125 6 112062048.520 6  87321117.64448  21324719.57048
  23558429.055 3 123800456.495 3  96467856.65546  23558437.99646
  23657740.633 4 124322241.500 4  96874538.72846  23657751.51646
 22  7  3 12 52 45.0000000  0  7G03G04G06G07G09G16G30               
  21725636.055 6 114168972.928 6  88962878.99548  21725647.96948
  21700992.602 6 114039480.230 6  88861968.31847  21701002.56347
  22871937.750 1                                
  20943265.289 6 110057604.409 6  85759205.83748  20943273.48048
  21325227.289 6 112064773.239 6  87323240.80548  21325238.03948
  23560228.234 3 123809913.762 3  96475225.95446  23560237.16046
  23655966.109 4 124312919.913 4  96867275.14646  23655977.73046
 22  7  3 12 52 50.0000000  0  7G03G04G06G07G09G16G30               
  21728922.859 6 114186243.050 6  88976336.21948  21728934.41848
  21702987.344 6 114049961.232 6  88870135.32947  21702997.18847
  22873334.516 1 120200051.87611                
  20942444.000 6 110053288.611 6  85755842.88948  20942452.07048
  21325746.688 6 112067501.281 6  87325366.55148  21325757.07848
  23562031.813 3 123819384.729 3  96482605.91646  23562039.69946
  23654193.250 4 124303605.248 4  96860016.97646  23654204.80946
 22  7  3 12 52 55.0000000  0  7G03G04G06G07G09G16G30               
  21732211.180 6 114203525.080 6  88989802.72148  21732222.85548
  21704982.484 5 114060445.893 5  88878305.19247  21704992.49247
  22874724.523 1 120207387.67411                
  20941624.930 6 110048985.518 6  85752489.82848  20941633.08648
  21326266.773 6 112070232.966 6  87327495.13648  21326276.80548
  23563836.500 2 123828869.548 2  96489996.66646  23563843.83646
  23652422.492 5 124294297.865 5  96852764.48046  23652433.83246
 22  7  3 12 53  0.0000000  0  7G03G04G06G07G09G16G30               
  21735501.844 6 114220818.785 6  89003278.33448  21735513.75048
  21706978.102 5 114070933.983 5  88886477.71947  21706987.73447
  22876124.648 1                                
  20940808.492 6 110044694.978 6  85749146.55048  20940816.58648
  21326786.555 6 112072968.072 6  87329626.39048  21326797.42248
  23565644.836 3 123838368.248 3  96497398.26746  23565651.55546
  23650652.508 4 124284997.610 4  96845517.52446  23650663.62946
 22  7  3 12 53  5.0000000  0  6G03G04G07G09G16G30                  
  21738794.930 6 114238124.030 6  89016762.93348  21738806.64848
  21708974.297 5 114081425.369 5  88894652.82547  21708984.39547
  20939994.430 6 110040416.770 6  85745812.88348  20940002.64548
  21327308.227 6 112075706.426 6  87331760.17448  21327318.32848
  23567453.633 3 123847880.415 3  96504810.33746  23567461.65646
  23648884.453 4 124275704.320 4  96838275.98446  23648895.50846
 22  7  3 12 53 10.0000000  0  6G03G04G07G09G16G30                  
  21742090.578 6 114255440.465 6  89030256.26248  21742102.02048
  21710970.992 5 114091919.728 5  88902830.24847  21710981.52747
  20939182.602 6 110036150.638 6  85742488.62648  20939190.99248
  21327829.750 6 112078447.752 6  87333896.27048  21327840.46548
  23569265.539 4 123857405.862 4  96512232.76646  23569274.52046
  23647117.141 5 124266417.629 5  96831039.61246  23647128.41046
 22  7  3 12 53 15.0000000  0  6G03G04G07G09G16G30                  
  21745388.523 6 114272768.652 6  89043758.72948  21745399.75448
  21712968.977 5 114102417.584 5  88911010.38847  21712978.83647
  20938373.148 6 110031897.127 6  85739174.19648  20938381.37948
  21328351.555 6 112081192.543 6  87336035.07648  21328362.69548
  23571080.773 3 123866945.164 3  96519665.95746  23571089.69946
  23645351.281 5 124257138.205 5  96823808.88746  23645362.64546
 22  7  3 12 53 20.0000000  0  6G03G04G07G09G16G30                  
  21748687.445 6 114290108.406 6  89057270.21548  21748698.80948
  21714967.477 5 114112918.788 5  88919193.14647  21714977.50847
  20937565.781 6 110027656.037 6  85735869.45248  20937574.52048
  21328874.711 6 112083940.657 6  87338176.46248  21328885.36348
  23572898.789 3 123876498.012 3  96527109.72246  23572907.20346
  23643586.492 5 124247865.691 5  96816583.55747  23643597.77347
 22  7  3 12 53 25.0000000  0  6G03G04G07G09G16G30                  
  21751989.281 6 114307459.773 6  89070790.75648  21752000.94948
  21716966.898 5 114123423.396 5  88927378.54447  21716976.83647
  20936762.000 6 110023427.486 6  85732574.48348  20936769.73448
  21329398.898 6 112086692.198 6  87340320.52248  21329408.95748
  23574720.039 3 123886064.627 3  96534564.21146  23574728.15646
  23641823.742 5 124238600.360 5  96809363.83247  23641835.18447
 22  7  3 12 53 30.0000000  0  6G03G04G07G09G16G30                  
  21755293.344 6 114324822.685 6  89084320.28048  21755305.09048
  21718966.180 5 114133931.368 5  88935566.57247  21718975.25047
  20935959.156 6 110019211.407 6  85729289.22348  20935967.46548
  21329922.656 6 112089447.040 6  87342467.16048  21329933.39148
  23576542.633 2 123895644.889 2  96542029.34346  23576551.13346
  23640061.219 5 124229341.994 5  96802149.51847  23640073.32047
 22  7  3 12 53 35.0000000  0  6G03G04G07G09G16G30                  
  21758599.555 6 114342197.036 6  89097858.72648  21758611.34848
  21720966.273 5 114144442.565 5  88943757.10947  21720976.34047
  20935159.320 6 110015007.720 6  85726013.62548  20935167.61348
  21330447.797 6 112092205.116 6  87344616.31648  21330457.95748
  23578368.180 3 123905238.606 3  96549504.98146  23578376.33246
  23638301.195 5 124220090.579 5  96794940.63446  23638312.81346
 22  7  3 12 53 40.0000000  0  6G03G04G07G09G16G30                  
  21462116.406 6 112784166.472 6  87883808.93148  21462128.30948
  21423175.125 5 112579539.285 5  87724351.94547  21423185.27747
  20634568.734 6 108435395.674 6  84495147.09948  20634577.46148
  21031181.180 7 110519547.178 7  86119168.57048  21031191.44948
  23280405.281 3 122339427.990 3  95329392.82446  23280412.44946
  23336749.258 5 122635424.442 5  95560135.88047  23336761.03147
